,Unnamed: 0,street,project,marketSegment,SVY21_x,SVY21_y,lat,long,avg_price_per_sqm,district,commonest_tenure,num_malls,num_taxi_stands,num_primary_schools,num_mrt,num_hawker,num_carparks,num_bus_stops,num_chas_clinics,num_sports_facilities,num_community_centers,num_supermarkets,num_secondary_schools,num_eating_establishments,num_eating_establishments_,num_parks
0,0,COVE DRIVE,TURQUOISE,CCR,28382.47067,25008.335919999998,1.2424409850962668,103.83675517458336,15570.33369730509,4,99 yrs lease commencing from 2007,0,0,0,0,0,0,0,0,0,0,2,0,0,37,0
1,1,ALEXANDRA VIEW,ARTRA,RCR,26204.500790000002,30270.562189999997,1.2900306705735745,103.81718527391092,19221.8244350349,3,99 yrs lease commencing from 2016,0,3,2,1,4,24,59,14,6,3,6,4,0,268,1
2,2,YONG SIAK STREET,RESIDENTIAL APARTMENTS,RCR,27660.973039999997,29438.534630000002,1.2825061550750398,103.8302722903073,16778.801843317968,3,9999 yrs lease commencing from 1963,1,2,2,3,5,24,45,19,1,3,10,1,0,472,3
3,3,BEACH ROAD,CITY GATE,RCR,31220.919060000004,31632.51122,1.3023475431295195,103.86226001233265,20725.023997420383,7,99 yrs lease commencing from 2014,7,11,1,4,4,9,46,17,14,2,15,0,0,1355,4
4,4,OCEAN DRIVE,THE COAST AT SENTOSA COVE,CCR,29138.210010000003,25323.25071,1.2452889471814053,103.8435456932676,16626.20433853776,4,99 yrs lease commencing from 2006,0,0,0,0,0,0,0,0,0,0,2,0,0,29,0
5,5,PASIR PANJANG ROAD,THE FOLIAGE,RCR,21404.7092,30380.062910000004,1.2910203128569078,103.77405714193232,13965.335909884872,5,Freehold,0,0,0,0,0,0,0,0,0,0,0,0,0,89,0
6,6,CENTRAL BOULEVARD,MARINA BAY SUITES,CCR,30095.036180000003,29199.570539999997,1.2803449800408624,103.85214327765979,20441.91121142155,1,99 yrs lease commencing from 2007,4,30,0,8,5,2,33,34,30,1,12,0,0,1746,7
7,7,SPOTTISWOODE PARK ROAD,SPOTTISWOODE SUITES,RCR,28465.5867,28723.00077,1.2760351160782781,103.83750204635528,22894.247858051156,2,Freehold,2,14,1,3,3,5,40,14,14,2,9,0,0,854,2
8,8,TELOK BLANGAH ROAD,HARBOURLIGHTS,RCR,26839.65754,27675.30517,1.2665601059288716,103.82289251555979,15950.025810983878,4,Freehold,2,2,1,1,1,5,5,5,3,0,5,0,0,369,0
9,9,SHENTON WAY,V ON SHENTON,CCR,29765.39916,28838.920430000002,1.2770834071094717,103.84918134351813,24567.917058258965,1,99 yrs lease commencing from 2011,4,33,0,7,7,1,40,40,33,2,12,0,0,1815,5
10,10,BENCOOLEN STREET,BURLINGTON SQUARE,RCR,30157.000310000003,31620.97109,1.3022432704262958,103.85270021468806,13440.894103762925,7,99 yrs lease commencing from 1996,13,22,1,7,3,8,63,25,16,0,15,0,0,2134,7
11,11,MOUNT FABER ROAD,MOUNT FABER LODGE,RCR,27033.64383,27934.07322,1.268900320136196,103.82463553922561,12445.72668216362,4,Freehold,2,2,2,1,1,5,8,5,2,1,5,0,0,306,0
12,12,SHENTON WAY,ONE SHENTON,CCR,29918.010060000004,29083.45837,1.2792949135716083,103.85055262356882,18082.759241818214,1,99 yrs lease commencing from 2005,4,35,0,9,7,2,42,39,32,2,16,0,0,1955,7
13,13,WEST COAST CRESCENT,THE VISION,OCR,20320.99671,31161.45122,1.298086661636885,103.76431934676548,13429.423408701841,5,99 yrs lease commencing from 2008,1,0,0,0,1,5,0,6,0,1,3,1,0,175,2
14,14,BEACH ROAD,MIDTOWN BAY,CCR,30676.57432,30970.06495,1.2963566644389748,103.85736876919842,32192.809693720825,7,99 yrs lease commencing from 2018,16,31,1,7,1,12,71,20,12,1,12,0,0,1881,5
15,15,DOVER RISE,HERITAGE VIEW,RCR,22542.30201,31861.34513,1.304416722314186,103.78427862672272,12727.677558835747,5,99 yrs lease commencing from 1996,2,4,1,3,1,7,11,11,2,1,7,1,0,421,6
16,16,WEST COAST WAY,CARABELLE,OCR,19424.17318,33280.65333,1.3172517267545043,103.75626041175792,13930.524810078316,5,956 yrs lease commencing from 1928,1,0,3,0,1,8,0,7,0,0,2,2,0,256,5
17,17,MOUNT FABER ROAD,THE PEARL @ MOUNT FABER,RCR,27042.147380000002,28096.3676,1.2703680539766609,103.8247119416636,12723.069302729673,4,99 yrs lease commencing from 2002,2,2,2,1,1,5,9,8,2,1,5,0,0,335,1
18,18,ZEHNDER ROAD,BUONA VISTA GARDENS,RCR,22777.05175,29526.683930000003,1.2833029147540969,103.78638834984542,12153.222063324805,5,Freehold,0,2,0,2,1,0,0,2,0,0,2,0,0,98,3
19,19,PEARL BANK,PEARL BANK APARTMENT,RCR,28722.95346,29488.88355,1.2829614866292858,103.83981459831399,8833.424751749766,3,99 yrs lease commencing from 1970,4,29,1,7,8,10,51,23,22,4,13,1,0,1535,6
20,20,YEW SIANG ROAD,FRAGRANCE COURT,RCR,23526.45872,28861.306139999997,1.2772855882178786,103.79312215664356,12452.43128964059,5,Freehold,0,0,0,1,1,0,0,5,1,0,3,0,0,182,5
21,21,PASIR PANJANG ROAD,LIIV RESIDENCES,RCR,21690.64361,30102.88785,1.2885136991743402,103.7766264364278,17235.472238110102,5,Freehold,0,2,0,1,0,0,0,1,0,0,0,0,0,157,0
22,22,PRINCE CHARLES CRESCENT,THE CREST,RCR,26574.018959999998,30611.87535,1.2931174058121584,103.82050553244494,20738.33155458204,3,99 yrs lease commencing from 2012,0,3,2,1,4,23,49,15,6,2,9,3,0,175,1
23,23,PRINSEP LINK,SUNSHINE PLAZA,RCR,29932.986660000002,31425.0089,1.3004710722081925,103.85068733742014,13852.12385878083,7,99 yrs lease commencing from 1997,13,28,1,9,2,9,62,19,14,0,11,0,0,1884,7
24,24,YEW SIANG ROAD,FLYNN PARK,RCR,23484.35916,29041.48343,1.278915042096626,103.79274385101007,12798.080615613148,5,Freehold,0,0,0,1,1,0,0,3,1,0,2,0,0,117,5
25,25,ENGGOR STREET,ALTEZ,CCR,29224.32188,28566.29912,1.2746179410524223,103.84431955372328,22165.83840443618,2,99 yrs lease commencing from 2008,2,29,1,5,5,5,37,23,20,2,10,0,0,1345,4
26,26,MIDDLE ROAD,BOON SING BUILDING,CCR,30455.92719,31043.5781,1.297021509617904,103.85538616416693,17788.46153846154,7,999 yrs lease commencing from 1835,17,33,1,9,1,12,73,20,15,0,13,0,0,2016,4
27,27,JALAN MAT JAMBOL,ISLAND VIEW,RCR,23586.03807,29095.951360000003,1.2794076452222365,103.79365746647713,12528.795796139551,5,Freehold,0,0,0,1,1,0,0,3,1,0,2,0,0,150,5
28,28,PASIR PANJANG HILL,KENTVIEW PARK,RCR,22701.29404,29373.431739999996,1.2819169435167093,103.78570766301719,11557.511573042393,5,Freehold,0,2,0,2,1,0,0,2,0,0,2,0,0,61,4
29,29,ALEXANDRA VIEW,ALEX RESIDENCES,RCR,26406.55166,30330.19689,1.290569996777552,103.81900078175173,20879.389165984616,3,99 yrs lease commencing from 2013,0,3,2,1,5,26,60,17,7,3,11,4,0,362,1
30,30,PASIR PANJANG HILL,THE GRANDHILL,RCR,22608.007419999998,29341.29795,1.2816263210663923,103.78486945242656,13932.561797875518,5,Freehold,0,2,0,2,1,0,0,1,0,0,2,0,0,53,3
31,31,DOVER RISE,DOVER PARKVIEW,RCR,22549.76988,32046.804030000003,1.3060939479574167,103.78434569653288,11688.397997015947,5,99 yrs lease commencing from 1993,2,5,1,3,2,7,14,12,3,3,8,1,0,403,8
32,32,MARINA BOULEVARD,MARINA BAY RESIDENCES,CCR,30411.54277,29120.0497,1.2796257989067608,103.85498720380579,24502.970205566748,1,99 yrs lease commencing from 2005,4,18,0,7,3,1,24,26,21,0,7,0,0,1101,6
33,33,SOUTH BRIDGE ROAD,FOOK HAI BUILDING,RCR,29459.47048,29711.7445,1.284976937339476,103.8464325013578,8024.691358024691,1,99 yrs lease commencing from 1972,6,49,0,10,9,5,59,37,38,2,16,0,0,2194,13
34,34,GOPENG STREET,ICON,CCR,29243.99192,28627.34247,1.2751699949579876,103.84449629851349,18292.746843166413,2,99 yrs lease commencing from 2002,2,30,1,5,5,5,40,25,22,2,10,0,0,1442,5
35,35,PASIR PANJANG ROAD,ICON @ PASIR PANJANG,RCR,22706.68934,29104.707860000002,1.2794867007096369,103.78575618667038,13333.333333333336,5,Freehold,0,2,0,2,1,0,0,1,0,0,2,0,0,62,4
36,36,CHIN SWEE ROAD,LANDMARK TOWER,RCR,28696.69635,29836.782180000002,1.2861077603445534,103.83957867557255,10693.80078697207,3,99 yrs lease commencing from 1980,3,27,1,6,6,16,55,17,18,3,11,1,0,1317,7
37,37,PASIR PANJANG ROAD,PASIR PANJANG LODGE,RCR,21218.04537,30439.1218,1.2915543804977463,103.77237987750792,10450.55310259697,5,Freehold,0,0,0,0,0,0,0,0,0,0,0,0,0,62,1
38,38,ROBINSON ROAD,ROBINSON SUITES,CCR,29836.748219999998,29264.781880000002,1.2809347445905586,103.84982246576486,26854.197183752647,1,Freehold,7,41,0,9,8,2,49,40,35,2,19,0,0,2146,8
39,39,PASIR PANJANG ROAD,RESIDENTIAL APARTMENTS,RCR,23396.44653,28788.30894,1.2766254086261009,103.7919539597962,9133.414932680538,5,999 yrs lease commencing from 1966,0,0,0,1,1,0,0,3,1,0,2,0,0,116,4
40,40,PASIR PANJANG ROAD,THE ESTIVA,RCR,21881.71441,30027.82664,1.2878349101371094,103.77834329958063,13543.085994761814,5,Freehold,0,2,0,2,0,0,0,1,0,0,1,0,0,156,0
41,41,HAVELOCK ROAD,RIVER PLACE,RCR,28897.733689999997,30293.99154,1.2902425961258717,103.841385089711,14882.232539064857,3,99 yrs lease commencing from 1995,5,25,1,4,4,10,53,19,8,1,11,1,0,1108,6
42,42,QUEENSWAY,QUEENSWAY TOWER,RCR,24670.01233,30001.273110000002,1.2875951893898572,103.80339728783272,11066.210108187552,3,Freehold,3,3,1,1,3,12,34,12,1,0,3,0,0,224,1
43,43,TAN QUEE LAN STREET,HERITAGE PLACE,CCR,30570.467930000003,31215.1989,1.298573578392417,103.85641537706016,18308.050645007166,7,999 yrs lease commencing from 1827,15,29,1,9,3,11,74,23,16,1,14,0,0,2078,5
44,44,WEST COAST RISE,MONTEREY PARK CONDOMINIUM,OCR,19132.42744,33241.94318,1.3169015631943704,103.75363894063871,12331.438088926856,5,999 yrs lease commencing from 1885,0,0,2,0,1,1,0,4,0,1,1,3,0,145,5
45,45,DUNDEE ROAD,QUEENS PEAK,RCR,25073.21159,30746.7066,1.2943366674887258,103.80702012733845,18261.247034249467,3,99 yrs lease commencing from 2015,3,3,2,1,4,17,55,14,3,2,4,2,0,256,0
46,46,PASIR PANJANG ROAD,JUBILEE RESIDENCE,RCR,21552.57324,30204.596810000003,1.2894334907226426,103.77538579741785,11708.757319968894,5,Freehold,0,1,0,0,0,0,0,0,0,0,0,0,0,114,0
47,47,MARINA BOULEVARD,THE SAIL @ MARINA BAY,CCR,30152.382810000003,29246.50498,1.2807694347809209,103.85265856213984,20770.47483104639,1,99 yrs lease commencing from 2002,4,28,0,7,5,2,33,32,26,1,11,0,0,1599,8
48,48,SOUTH BUONA VISTA ROAD,BAYVILLE CONDOMINIUM,RCR,22929.697999999997,29289.57472,1.2811586078585222,103.7877599736322,11222.833682101907,5,Freehold,0,2,0,2,1,0,0,1,0,0,2,0,0,58,4
49,49,LOWER DELTA ROAD,TERESA VILLE,RCR,26965.66085,28719.4974,1.276003419277985,103.82402466347921,11802.233137929641,4,Freehold,0,2,3,0,3,9,25,11,2,1,5,0,0,268,1
50,50,PASIR PANJANG ROAD,GOLD COAST CONDOMINIUM,RCR,21465.79541,30327.71619,1.2905469205790892,103.77460603766107,11411.850499692393,5,Freehold,0,0,0,0,0,0,0,0,0,0,0,0,0,113,0
51,51,ANSON ROAD,INTERNATIONAL PLAZA,CCR,29399.97237,28720.47273,1.27601222589155,103.8458978435635,11583.888642811891,2,99 yrs lease commencing from 1970,3,32,1,8,5,6,45,32,26,2,14,0,0,1654,5
52,52,UPPER CROSS STREET,PEOPLE'S PARK CENTRE,RCR,29180.94253,29798.080589999998,1.285757742307,103.8439298203305,7636.207198273347,1,99 yrs lease commencing from 1970,5,43,0,7,8,5,60,32,35,2,13,1,0,2007,11
53,53,KEE SENG STREET,ONZE @ TANJONG PAGAR,RCR,28986.742239999996,28591.93026,1.2748497483784151,103.8421848156477,26425.295519202158,2,Freehold,2,25,1,4,4,5,41,19,19,2,8,0,0,1148,5
54,54,CANTONMENT ROAD,THE BEACON,RCR,28797.120039999998,28705.278469999997,1.2758748352120268,103.84048099436531,14300.68492985867,2,99 yrs lease commencing from 2004,3,23,1,4,4,5,42,17,17,2,10,0,0,1160,4
55,55,NORTH BRIDGE ROAD,ONE NORTH BRIDGE,CCR,29768.65001,30271.324239999998,1.2900375640004642,103.84921063350029,15908.108108108108,6,99 yrs lease commencing from 1969,10,39,0,9,4,10,62,33,21,1,13,0,0,1931,12
56,56,YAN KIT ROAD,THE ARRIS,RCR,28921.21402,28663.949689999998,1.2755010688441335,103.84159602294741,20219.330957544633,2,Freehold,3,26,1,4,4,5,42,18,18,2,10,0,0,1215,5
57,57,PASIR PANJANG CLOSE,PASIR PANJANG COURT,RCR,21244.51941,30525.10261,1.2923319660205232,103.77261773929268,12102.643787564768,5,Freehold,0,0,0,0,0,0,0,0,0,0,0,0,0,63,1
58,58,BALMEG HILL,THE PEAK@BALMEG,RCR,22492.951090000002,29433.204410000002,1.28245747065198,103.78383561134912,14395.482309107349,5,Freehold,0,2,0,1,0,0,0,2,0,0,0,0,0,96,3
59,59,PARK ROAD,PEOPLE'S PARK COMPLEX,RCR,29031.25485,29617.94078,1.2841286263583669,103.84258481080047,10231.390662929442,1,99 yrs lease commencing from 1968,4,42,1,8,9,5,61,36,34,3,15,1,0,2072,9
60,60,PASIR PANJANG ROAD,HARBOUR VIEW GARDENS,RCR,22661.689290000002,29042.087000000003,1.2789203722216935,103.7853518548633,18881.764986979066,5,Freehold,0,2,0,2,1,0,0,1,0,0,2,0,0,62,4
61,61,JALAN PASIR RIA,RIA APARTMENTS,RCR,23459.49008,28779.20569,1.276543091154065,103.79252043046006,12755.102040816326,5,Freehold,0,0,0,1,1,0,0,3,1,0,2,0,0,129,4
62,62,STAMFORD ROAD,EDEN RESIDENCES CAPITOL,CCR,29972.996369999997,30597.550939999997,1.2929878313129173,103.85104679070568,33684.21727857664,6,99 yrs lease commencing from 2011,16,41,0,9,2,13,75,21,23,1,12,0,0,2096,12
63,63,WEST COAST WALK,THE PARC CONDOMINIUM,OCR,20145.84021,32576.595660000003,1.3108846759079054,103.76274513248948,13765.39459400109,5,Freehold,4,1,4,1,4,29,0,24,3,1,7,3,0,493,5
64,64,PASIR PANJANG ROAD,THE SPECTRUM,RCR,20795.729180000002,30427.46067,1.2914488269703326,103.7685851939768,11819.987559890193,5,Freehold,0,0,0,0,0,0,0,0,0,0,0,0,0,44,2
65,65,NORMANTON PARK,NORMANTON PARK (DEMOLISHED),RCR,23571.839509999998,29982.80074,1.2874279959821326,103.79352976308823,9044.69456696287,5,102 yrs lease commencing from 1977,0,0,0,0,0,0,4,0,0,0,0,0,0,62,2
66,66,OCEAN DRIVE,THE BERTH BY THE COVE,CCR,29446.56751,25758.09864,1.2492215480522937,103.84631638503963,14058.271269503452,4,99 yrs lease commencing from 2004,0,0,0,0,0,0,0,0,0,0,2,0,0,29,0
67,67,PASIR PANJANG ROAD,PASIR VIEW PARK,RCR,22906.76265,29029.8394,1.2788096497308752,103.78755393242528,12981.600355375725,5,Freehold,0,2,0,2,1,0,0,1,0,0,2,0,0,69,4
68,68,UPPER CIRCULAR ROAD,RIVERWALK APARTMENTS,RCR,29680.47392,30154.93846,1.2889850167708692,103.8484183285668,15788.416554206027,1,99 yrs lease commencing from 1980,8,42,0,8,6,7,60,35,24,1,12,0,0,2027,12
69,69,YONG SIAK STREET,TIONG BAHRU ESTATE,RCR,27664.86248,29434.867789999997,1.2824729935019878,103.8303072384765,17430.351906158357,3,Freehold,1,2,2,3,5,24,46,19,1,3,10,1,0,472,3
70,70,WEST COAST ROAD,THE STELLAR,OCR,20715.66618,30688.137410000003,1.2938062757003783,103.76786573438729,12394.419445354262,5,Freehold,0,0,0,0,0,0,0,0,0,0,1,1,0,61,2
71,71,PASIR PANJANG ROAD,VILLAGE @ PASIR PANJANG,RCR,20960.59138,30363.53478,1.2908707415753091,103.7700665634482,15129.674610913118,5,Freehold,0,0,0,0,0,0,0,0,0,0,0,0,0,47,2
72,72,JALAN LEMPENG,THE TRILINQ,OCR,19966.912809999998,33433.18732,1.3186313361523323,103.76113716107004,14354.940834090758,5,99 yrs lease commencing from 2012,3,1,4,1,2,21,2,16,1,1,5,1,0,346,4
73,73,WEST COAST CRESCENT,WEST BAY CONDOMINIUM,OCR,20439.95978,31284.539460000004,1.2991998567096372,103.76538825220129,9106.97358067466,5,99 yrs lease commencing from 1991,1,0,0,0,1,6,0,6,0,1,3,1,0,200,3
74,74,BENCOOLEN STREET,THE BENCOOLEN,RCR,30229.997489999998,31556.685410000002,1.3016618882507491,103.85335612316273,13905.955482434194,7,99 yrs lease commencing from 1995,14,25,1,9,3,9,65,27,16,0,16,0,0,2202,8
75,75,COMMONWEALTH AVENUE,COMMONWEALTH TOWERS,RCR,25017.083459999998,30871.2987,1.2954634291932612,103.80651578015957,18952.07738292929,3,99 yrs lease commencing from 2013,3,3,2,1,3,11,47,11,3,1,3,2,0,230,0
76,76,JIAK KIM STREET,RIVIERE,RCR,28218.49314,30455.31905,1.2917015975178603,103.83528183209688,29058.91910906978,3,99 yrs lease commencing from 2018,1,5,1,2,5,21,43,20,2,2,14,1,0,535,2
77,77,PRINCE CHARLES CRESCENT,TANGLIN VIEW,RCR,26216.73826,30495.579339999997,1.292065647242285,103.81729521990171,13659.292027131978,3,99 yrs lease commencing from 1997,0,2,2,1,4,17,56,14,5,3,7,4,0,242,1
78,78,PASIR PANJANG ROAD,PALM MANSIONS,RCR,21631.630119999998,30143.44619,1.2888804824410658,103.77609616811786,11724.476685260996,5,Freehold,0,2,0,1,0,0,0,1,0,0,0,0,0,170,0
79,79,OUTRAM ROAD,RESIDENTIAL APARTMENTS,RCR,28228.44398,29542.985780000003,1.2834507756637106,103.83537123803059,16071.428571428569,3,Freehold,3,12,0,5,5,17,48,23,7,3,10,1,0,822,4
80,80,WEST COAST DRIVE,NEWEST,OCR,19556.7007,33187.93129,1.3164132188899726,103.75745126360631,9551.349648491376,5,956 yrs lease commencing from 1928,3,1,3,1,2,11,0,13,1,0,2,2,0,311,6
81,81,WEST COAST CRESCENT,SEAHILL,OCR,20276.79404,31255.97602,1.2989414990970318,103.76392214315149,14648.445620601418,5,99 yrs lease commencing from 2011,1,0,0,0,1,6,0,6,0,1,3,1,0,174,3
82,82,WEST COAST PARK,THE INFINITI,OCR,19327.16701,33475.9258,1.3190176730590386,103.75538870759287,11708.493925519693,5,Freehold,0,0,3,0,1,2,0,5,0,1,1,1,0,158,5
83,83,BEACH ROAD,FU YUEN BUILDING,CCR,30568.613530000002,31050.1668,1.297081086415781,103.85639870093131,16600.790513833992,7,999 yrs lease commencing from 1827,17,32,1,9,1,11,73,21,15,0,12,0,0,2003,5
84,84,ALEXANDRA ROAD,ALEXIS,RCR,25110.45619,30392.505989999998,1.291133405459619,103.80735481861142,16852.272890644523,3,Freehold,3,3,1,1,4,19,55,20,2,1,5,2,0,332,0
85,85,JERVOIS LANE,CLYDESVIEW,RCR,26307.14894,30719.667660000003,1.2940922282047955,103.81810758592523,13413.857493057472,3,Freehold,0,3,2,1,2,13,47,11,6,1,6,3,0,153,1
86,86,KIM TIAN ROAD,REGENCY SUITES,RCR,27534.7863,29641.42759,1.2843410462105875,103.82913845041105,18067.320418089872,3,Freehold,1,2,2,2,6,33,47,22,2,3,13,2,0,507,3
87,87,NEW BRIDGE ROAD,DORSETT RESIDENCES,RCR,28783.50541,29166.42612,1.2800452932795392,103.84035867326892,21504.415179268282,2,99 yrs lease commencing from 2009,4,29,1,5,8,7,57,32,21,3,16,1,0,1614,5
88,88,MIDDLE ROAD,THE M,CCR,30512.385580000002,31149.165960000002,1.2979764045046582,103.85589347604156,26744.49323321209,7,99 yrs lease commencing from 2019,17,33,1,9,1,12,74,24,15,0,13,0,0,2087,6
89,89,STIRLING ROAD,STIRLING RESIDENCES,RCR,24800.93159,30394.28968,1.2911495063939769,103.8045736105594,19892.316529454733,3,99 yrs lease commencing from 2017,3,3,1,1,4,12,48,14,1,1,4,1,0,276,0
90,90,PEPYS ROAD,THE PEAK,RCR,23549.60283,29156.84725,1.2799583610551346,103.79333007362408,12524.461839530331,5,Freehold,0,0,0,1,1,0,0,3,1,0,2,0,0,122,5
91,91,MARINA WAY,MARINA ONE RESIDENCES,CCR,30267.72638,28854.498330000002,1.2772242561769445,103.85369494025056,26348.348732916817,1,99 yrs lease commencing from 2011,3,20,0,8,3,1,25,28,18,0,8,0,0,1186,4
92,92,ROCHESTER DRIVE,THE ROCHESTER RESIDENCES,RCR,22994.3604,31949.134430000002,1.305210733948717,103.78834056643105,14740.897716483374,5,99 yrs lease commencing from 2005,3,5,1,2,3,7,19,15,3,3,10,1,0,500,5
93,93,SPOTTISWOODE PARK ROAD,SPOTTISWOODE RESIDENCES,RCR,28391.04102,28638.525489999996,1.2752711522384153,103.83683222509147,21470.74530894865,2,Freehold,2,11,2,2,1,5,36,12,14,2,9,0,0,797,2
94,94,JALAN LEMPENG,PARK WEST,OCR,19911.96861,33344.57241,1.3178299204047528,103.760643482693,8503.526591005118,5,99 yrs lease commencing from 1982,3,1,4,1,2,18,0,16,3,1,5,2,0,362,5
95,95,CLUB STREET,EMERALD GARDEN,RCR,29463.931739999996,29332.65992,1.2815486292555391,103.84647257005696,18665.037205817272,1,999 yrs lease commencing from 1827,7,46,1,9,8,3,59,48,40,3,19,0,0,2339,8
96,96,WATERLOO STREET,WATERLOO VIEW,RCR,30159.18318,31457.377060000003,1.3007637835507608,103.8527198174766,10161.616161616159,7,Freehold,13,28,1,9,3,9,64,25,16,0,15,0,0,2090,6
97,97,PRINCE CHARLES CRESCENT,PRINCIPAL GARDEN,RCR,26833.45669,30529.790210000003,1.2923750674449361,103.82283669393536,18596.19565415228,3,99 yrs lease commencing from 2014,1,3,2,2,6,24,52,20,3,3,9,2,0,265,1
98,98,JALAN SULTAN,TEXTILE CENTRE,RCR,31126.643160000003,31773.69417,1.3036243614922214,103.86141291439408,9665.57534249092,7,99 yrs lease commencing from 1970,8,10,1,4,4,9,49,21,13,2,13,0,0,1438,6
99,99,ZEHNDER ROAD,BUONA LODGE,RCR,22814.30767,29347.95902,1.2816865960498816,103.78672313799963,11741.808981657181,5,Freehold,0,2,0,2,1,0,0,1,0,0,2,0,0,70,4
100,100,JALAN LEMPENG,PARC CLEMATIS,OCR,19797.85798,33186.6657,1.3164018387608052,103.75961818287844,17567.427905635563,5,99 yrs lease commencing from 2019,3,1,4,1,2,15,0,17,3,1,3,2,0,390,5
101,101,ALEXANDRA VIEW,ASCENTIA SKY,RCR,26183.9116,30372.331710000002,1.290951037135854,103.81700026563036,15888.505976747512,3,99 yrs lease commencing from 2008,0,3,2,1,4,21,56,14,6,3,7,4,0,279,1
102,102,WEST COAST ROAD,CLEMENTIWOODS CONDOMINIUM,OCR,20752.171580000002,31012.23939,1.296737346631761,103.76819367598496,11799.524791973865,5,99 yrs lease commencing from 2006,1,0,0,0,1,3,0,5,0,1,3,1,0,238,2
103,103,PASIR PANJANG ROAD,LOTUS AT PASIR PANJANG,RCR,22592.12151,29082.683910000003,1.2792875044781815,103.78472675550265,14532.614309220402,5,Freehold,0,2,0,2,1,0,0,1,0,0,2,0,0,54,4
104,104,COVE DRIVE,MARINA COLLECTION,CCR,28722.70375,25203.03085,1.244201732516356,103.83981225854374,19226.920402137934,4,99 yrs lease commencing from 2007,0,0,0,0,0,0,0,0,0,0,2,0,0,29,0
105,105,SILAT AVENUE,AVENUE SOUTH RESIDENCE,RCR,27597.65868,28801.894269999997,1.276748602077053,103.8297033942662,22079.20901195876,3,99 yrs lease commencing from 2018,0,2,3,0,3,2,25,12,1,1,6,0,0,328,1
106,106,PASIR PANJANG ROAD,THE VERANDAH RESIDENCES,RCR,22592.12151,29082.683910000003,1.2792875044781815,103.78472675550265,19566.777972829103,5,Freehold,0,2,0,2,1,0,0,1,0,0,2,0,0,54,4
107,107,JALAN MAS PUTEH,RESIDENTIAL APARTMENTS,OCR,20026.94179,32299.905089999997,1.3083823554070293,103.7616768439653,8352.941176470587,5,999 yrs lease commencing from 1968,4,1,2,1,3,21,0,20,3,1,6,4,0,468,5
108,108,PASIR PANJANG HILL,LE HILL CONDOMINIUM,RCR,22587.44859,29513.59905,1.2831845476963577,103.78468469405763,12649.540981877852,5,Freehold,0,2,0,1,0,0,0,2,0,0,0,0,0,111,3
109,109,SOUTH BUONA VISTA ROAD,VISTA PARK,RCR,23133.98734,29358.48172,1.2817818106163694,103.78959558067035,9668.1996057063,5,99 yrs lease commencing from 1979,0,2,0,2,1,0,0,1,0,0,2,0,0,85,4
110,110,CHAY YAN STREET,THE REGENCY AT TIONG BAHRU,RCR,27641.9813,29399.323669999998,1.2821515446939518,103.83010164258611,18512.24789083922,3,Freehold,1,2,2,2,5,20,45,19,1,3,10,1,0,483,3
111,111,YONG SIAK STREET,YONG SIAK VIEW,RCR,27639.239810000003,29474.83875,1.2828344765601554,103.83007700837315,13452.528837622005,3,Freehold,1,2,2,2,5,24,47,21,1,3,10,2,0,513,3
112,112,BEACH ROAD,GOLDEN MILE COMPLEX,CCR,31545.01129,31679.36149,1.302771205081821,103.8651721345018,7032.348551936222,7,99 yrs lease commencing from 1969,4,5,1,2,2,6,29,12,9,2,10,0,0,818,4
113,113,CLEMENTI AVENUE 1,THE CLEMENT CANOPY,OCR,20790.40019,32111.23165,1.3066762481543326,103.76853692289421,15066.53871689946,5,99 yrs lease commencing from 2016,3,1,0,1,3,24,0,23,3,1,9,4,0,550,4
114,114,SPOTTISWOODE PARK ROAD,SPOTTISWOODE PARK,RCR,28177.987889999997,28453.180460000003,1.2735949585889834,103.8349178642406,8943.696099188986,2,99 yrs lease commencing from 1973,1,5,2,1,1,6,27,9,7,1,5,0,0,386,0
115,115,PASIR PANJANG ROAD,THE CASSANDRA,RCR,23532.54265,28815.22865,1.2768688805042503,103.79317682946258,12471.489938860745,5,Freehold,1,0,0,1,1,0,0,5,1,0,3,0,0,182,5
116,116,PEPYS ROAD,PEPYS HILL CONDOMINIUM,RCR,23600.1092,28912.256269999998,1.277746373566088,103.79378392629006,11115.321857942437,5,Freehold,1,0,0,1,1,0,0,5,1,0,3,0,0,183,5
117,117,OCEAN DRIVE,THE OCEANFRONT @ SENTOSA COVE,CCR,29023.887110000003,25225.29105,1.2444030379301774,103.84251846914482,16712.12570144263,4,99 yrs lease commencing from 2005,0,0,0,0,0,0,0,0,0,0,2,0,0,29,0
118,118,ALEXANDRA VIEW,ECHELON,RCR,26280.36259,30334.283219999998,1.2906069454252016,103.81786692016226,19648.188646469218,3,99 yrs lease commencing from 2012,0,3,2,1,4,22,59,14,6,3,7,4,0,255,1
119,119,PASIR PANJANG ROAD,VILLA DE WEST,RCR,21188.50388,30347.446069999998,1.2907252914609593,103.77211445478571,11997.741285668177,5,Freehold,0,0,0,0,0,0,0,0,0,0,0,0,0,62,0
120,120,HAVELOCK ROAD,HARVEST MANSIONS,RCR,27835.82701,30248.405239999996,1.289830342024084,103.83184341694657,12330.863660528734,3,99 yrs lease commencing from 1993,2,3,3,3,5,20,47,19,2,2,12,2,0,491,4
121,121,BEACH ROAD,CONCOURSE SKYLINE,RCR,31176.52371,31450.76883,1.3007039337229809,103.86186108134208,21084.35468065789,7,99 yrs lease commencing from 2008,8,14,1,5,4,11,50,16,12,2,13,0,0,1374,4
122,122,PASIR PANJANG ROAD,24 ONE RESIDENCES,RCR,22603.02797,29181.50373,1.280181197835103,103.78482473733801,18274.30088856877,5,Freehold,0,2,0,2,1,0,0,1,0,0,2,0,0,54,4
123,123,TAN QUEE LAN STREET,TANQUEELAN SUITES,CCR,30596.832710000002,31186.146080000002,1.2983108327447688,103.85665227391618,16637.23345382027,7,999 yrs lease commencing from 1827,16,30,1,9,3,10,74,23,16,1,12,0,0,2094,5
124,124,WEST COAST CRESCENT,BLUE HORIZON,OCR,20407.56726,31116.71765,1.2976821284999007,103.76509723182168,11194.929240533163,5,99 yrs lease commencing from 2000,1,0,0,0,1,5,0,5,0,1,3,1,0,151,2
125,125,PASIR PANJANG HILL,VENTANA,RCR,22603.69432,29438.797239999996,1.2825080693966386,103.78483068098042,13153.289725944984,5,Freehold,0,2,0,1,0,0,0,2,0,0,1,0,0,95,3
126,126,INDUS ROAD,EMERALD PARK,RCR,27640.936510000003,30277.633939999996,1.2900946744818012,103.83009224472296,13065.375282053346,3,99 yrs lease commencing from 1991,2,3,3,3,4,26,48,19,2,3,14,2,0,469,4
127,127,PASIR PANJANG ROAD,PALISADES,RCR,22080.49403,29948.63352,1.2871187538210669,103.7801294294808,9152.103559870551,5,Freehold,0,2,0,2,0,0,0,1,0,0,1,0,0,149,0
128,128,WEST COAST VALE,TWIN VEW,OCR,19027.87153,33550.02134,1.3196876800479176,103.75269936373172,15242.030888733745,5,99 yrs lease commencing from 2017,0,0,2,0,0,0,0,3,0,1,0,1,0,132,5
129,129,YONG SIAK STREET,YONG SIAK COURT,RCR,27651.40615,29452.8796,1.2826358858474376,103.83018632792358,13437.5,3,Freehold,1,2,2,2,5,23,45,19,1,3,10,1,0,472,3
130,130,KIM TIAN ROAD,TWIN REGENCY,RCR,27459.16513,29689.6038,1.284776733735535,103.82845896349615,18150.049826404706,3,Freehold,1,3,2,2,6,33,49,22,2,3,13,2,0,492,3
131,131,PASIR PANJANG ROAD,PALM GREEN,RCR,20878.65334,30403.72621,1.2912341999787618,103.76933030727837,10873.111580968309,5,Freehold,0,0,0,0,0,0,0,0,0,0,0,0,0,47,2
132,132,JERVOIS LANE,RESIDENTIAL APARTMENTS,RCR,26397.76417,30748.892969999997,1.2943565364123302,103.81892180114849,15384.615384615383,3,Freehold,0,3,1,1,2,16,50,11,6,1,7,3,0,129,1
133,133,WEST COAST ROAD,VARSITY PARK CONDOMINIUM,OCR,20833.03347,30759.9647,1.294455883210807,103.76892031268659,11754.739935565884,5,99 yrs lease commencing from 2004,0,0,0,0,0,0,0,0,0,0,1,1,0,135,2
134,134,WISHART ROAD,THE FORESTA @ MOUNT FABER,RCR,25858.32453,28125.377439999997,1.270630351056541,103.81407488145705,18871.4857776848,4,Freehold,1,2,1,2,3,1,1,8,2,2,4,0,0,152,2
135,135,CHIN SWEE ROAD,THE LANDMARK,RCR,28696.69635,29836.782180000002,1.2861077603445534,103.83957867557255,23243.617262944408,3,99 yrs lease commencing from 2020,3,27,1,6,6,16,55,17,18,3,11,1,0,1317,7
136,136,PASIR PANJANG HILL,CRYSTAL HEIGHTS,RCR,22701.50837,29333.96734,1.2815600414821922,103.78570959544744,12294.971063144449,5,Freehold,0,2,0,2,1,0,0,1,0,0,2,0,0,60,4
137,137,EVERTON ROAD,SKY EVERTON,RCR,28537.88904,28706.92904,1.2758897678399563,103.83815170908484,27756.420621399233,2,Freehold,2,16,1,3,3,5,39,14,14,2,9,0,0,908,3
138,138,FABER WALK,WATERFRONT @ FABER,OCR,19304.043419999998,33982.49856,1.3235989271705626,103.75518078718729,14329.335158256245,5,99 yrs lease commencing from 2013,0,0,1,0,0,0,0,3,0,1,0,0,0,84,4
139,139,CRAIG ROAD,CHINATOWN PLAZA,RCR,28981.0774,29012.422410000003,1.2786525322084683,103.8421339279407,29348.684953154985,2,Freehold,4,33,1,6,7,7,54,32,24,3,16,0,0,1682,5
140,140,KEPPEL BAY DRIVE,CORALS AT KEPPEL BAY,RCR,26191.48223,27655.690130000003,1.266382684175158,103.81706844553604,22183.89583463338,4,99 yrs lease commencing from 2007,2,1,0,2,1,3,3,3,4,0,4,0,0,353,1
141,141,PASIR PANJANG ROAD,LANDRIDGE CONDOMINIUM,RCR,22862.291530000002,29078.59425,1.279250564159759,103.78715433494641,13276.748390106934,5,Freehold,0,2,0,2,1,0,0,1,0,0,2,0,0,48,4
142,142,COVE DRIVE,SEVEN PALMS SENTOSA COVE,CCR,27784.60395,24730.34507,1.239926934052075,103.8313831937824,30728.253345786085,4,99 yrs lease commencing from 2007,0,0,0,0,0,0,0,0,0,0,0,0,0,14,0
143,143,MCCALLUM STREET,THE CLIFT,CCR,29559.31115,29095.0919,1.279400142865173,103.84732957913548,20885.451148823937,1,99 yrs lease commencing from 2004,6,43,1,10,8,2,53,44,38,3,17,0,0,2206,8
144,144,WEST COAST PARK,BOTANNIA,OCR,19241.83324,33444.51281,1.3187335610612183,103.75462194912515,13157.733970547195,5,956 yrs lease commencing from 1928,0,0,2,0,1,1,0,4,0,1,1,1,0,139,5
145,145,COVE WAY,SEASCAPE,CCR,28549.148460000004,24732.73534,1.239948546945672,103.8382528117812,20503.672702184707,4,99 yrs lease commencing from 2007,0,0,0,0,0,0,0,0,0,0,2,0,0,29,0
146,146,ENGGOR STREET,SKYSUITES@ANSON,CCR,29271.290889999997,28569.17836,1.2746439780436838,103.8447415873538,24770.107863151363,2,99 yrs lease commencing from 2008,2,28,1,5,5,5,37,25,21,2,10,0,0,1353,4
147,147,ALEXANDRA ROAD,ALESSANDREA,RCR,26805.70503,30323.081189999997,1.290505662680851,103.82258734137964,14547.744409839082,3,Freehold,1,3,3,2,7,31,49,27,4,4,13,2,0,330,1
148,148,CHWEE CHIAN ROAD,BANYAN CONDOMINIUM,RCR,23048.75808,28991.76103,1.2784653049814012,103.78882982026265,12826.574217836867,5,Freehold,0,1,0,2,1,0,0,1,0,0,2,0,0,67,4
149,149,PASIR PANJANG HILL,HORIZON RESIDENCES,RCR,22507.87605,29375.672510000004,1.2819371751255195,103.78396972782951,16238.469706331874,5,Freehold,0,2,0,1,0,0,0,2,0,0,0,0,0,53,3
150,150,JALAN BUKIT HO SWEE,MERAPRIME,RCR,27384.44093,29941.920680000003,1.287058597655219,103.827787531999,16277.646948401003,3,99 yrs lease commencing from 2003,2,3,2,2,6,33,55,24,4,3,14,1,0,528,3
151,151,JALAN MEMBINA,CENTRAL GREEN CONDOMINIUM,RCR,27396.249260000004,29657.734519999998,1.2844885180023342,103.82789364006136,14717.092976272055,3,99 yrs lease commencing from 1992,1,2,2,2,6,33,50,22,2,3,13,1,0,464,3
152,152,JALAN LEMPENG,REGENT PARK,OCR,19946.09604,33315.60113,1.317567923579397,103.76095014249469,10715.265884903703,5,99 yrs lease commencing from 1993,3,1,4,1,2,18,0,16,3,1,5,2,0,362,5
153,153,STIRLING ROAD,QUEENS,RCR,25033.49158,30562.885889999998,1.29267425403127,103.80666324335688,13453.044071391485,3,99 yrs lease commencing from 1998,3,3,1,1,4,19,53,16,1,2,4,2,0,291,0
154,154,ONE-NORTH GATEWAY,ONE-NORTH RESIDENCES,RCR,23179.136880000002,31564.619310000002,1.3017333449782469,103.79000092863319,15696.22833102867,5,99 yrs lease commencing from 2005,2,5,1,3,3,11,22,19,3,2,9,1,0,512,6
155,155,DEPOT ROAD,THE INTERLACE,RCR,24628.43429,29404.851089999996,1.2822013542387272,103.803023755865,12714.383917694247,4,99 yrs lease commencing from 2009,4,1,1,0,2,8,11,14,2,1,6,0,0,352,3
156,156,ALEXANDRA ROAD,THE ANCHORAGE,RCR,24832.26679,30230.30292,1.2896664711165793,103.80485518691722,14751.165201470149,3,Freehold,3,3,1,1,4,15,43,15,1,0,5,0,0,288,0
157,157,TELOK BLANGAH ROAD,SKYLINE RESIDENCES,RCR,25141.59429,28240.98249,1.2716757861798562,103.80763480136378,20337.142153596276,4,Freehold,1,0,1,2,1,0,0,6,2,1,3,0,0,160,4
158,158,PASIR PANJANG ROAD,SEASUITES,RCR,22415.8392,29429.15467,1.2824208326597295,103.78314273203372,18478.60164420386,5,Freehold,0,2,0,1,0,0,0,2,0,0,0,0,0,96,3
159,159,PASIR PANJANG ROAD,PARC REGENCY,RCR,21842.62591,30070.800089999997,1.288223539098141,103.7779920652664,11067.102189149431,5,Freehold,0,2,0,2,0,0,0,1,0,0,1,0,0,157,0
160,160,WEST COAST VALE,WHISTLER GRAND,OCR,19209.44944,33541.60842,1.3196116493314107,103.75433093652748,15442.66410901558,5,99 yrs lease commencing from 2018,0,0,2,0,0,1,0,3,0,1,0,2,0,121,5
161,161,KAMPONG BAHRU ROAD,HARBOUR SUITES,RCR,27350.09915,28303.67672,1.2722428929038605,103.8274789908016,17311.224489795917,4,Freehold,0,1,2,0,2,2,18,5,1,1,3,0,0,184,0
162,162,PEARL BANK,ONE PEARL BANK,RCR,28722.95346,29488.88355,1.2829614866292858,103.83981459831399,26084.96786154281,3,99 yrs lease commencing from 2019,4,29,1,7,8,10,51,23,22,4,13,1,0,1535,6
163,163,SOUTH BUONA VISTA ROAD,VIVA VISTA,RCR,22723.76402,29139.70697,1.2798032231419976,103.78590960326169,16751.625704833168,5,Freehold,0,2,0,2,1,0,0,1,0,0,2,0,0,63,4
164,164,WEST COAST CRESCENT,WESTCOVE CONDOMINIUM,OCR,20534.15193,31177.948480000003,1.2982359088205009,103.76623463563207,9089.993242455483,5,99 yrs lease commencing from 1995,1,0,0,0,1,5,0,5,0,1,3,1,0,259,2
165,165,MARGARET DRIVE,MARGARET VILLE,RCR,24604.32635,31319.549410000003,1.2995172081125763,103.8028069302144,20004.08921926104,3,99 yrs lease commencing from 2017,0,4,2,2,5,9,38,12,2,1,3,1,0,194,0
166,166,KEPPEL BAY VIEW,REFLECTIONS AT KEPPEL BAY,RCR,25516.36659,27739.987310000004,1.2671449928930936,103.81100230063198,17653.549856485784,4,99 yrs lease commencing from 2006,0,0,0,1,1,0,1,6,2,1,1,0,0,114,1
167,167,PASIR PANJANG ROAD,THE ORIENT,RCR,22460.783669999997,29266.26428,1.28094771758907,103.78354660384657,19746.975313766532,5,Freehold,0,2,0,1,0,0,0,1,0,0,0,0,0,47,3
168,168,PASIR PANJANG ROAD,WHITEHAVEN,RCR,21787.112090000002,30251.3024,1.2898559268680936,103.77749321558277,14803.135842627491,5,Freehold,0,2,0,2,0,0,0,1,0,0,1,0,0,160,0
169,169,RIVER VALLEY ROAD,LIANG COURT,RCR,29263.197010000004,30431.946410000004,1.2914901988884144,103.84466893506777,4959.860253256809,6,97 yrs lease commencing from 1980,8,32,0,6,4,8,59,22,13,1,12,0,0,1398,9
170,170,TELOK BLANGAH DRIVE,HARBOUR VIEW TOWERS,RCR,25239.477919999998,28278.20128,1.2720123885202443,103.80851431684476,12544.019680012983,4,99 yrs lease commencing from 1990,1,0,1,2,1,0,0,8,2,1,3,0,0,158,4
171,171,LORONG SARHAD,TREASURE PLACE,RCR,23101.295830000003,29222.63876,1.2805532898161704,103.78930185588786,12307.90797660881,5,Freehold,0,2,0,2,1,0,0,1,0,0,2,0,0,77,4
172,172,PASIR PANJANG ROAD,PARC IMPERIAL,RCR,22471.42853,29310.760430000002,1.2813501268840042,103.78364224420456,16692.400251242336,5,Freehold,0,2,0,1,0,0,0,1,0,0,0,0,0,48,3
173,173,SHENTON WAY,EON SHENTON,CCR,29435.128910000003,28482.59355,1.2738609283725313,103.84621372724784,23880.20745155536,2,99 yrs lease commencing from 2011,2,27,1,6,5,5,34,25,21,2,10,0,0,1276,4
174,174,SELEGIE ROAD,SELEGIE CENTRE,RCR,29858.067769999998,31824.690730000002,1.304085658349215,103.85001418113752,17333.507972463052,7,Freehold,11,21,2,7,3,8,43,18,10,0,10,0,0,1487,7
175,175,SHENTON WAY,76 SHENTON,CCR,29361.61324,28440.09985,1.2734766334730157,103.84555316079144,20137.28974635498,2,99 yrs lease commencing from 2007,2,23,1,3,4,5,33,23,19,2,10,0,0,1229,4
176,176,PASIR PANJANG ROAD,LUXE VILLE,RCR,21763.13586,30271.57132,1.2900392270066086,103.77727777531227,12801.673866054913,5,Freehold,0,2,0,2,0,0,0,1,0,0,1,0,0,165,0
177,177,PASIR PANJANG ROAD,THE MAYLEA,RCR,22671.87895,29218.428789999998,1.280515146718145,103.78544338318173,14691.275768477946,5,Freehold,0,2,0,2,1,0,0,1,0,0,2,0,0,62,4
178,178,FRASER STREET,DUO RESIDENCES,CCR,30731.18944,31280.371160000002,1.2991629596386822,103.85785953692064,23318.49474895881,7,99 yrs lease commencing from 2011,14,28,1,9,4,12,70,25,15,1,15,0,0,2103,4
179,179,BEACH ROAD,SOUTH BEACH RESIDENCES,CCR,30527.56046,30752.067389999997,1.2943851837522964,103.85602979707724,36238.18142161316,7,99 yrs lease commencing from 2007,15,28,0,6,1,12,65,17,12,0,10,0,0,1716,6
180,180,LORONG SARHAD,SARHAD VILLE,RCR,23015.854,29220.894089999998,1.2805374982508098,103.7885341289208,11107.919254658384,5,Freehold,0,2,0,2,1,0,0,1,0,0,2,0,0,82,4
181,181,WEST COAST DRIVE,HUNDRED TREES,OCR,19778.91818,32932.06359,1.3140993040304718,103.75944806700241,14257.777058690896,5,956 yrs lease commencing from 1928,3,1,4,1,2,14,0,17,3,0,3,2,0,383,7
182,182,PASIR PANJANG ROAD,MENDON SPRING,RCR,22930.484790000002,29014.2262,1.2786684532833987,103.78776708719052,10700.350443207588,5,Freehold,0,2,0,2,1,0,0,1,0,0,2,0,0,77,4
183,183,JALAN MAT JAMBOL,BIJOU,RCR,23372.87661,28813.57072,1.2768538638156792,103.79174217177,21009.686328061533,5,Freehold,0,0,0,1,1,0,0,3,1,0,2,0,0,114,4
184,184,PASIR PANJANG HILL,D' HILLSIDE LOFT,RCR,22661.29021,29296.5227,1.2812213986201102,103.78534822620726,11445.272615887276,5,Freehold,0,2,0,2,1,0,0,1,0,0,2,0,0,60,4
185,185,OCEAN DRIVE,THE AZURE,CCR,29636.72921,26010.46146,1.2515038203247708,103.84802505268252,15056.445657931088,4,99 yrs lease commencing from 2005,0,0,0,0,0,0,0,0,0,0,1,0,0,19,0
186,186,WEST COAST VALE,PARC RIVIERA,OCR,19093.70854,33652.48025,1.3206143005349047,103.75329091330204,13499.308748862373,5,99 yrs lease commencing from 2015,0,0,2,0,0,0,0,3,0,1,0,1,0,112,5
187,187,PASIR PANJANG ROAD,WEST-N,RCR,22450.43175,29409.93426,1.2822470161931616,103.78345356277704,13622.636765888978,5,Freehold,0,2,0,1,0,0,0,2,0,0,0,0,0,96,3
188,188,SPOTTISWOODE PARK ROAD,SPOTTISWOODE 18,RCR,28472.02095,28674.36657,1.2755952853138524,103.83755985972986,22149.919335472758,2,Freehold,2,12,1,3,3,5,39,14,14,2,9,0,0,824,2
189,189,CRAIG ROAD,CRAIG PLACE,RCR,29007.50377,28944.77922,1.278040790079657,103.84237137665087,18518.81960466488,2,99 yrs lease commencing from 1997,4,33,1,6,7,6,51,31,22,2,15,0,0,1653,5
190,190,BEACH ROAD,THE 101,CCR,30630.5895,31125.001060000002,1.297757855910403,103.85695558851113,17187.5,7,999 yrs lease commencing from 1827,16,31,1,9,2,10,74,22,14,1,11,0,0,2060,5
191,191,PASIR PANJANG ROAD,MURANO,RCR,21571.30413,30196.76942,1.2893627064424649,103.77555410370869,11378.54609599564,5,Freehold,0,2,0,0,0,0,0,0,0,0,0,0,0,114,0
192,192,BEACH ROAD,THE PLAZA,CCR,31041.438210000004,31330.93671,1.2996202278464273,103.86064726547968,11623.366621142972,7,99 yrs lease commencing from 1968,10,21,1,6,4,11,60,20,11,2,13,0,0,1646,5
193,193,NORTH BRIDGE ROAD,SOUTHBANK,RCR,31448.887260000003,32070.8669,1.3063118523958142,103.8643084593092,17333.8380975119,7,99 yrs lease commencing from 2006,2,6,1,5,3,6,33,12,9,2,11,0,0,969,5
194,194,ENG HOON STREET,ENG HOON MANSIONS,RCR,28130.676880000003,29549.06329,1.2835057390847744,103.83449276233692,12856.630824372762,3,Freehold,2,9,1,4,6,17,50,25,7,3,11,1,0,719,4
195,195,DELTA ROAD,DOMAIN 21,RCR,27131.254960000002,30470.66198,1.2918403422256008,103.82551253903813,16122.500186000168,3,99 yrs lease commencing from 2004,2,2,2,3,6,29,52,17,4,2,12,2,0,306,2
196,196,WALLICH STREET,WALLICH RESIDENCE,CCR,29387.98658,28842.67269,1.2771173600236183,103.84579015217302,36583.28427116198,2,99 yrs lease commencing from 2011,6,35,1,9,8,6,50,40,31,2,17,0,0,1874,5
197,197,KEPPEL BAY DRIVE,CARIBBEAN AT KEPPEL BAY,RCR,25917.2871,27763.86233,1.2673609389443514,103.81460470412294,16312.745339189092,4,99 yrs lease commencing from 1999,2,1,0,2,0,3,1,7,4,0,5,0,0,372,1
198,198,TELOK BLANGAH ROAD,TELOK BLANGAH HOUSE,RCR,26894.509060000004,27633.336189999998,1.2661805551021756,103.82338537619614,16353.383458646618,4,Freehold,2,2,1,1,1,5,5,5,3,0,5,0,0,366,0
199,199,LIANG SEAH STREET,LIANG SEAH COURT,CCR,30594.65444,31149.8716,1.2979827793193193,103.85663269819156,19097.222222222223,7,999 yrs lease commencing from 1827,16,32,1,9,2,10,75,23,16,1,12,0,0,2095,5
200,200,MISTRI ROAD,LUMIERE,CCR,29414.13455,28526.99239,1.2742624568683345,103.84602508736296,18698.95249005632,2,99 yrs lease commencing from 2006,2,27,1,6,5,5,36,25,22,2,10,0,0,1312,4
201,201,WEST COAST ROAD,THE SORRENTO,OCR,20521.64045,30904.5222,1.2957631364318127,103.76612227974272,16436.58904625778,5,Freehold,1,0,0,0,1,3,0,3,0,1,3,1,0,130,2
202,202,ALEXANDRA VIEW,THE METROPOLITAN CONDOMINIUM,RCR,26074.4211,30319.95369,1.2904773421945972,103.81601645093934,15004.655301115345,3,99 yrs lease commencing from 2006,0,2,2,1,5,24,58,17,6,3,8,4,0,284,1
203,203,FABER HEIGHTS,FABER CREST,OCR,19547.85969,33943.455460000005,1.323245903995146,103.75737161539601,9724.145995185128,5,99 yrs lease commencing from 1996,0,0,1,0,0,3,2,2,0,0,0,1,0,66,4
204,204,KIM TIAN ROAD,HIGHLINE RESIDENCES,RCR,27603.58591,29605.2519,1.2840138869086206,103.82975664254393,20537.21382096344,3,99 yrs lease commencing from 2013,1,2,1,2,6,27,49,21,1,3,10,2,0,489,3
205,205,DRAYCOTT DRIVE,RESIDENTIAL APARTMENTS,CCR,27709.588389999997,32445.73724,1.3097022383235437,103.83070909013006,21679.005842352264,10,Freehold,14,11,0,2,0,7,16,22,16,1,10,0,0,955,0
206,206,OWEN ROAD,RESIDENTIAL APARTMENTS,RCR,30217.012860000003,32893.46761,1.3137512754089395,103.85323954558756,9090.90909090909,8,Freehold,4,5,2,3,3,2,14,22,4,1,12,1,0,849,4
207,207,GRANGE ROAD,CLIVEDEN AT GRANGE,CCR,27170.823389999998,31343.99359,1.2997384471904987,103.8258680549304,29729.96212121212,10,Freehold,9,8,1,3,0,8,40,12,10,0,11,0,0,591,0
208,208,HULLET ROAD,8 HULLET,CCR,28600.942280000003,31705.84845,1.303010940456929,103.83871832249349,37036.43160699819,9,Freehold,20,14,1,3,1,18,27,26,13,1,13,0,0,1312,5
209,209,KIM YAM ROAD,OLEANAS RESIDENCE,CCR,28619.930080000002,30648.60649,1.2934496158287156,103.83888891575558,16914.795927864285,9,Freehold,9,15,1,5,2,18,46,13,5,0,10,1,0,1004,9
210,210,LORONG 28 GEYLANG,EDENZ SUITES,RCR,33835.467619999996,32795.99741,1.3128693161471965,103.88575314190494,13355.922155546179,14,Freehold,1,6,2,4,4,17,0,18,3,0,15,2,0,687,3
211,211,BALMORAL CRESCENT,THE BALMORAL SPRING,CCR,28108.74975,33083.10425,1.315466361842719,103.83429575057066,18750.0,10,Freehold,1,4,2,1,1,1,3,2,4,1,2,2,0,266,2
212,212,SCOTTS ROAD,SCOTTS HIGHPARK,CCR,28378.8235,32740.19142,1.3123651771250782,103.83672249545704,20350.20065626069,9,Freehold,7,6,2,1,1,3,6,15,9,1,5,1,0,547,3
213,213,LINCOLN ROAD,THE LINC,CCR,29029.86615,33008.64752,1.3147929844484751,103.84257244419709,17659.795993869244,11,Freehold,3,4,4,2,2,0,0,20,7,2,7,1,0,424,4
214,214,THOMSON ROAD,CUBE 8,CCR,28901.42306,34509.21707,1.3283636088453028,103.84141836235712,16373.700652949992,11,Freehold,5,2,1,3,0,3,0,20,4,1,8,1,0,507,4
215,215,STEVENS ROAD,THE ELEMENT @ STEVENS,CCR,27203.94795,33375.0365,1.318106483811847,103.82616564182771,16387.826198895338,10,Freehold,0,1,1,1,0,0,0,0,1,1,1,1,0,106,3
216,216,JERVOIS ROAD,JERVOIS LODGE,CCR,26879.1469,30730.81778,1.2941930917743194,103.82324723262764,16147.881803981438,10,Freehold,2,3,1,3,6,14,48,10,4,2,12,2,0,262,1
217,217,HULLET ROAD,RESIDENTIAL APARTMENTS,CCR,28600.942280000003,31705.84845,1.303010940456929,103.83871832249349,22313.084112149525,9,Freehold,20,14,1,3,1,18,27,26,13,1,13,0,0,1312,5
218,218,DRAYCOTT DRIVE,J C DRAYCOTT,CCR,27739.61895,32464.883280000002,1.3098753886264545,103.83097892910149,22544.95001330445,10,Freehold,14,11,0,2,1,7,16,22,16,1,9,0,0,947,0
219,219,DEVONSHIRE ROAD,DEVONSHIRE RESIDENCES,CCR,28448.879230000002,31245.3627,1.2988464720194564,103.83735195933573,24518.153561517116,9,Freehold,18,11,1,4,1,17,38,22,9,0,15,0,0,1331,5
220,220,DUNEARN ROAD,PULLMAN RESIDENCES NEWTON,CCR,28633.49453,32995.338110000004,1.314672629550576,103.83901084568348,29785.98479433554,11,Freehold,4,4,3,2,1,0,0,14,6,1,7,1,0,391,5
221,221,BALMORAL ROAD,BALMORAL 8,CCR,27876.276589999998,32978.12068,1.314516927431839,103.8322068622233,18864.34515051003,10,Freehold,4,6,2,2,1,1,5,7,4,1,6,2,0,406,1
222,222,MAR THOMA ROAD,THE CALLISTA,RCR,31283.82928,34415.42156,1.327515191779768,103.86282558479652,11298.822650384664,12,999 yrs lease commencing from 1882,1,3,3,2,1,5,0,28,1,4,11,2,0,427,1
223,223,TAMAN SERASI,BOTANIC GARDENS MANSION,CCR,26538.848319999997,32275.353610000002,1.3081613155947287,103.8201894314433,17942.779613025014,10,Freehold,1,5,0,2,0,0,20,3,5,0,3,0,0,199,2
224,224,ANTHONY ROAD,ORCHARD SCOTTS,CCR,28570.551069999998,32441.09516,1.3096602531258084,103.83844525690664,16340.872081034655,9,99 yrs lease commencing from 2001,14,10,1,2,1,13,10,23,12,1,8,0,0,1006,3
225,225,EMERALD HILL ROAD,EMERALD HILL CONSERVATION AREA,CCR,28693.68735,32012.42148,1.3057834769902117,103.8395516864851,37333.66663963485,9,Freehold,19,13,1,3,1,18,16,26,13,1,13,0,0,1339,5
226,226,QUEENSWAY,VIZ AT HOLLAND,CCR,24506.68165,32306.28704,1.3084409034783064,103.80192943833792,17200.96347244858,10,Freehold,1,3,1,2,4,6,31,11,2,0,6,1,0,230,1
227,227,GRANGE ROAD,BEVERLY HILL,CCR,27137.232289999996,31207.58583,1.2985048225076354,103.82556622757716,20885.994374812268,10,Freehold,5,6,1,3,1,7,43,7,7,0,10,0,0,359,0
228,228,OXLEY RISE,ONE OXLEY RISE,CCR,28933.76721,31289.77603,1.299248119791448,103.84170889542082,19724.405051987356,9,Freehold,12,18,1,4,0,14,32,22,12,0,10,0,0,1182,10
229,229,LORONG 34 GEYLANG,GEYLANG HERITAGE,RCR,34046.74759,32785.90331,1.3127779879319599,103.88765159440031,10116.244302196197,14,Freehold,5,8,2,4,4,20,0,17,2,0,14,3,0,593,4
230,230,WOOLLERTON PARK,WOOLLERTON PARK,CCR,25181.34469,33158.31498,1.3161464117547699,103.80799153133816,17467.149839760245,10,Freehold,0,2,1,1,1,0,14,4,1,0,3,1,0,95,3
231,231,SOMMERVILLE WALK,SOMMERVILLE LOFT,OCR,32058.85217,36201.70275,1.3436695887618355,103.86978982739114,10311.205303536892,13,Freehold,1,4,2,2,1,1,0,3,0,2,2,2,0,254,2
232,232,MACKENZIE ROAD,THE MKZ,CCR,29476.69381,32094.100810000004,1.3065221286245576,103.84658737179474,17838.585243013,9,Freehold,8,15,2,5,2,7,21,12,9,2,4,0,0,977,8
233,233,LORONG 33 GEYLANG,DELIGHT COURT,RCR,34090.28285,33047.24658,1.315141474549606,103.88804283152409,9088.422161999395,14,Freehold,5,8,2,3,6,23,0,21,1,1,15,2,0,643,3
234,234,GRANGE ROAD,120 GRANGE,CCR,27132.4013,31370.60378,1.2999790993301468,103.8255228144558,33221.87231980358,10,Freehold,9,9,1,2,0,6,39,12,10,0,8,0,0,573,0
235,235,LORONG 40 GEYLANG,THE SUNNY SPRING,RCR,34248.53019,32721.115169999997,1.3121920268422214,103.88946469713913,11748.151049696631,14,Freehold,5,8,2,3,4,19,0,19,1,1,13,5,0,637,4
236,236,SHANGHAI ROAD,RV EDGE,CCR,27417.807539999998,30807.194289999996,1.2948838287967106,103.82808732845099,20451.36944440161,10,Freehold,2,2,2,4,3,23,42,11,2,1,10,1,0,274,3
237,237,MATTAR ROAD,THE ANTARES,RCR,33600.27076,34226.54077,1.3258066834470803,103.8836400422105,19211.443536345294,14,99 yrs lease commencing from 2018,0,4,3,2,4,12,0,16,3,1,5,1,0,356,4
238,238,CAIRNHILL CIRCLE,THE PROMONT,CCR,28517.22936,32225.051069999998,1.3077064274963976,103.83796613192943,20950.354659056276,9,Freehold,19,14,1,3,1,16,16,27,14,1,10,0,0,1248,3
239,239,OXLEY RISE,VISIONCREST,CCR,29086.47082,31179.5055,1.2982508669825965,103.84308100185024,21078.325199699,9,Freehold,11,23,1,5,0,13,41,12,8,0,9,0,0,1174,10
240,240,TREVOSE CRESCENT,THE GLYNDEBOURNE,CCR,26918.1768,33830.47873,1.3222253335422525,103.8235978249979,21742.296148756574,11,Freehold,0,2,1,2,0,0,0,0,1,1,1,1,0,64,3
241,241,LORONG 34 GEYLANG,SUNFLOWER LODGE,RCR,34075.79268,32876.595180000004,1.31359816710326,103.88791259659827,10333.792424987703,14,Freehold,5,8,2,3,4,20,0,21,1,0,15,2,0,658,3
242,242,HERTFORD ROAD,VANADIUM,RCR,29612.092610000003,32798.58002,1.3128931831894513,103.84780403059612,14667.011338334869,8,Freehold,7,4,3,3,3,1,3,28,8,1,12,0,0,736,5
243,243,HERTFORD ROAD,HERTFORD COLLECTION,RCR,29740.009260000003,32838.845219999996,1.3132573204741738,103.84895342735571,14511.553925414475,8,Freehold,7,4,3,3,2,1,3,23,7,1,14,1,0,781,5
244,244,JERVOIS ROAD,JERVOIS TREASURES,CCR,26910.831130000002,30579.024869999997,1.292820331195892,103.82353193431015,25892.50647482014,10,Freehold,2,3,2,2,6,20,50,19,4,2,12,2,0,310,2
245,245,GRANGE ROAD,SPRING GROVE,CCR,27294.47876,31104.49157,1.29757247826903,103.82697915937813,16126.474958969016,10,99 yrs lease commencing from 1991,6,6,1,3,2,12,44,11,7,1,11,0,0,456,1
246,246,BOON TECK ROAD,BOON TECK APARTMENTS,RCR,29928.64042,34379.06226,1.3271864871354218,103.85064846841641,11026.08695652174,12,Freehold,3,5,1,1,2,8,0,30,2,2,9,0,0,551,2
247,247,SHELFORD ROAD,THE SHELFORD,CCR,25588.16404,34202.320060000005,1.3255880586586544,103.81164692752829,19919.59581965705,11,Freehold,0,4,2,2,1,0,2,2,1,0,8,1,0,140,7
248,248,LORONG 25A GEYLANG,CENTRA SUITES,RCR,33561.13341,32993.07516,1.3146516678579545,103.88328814938757,14894.173565819907,14,Freehold,0,4,2,3,4,20,0,17,3,1,13,2,0,605,3
249,249,IRRAWADDY ROAD,DOMUS,RCR,29356.660310000003,34216.1324,1.325713038008702,103.84550890708469,15695.306144740782,12,Freehold,6,3,2,2,1,5,0,32,7,0,11,1,0,674,4
250,250,LENGKONG TUJOH,VACANZA @ EAST,OCR,37075.32823,34636.8897,1.3295168935379458,103.91486541837016,12711.340246475062,14,Freehold,0,4,2,3,1,18,0,16,0,2,2,1,0,193,5
251,251,LORONG 27 GEYLANG,RESIDENTIAL APARTMENTS,RCR,33610.12741,33174.34669,1.3162910140292283,103.88372841780308,9090.90909090909,14,Freehold,0,3,3,1,5,20,0,17,2,1,13,1,0,604,3
252,252,NATHAN ROAD,LOFT @ NATHAN,CCR,27361.67538,30769.92084,1.294546739720866,103.82758295750132,19825.622339828267,10,Freehold,2,2,2,4,3,23,45,14,3,1,10,1,0,289,3
253,253,LORONG 6 GEYLANG,CRYSTAL MANSIONS,RCR,32825.13355,32606.0893,1.3111520296492656,103.87667476295168,7378.917378917379,14,Freehold,2,3,0,4,3,3,0,16,4,1,12,1,0,595,1
254,254,SOMMERVILLE ROAD,BELLA VISTA,OCR,32118.617060000004,36252.56374,1.344129549270182,103.87032685802087,12118.113401649987,13,Freehold,1,4,2,2,1,1,0,5,0,2,2,2,0,273,2
255,255,SOPHIA ROAD,CITYVALE,CCR,29645.15357,31599.13738,1.3020458453849073,103.84810103632373,17275.841536995868,9,Freehold,12,25,0,7,2,12,45,15,11,0,8,0,0,1427,6
256,256,GRANGE ROAD,GRANGE INFINITE,CCR,28162.283339999998,31309.091210000002,1.2994228130373806,103.83477676775543,22664.90355888895,9,Freehold,20,10,1,3,1,19,38,29,14,0,14,0,0,1266,3
257,257,EWE BOON ROAD,EWE BOON REGENT,CCR,27683.347289999998,33196.30578,1.3164901150415331,103.83047329341672,17234.210179324895,10,Freehold,0,5,2,2,0,0,1,1,2,1,2,2,0,185,2
258,258,WOODLEIGH CLOSE,BLOSSOMS @ WOODLEIGH,RCR,31978.73055,35392.36135,1.3363502045078486,103.86906978006188,14108.584857947944,13,Freehold,1,3,2,2,1,0,0,8,0,2,4,2,0,192,4
259,259,KIM KEAT ROAD,KIM KEAT GARDENS,RCR,30151.074839999997,33981.1039,1.3235874778440198,103.8526471354228,9270.111548212255,12,99 yrs lease commencing from 2001,2,3,1,0,2,5,0,28,2,1,9,2,0,365,1
260,260,DEVONSHIRE ROAD,ILLUMINAIRE ON DEVONSHIRE,CCR,28391.01653,31269.81823,1.2990676400046557,103.83683203747131,23807.834314033153,9,Freehold,20,12,1,3,1,18,39,29,11,0,15,0,0,1423,4
261,261,KILLINEY ROAD,TAI WAH BUILDING,CCR,28572.004810000002,31172.7459,1.2981897492202903,103.8384582962672,20555.04761977083,9,Freehold,16,15,1,5,0,16,37,21,9,0,14,0,0,1214,6
262,262,RIVER VALLEY CLOSE,EURO-ASIA COURT,CCR,28465.88275,30722.250010000003,1.2941156246035854,103.83750473580429,16274.869978403003,9,Freehold,9,16,1,4,2,21,48,17,6,1,11,1,0,1003,7
263,263,BALESTIER ROAD,URBAN HERITAGE,RCR,30227.530619999998,33788.33507,1.3218441393397276,103.8533341174563,12371.411157993434,12,Freehold,1,3,2,1,2,5,3,28,1,2,8,2,0,401,0
264,264,LORONG 22 GEYLANG,GRANDVIEW SUITES,RCR,33468.48699,32785.6766,1.3127760457998645,103.88245563845743,14233.321308321309,14,Freehold,0,3,2,3,3,17,0,15,3,0,12,2,0,561,2
265,265,LORONG 25 GEYLANG,SKT MANSIONS,RCR,33487.76933,32998.06943,1.31469684744015,103.88262893741847,9609.99083469722,14,Freehold,0,2,2,3,4,17,0,17,3,1,13,2,0,592,3
266,266,GUILLEMARD ROAD/JALAN MOLEK,RESIDENTIAL APARTMENTS,RCR,33534.63564,32591.92727,1.3110238340629126,103.8830499820471,26959.647495361784,14,9999 yrs lease commencing from 1962,0,3,2,3,4,13,0,14,3,0,11,2,0,541,2
267,267,ORANGE GROVE ROAD,DARBY PARK,CCR,27213.4204,32491.948910000003,1.31012015167777,103.82625077915972,27484.011976047907,10,99 yrs lease commencing from 1993,9,5,0,3,0,4,20,13,11,0,8,0,0,615,0
268,268,KHIANG GUAN AVENUE,LINCOLN SUITES,CCR,29048.8561,33264.70089,1.317108640034879,103.84274308712007,21795.57630245916,11,Freehold,4,4,3,2,2,3,0,21,6,1,7,1,0,420,5
269,269,GRANGE ROAD,RAINBOW MANSION,CCR,27071.4967,31393.55457,1.3001866564313864,103.82497555853695,14814.814814814818,10,Freehold,5,8,0,2,0,6,39,9,9,0,8,0,0,509,0
270,270,ROBERTSON QUAY,UP@ROBERTSON QUAY,CCR,28440.91151,30359.398810000002,1.2908341262377636,103.83728035342511,26028.5443889599,9,99 yrs lease commencing from 2011,3,14,1,4,5,15,44,13,3,1,10,1,0,681,5
271,271,ST. MICHAEL'S ROAD,ST MICHAEL REGENCY,RCR,31397.4266,34460.13527,1.327919554224135,103.86384632383422,12743.849005729693,12,Freehold,1,3,3,2,2,3,0,25,1,4,10,2,0,360,1
272,272,KIM KEAT ROAD,VICTORY HEIGHTS,RCR,30146.21523,34072.74415,1.3244162401452184,103.85260347563221,9818.637341299478,12,Freehold,1,3,1,0,2,6,0,22,2,1,8,2,0,399,1
273,273,HOLLAND ROAD,HYLL ON HOLLAND,CCR,24556.34388,32507.19792,1.3102578759406314,103.80237565496063,26202.84834851498,10,Freehold,1,2,0,3,3,0,25,8,2,0,5,0,0,167,1
274,274,BUKIT TIMAH ROAD,FERRELL RESIDENCES,CCR,27891.118560000003,33330.003730000004,1.3176992335293842,103.83234022351178,19180.357560568093,10,Freehold,0,5,2,2,0,0,0,1,0,1,1,2,0,169,3
275,275,LORONG 30 GEYLANG,VIENTO,RCR,33920.86516,32723.210960000004,1.312211045156089,103.88652046691178,13494.710392966206,14,Freehold,2,7,2,4,4,18,0,16,3,0,14,3,0,636,4
276,276,KIM YAM ROAD,RESIDENTIAL APARTMENTS,CCR,28695.8904,30652.629739999997,1.2934859990913659,103.83957145175393,14893.617021276597,9,99 yrs lease commencing from 1997,10,16,1,6,3,16,48,16,6,0,11,1,0,1016,9
277,277,MOHAMED SULTAN ROAD,THE PIER AT ROBERTSON,CCR,28805.142539999997,30423.93905,1.2914177982571633,103.84055312305338,21119.167808182407,9,Freehold,5,23,1,6,3,12,51,16,5,1,13,1,0,859,9
278,278,RIVER VALLEY ROAD,283 STUDIO,CCR,28722.633189999997,30897.896539999998,1.2957041051784486,103.83981175277408,17346.938775510203,9,999 yrs lease commencing from 1841,11,18,1,4,1,19,41,17,9,0,13,0,0,1172,9
279,279,LORONG 36 GEYLANG,SUNFLOWER VIEW,RCR,34121.94343,32797.67643,1.312884444962909,103.88832726830128,10612.728630085852,14,Freehold,5,8,2,4,4,21,0,19,2,0,15,3,0,653,4
280,280,DEVONSHIRE ROAD,THE SUITES AT CENTRAL,CCR,28370.73356,31206.418999999998,1.2984942799260428,103.83664978517555,24373.051804697974,9,Freehold,18,12,1,3,1,20,41,28,10,0,16,0,0,1389,4
281,281,DERBYSHIRE ROAD,6 DERBYSHIRE,CCR,29398.01125,33106.92155,1.315681725532261,103.8458804173752,24654.776451651443,11,Freehold,3,3,3,3,2,1,0,23,7,2,8,0,0,454,4
282,282,BALMORAL CRESCENT,SUI GENERIS,CCR,28116.65962,33174.253280000004,1.316290681454677,103.83436682508741,21007.242040574667,10,Freehold,1,5,2,1,1,0,1,2,4,1,2,2,0,195,2
283,283,RANGOON ROAD,LOFT @ RANGOON,RCR,30252.240130000002,33027.05066,1.3149593507233424,103.85355608988523,15833.076226309922,8,Freehold,3,3,3,1,3,4,13,30,3,1,13,1,0,796,3
284,284,SHELFORD ROAD,SHELFORD SUITES,CCR,25700.33661,34314.36415,1.3266013543696693,103.81265485033084,16410.3181799407,11,Freehold,0,4,2,2,1,0,0,2,1,0,8,1,0,126,6
285,285,KIM KEAT ROAD,KIM KEAT HOUSE,RCR,30303.416989999998,34179.05488,1.3253776652570393,103.8540160257906,9018.310013261724,12,Freehold,1,3,1,0,1,5,0,17,3,1,11,2,0,371,1
286,286,LORONG 32 GEYLANG,SILVERSCAPE,RCR,33997.51665,32762.90252,1.3125699866273053,103.8872092257556,14554.333824070663,14,Freehold,4,8,2,4,4,18,0,18,2,0,14,3,0,618,3
287,287,DALVEY ROAD,DLV.,CCR,27085.748560000004,33083.74136,1.315472110170714,103.82510356813374,13984.289689855375,10,Freehold,0,1,1,1,0,0,0,0,4,1,2,1,0,130,2
288,288,TANGLIN ROAD,ST REGIS RESIDENCES SINGAPORE,CCR,27252.557969999998,31988.81944,1.3055700271304929,103.8266024613682,25297.473705392335,10,999 yrs lease commencing from 1995,12,9,0,3,0,6,33,20,15,0,10,0,0,922,0
289,289,BALESTIER ROAD,RITZ MANSIONS,RCR,30146.33506,34131.75138,1.3249498806199065,103.8526045564918,12399.926557908377,12,Freehold,2,3,1,0,1,6,0,19,2,1,10,2,0,417,1
290,290,BALESTIER ROAD,PRESTIGE HEIGHTS,RCR,30124.87067,34173.758310000005,1.3253297779138205,103.8524116902919,16555.357745095233,12,Freehold,2,4,1,1,1,6,0,20,2,1,10,2,0,476,1
291,291,LORONG 37 GEYLANG,GUILIN MANSIONS,RCR,34303.5888,33118.7158,1.3157877736054069,103.88995950664507,11208.080808080811,14,Freehold,5,9,2,3,5,24,0,18,1,1,14,1,0,667,3
292,292,LORONG 19 GEYLANG,SIMS POINT,RCR,33136.74493,32823.94296,1.3131221702834006,103.87947477904491,8596.491228070176,14,Freehold,0,1,1,3,4,10,0,17,3,1,11,1,0,559,1
293,293,HOLLAND ROAD,DUET,CCR,24763.73057,32625.29116,1.3113258918817663,103.80423911268869,15689.300411522634,10,Freehold,0,1,0,2,2,0,21,6,2,0,5,0,0,102,2
294,294,LORONG 25A GEYLANG,ADVANCE APARTMENTS,RCR,33558.328389999995,32914.99744,1.3139455612973987,103.88326293086088,13666.83857658587,14,Freehold,0,3,2,3,4,17,0,17,3,0,13,2,0,589,3
295,295,TANGLIN ROAD,TANGLIN REGENCY,CCR,26135.99983,30485.46545,1.2919741760661398,103.81656975165205,14601.943642232956,10,99 yrs lease commencing from 1994,0,2,2,1,4,20,55,14,5,3,7,4,0,261,1
296,296,BALESTIER ROAD,VIIO @ BALESTIER,RCR,29400.553669999998,34355.88785,1.3269769348272007,103.84590331907934,16576.438274410775,12,Freehold,5,4,1,2,1,5,0,32,5,1,11,1,0,615,4
297,297,LORONG 32 GEYLANG,REZI 3TWO,RCR,33953.563480000004,32713.977130000003,1.312127531388685,103.8868142755521,15234.46379028968,14,Freehold,3,8,2,4,4,15,0,17,2,0,14,3,0,607,4
298,298,EVELYN ROAD,D'EVELYN,CCR,28705.973060000004,33226.04274,1.3167590391719244,103.83966210693545,17388.706311406793,11,Freehold,3,4,3,2,1,1,0,18,6,1,6,1,0,366,6
299,299,JELLICOE ROAD,CITYLIGHTS,RCR,31316.332980000003,32288.0299,1.3082758122416234,103.86311741978174,16474.834227091982,8,99 yrs lease commencing from 2004,5,5,1,5,3,7,37,14,9,2,15,0,0,1132,7
300,300,SCOTTS ROAD,SCOTTS 28,CCR,28177.990910000004,32457.5409,1.3098089873401169,103.83491791380814,22700.34171946408,9,Freehold,15,10,2,2,1,10,14,26,14,1,8,0,0,1104,2
301,301,LORONG 33 GEYLANG,CHEN FANG MANSIONS,RCR,34078.44652,33073.866460000005,1.3153822175790626,103.88793648141491,9528.735632183907,14,Freehold,5,8,2,3,6,23,0,21,1,2,15,2,0,651,3
302,302,HULLET ROAD,URBAN SUITES,CCR,28564.34441,31839.61808,1.304220706553663,103.83838947618207,29498.262604024243,9,Freehold,20,13,1,3,1,18,24,27,15,1,13,0,0,1323,3
303,303,CAIRNHILL CIRCLE,THE PEAK @ CAIRNHILL I,CCR,28562.68234,32278.815360000004,1.3081926519869298,103.83837454962543,25560.94052511712,9,Freehold,19,14,1,3,1,16,16,26,14,1,10,0,0,1203,3
304,304,THOMSON ROAD,TAN TONG MENG TOWER,CCR,28923.24615,34443.26919,1.327767198917742,103.84161445286912,10838.158519221644,11,Freehold,5,2,1,3,0,3,0,20,4,1,8,1,0,500,4
305,305,TREVOSE CRESCENT,TREVOSE PARK,CCR,27157.043380000003,34102.83586,1.3246884426148469,103.82574416015764,17681.076410517348,11,Freehold,0,1,1,1,0,0,0,0,1,1,1,1,0,50,4
306,306,CHANGI ROAD,MILLAGE,RCR,35308.5731,33243.52305,1.3169162628418762,103.89898982372586,15648.241441615282,14,Freehold,5,6,1,2,4,13,0,13,0,2,13,1,0,635,3
307,307,LORONG 33 GEYLANG,CARMI MANSIONS,RCR,34089.68645,33111.76657,1.3157249704083591,103.88803748527894,9245.901639344262,14,Freehold,5,8,2,3,5,23,0,22,1,2,14,2,0,654,3
308,308,GILSTEAD ROAD,GILSTEAD TWO,CCR,28572.124160000003,33027.152669999996,1.3149603503986635,103.8384594026722,21320.9126984127,11,Freehold,4,4,3,2,1,0,1,14,6,1,7,1,0,373,5
309,309,LORONG MELAYU,EAST SHINE,OCR,36512.90747,33891.40328,1.3227751469390343,103.90981155322918,11968.433515801938,14,Freehold,0,1,3,2,1,6,0,10,2,1,3,0,0,213,4
310,310,GRANGE ROAD,PARKVIEW ECLAT,CCR,26979.304360000002,31468.19351,1.3008616618259634,103.82414716637145,31506.253231246465,10,Freehold,5,8,0,3,0,2,34,9,9,0,8,0,0,409,0
311,311,CAIRNHILL ROAD,THE EDGE ON CAIRNHILL,CCR,28424.202980000002,32349.38659,1.3088308755123943,103.83713024718149,18399.665618370625,9,Freehold,19,12,1,3,1,15,15,26,15,1,12,0,0,1215,2
312,312,DUCHESS ROAD,DUCHESS MANOR,CCR,25143.436130000002,34075.32495,1.3244395214678264,103.80765081861715,19855.35892782325,10,999 yrs lease commencing from 1875,0,5,2,3,2,0,3,4,1,0,8,2,0,165,5
313,313,MERGUI ROAD,CITYSCAPE @FARRER PARK,RCR,30033.84328,33365.700339999996,1.318021993894872,103.85159370665657,14761.178096338306,8,Freehold,5,4,3,2,2,4,4,36,6,2,14,1,0,707,2
314,314,SHELFORD ROAD,NINETEEN SHELFORD ROAD,CCR,25633.691619999998,34269.224839999995,1.326193125343767,103.81205601229212,16102.572712610232,11,Freehold,0,4,2,2,1,0,0,2,1,0,8,1,0,142,6
315,315,MAKEWAY AVENUE,MAKEWAY VIEW,CCR,28923.374519999998,32797.361710000005,1.312882193559863,103.84161555708413,25664.52795600366,9,Freehold,3,4,3,2,1,0,0,15,7,1,7,1,0,396,3
316,316,LORONG 29 GEYLANG,TORIEVIEW MANSIONS,RCR,33861.350889999994,32974.287730000004,1.3144817052687412,103.88598574957331,7935.572425427497,14,Freehold,4,8,2,4,5,20,0,19,2,0,16,2,0,679,3
317,317,HOLLAND HILL,HOLLAND PEAK,CCR,24533.79311,32378.56768,1.3090945870594226,103.80217303971732,15397.704903318832,10,Freehold,1,3,0,2,3,3,30,10,2,0,6,1,0,211,1
318,318,TOPAZ ROAD,SUITES @ TOPAZ,RCR,31540.63572,34538.23517,1.328625845639651,103.8651331453643,14391.593593651436,12,Freehold,1,2,2,1,1,3,0,19,1,3,9,2,0,332,2
319,319,ADIS ROAD,PARC SOPHIA,CCR,29586.08721,31529.723410000002,1.3014180929724892,103.84757029456006,17695.413369846425,9,Freehold,13,25,0,8,2,13,47,14,10,0,8,0,0,1421,7
320,320,JALAN KEMAMAN,VERTICUS,RCR,29929.942460000002,34287.27342,1.3263563813078456,103.85066016218262,21925.5877918638,12,Freehold,4,5,1,1,2,8,0,34,3,2,12,1,0,613,3
321,321,BALESTIER ROAD,MONVILLE MANSIONS,RCR,29357.733860000004,34377.09699,1.3271687447155849,103.84551856063356,9413.333333333334,12,Freehold,5,4,1,2,0,3,0,30,5,1,11,1,0,601,4
322,322,WESTERHOUT ROAD,RESIDENTIAL APARTMENTS,RCR,33290.2813,32610.87679,1.3111952496813235,103.88085434277396,9290.94620757965,14,Freehold,0,3,2,3,3,10,0,14,3,0,11,2,0,548,2
323,323,ST. MICHAEL'S ROAD,AIRSTREAM,RCR,31418.48652,34394.571280000004,1.3273266144347224,103.86403555145472,14813.4086199742,12,Freehold,1,3,3,2,2,3,0,25,1,4,10,2,0,410,1
324,324,PEGU ROAD,BELMONDO VIEW,RCR,29991.759939999996,33945.20244,1.3232628085558156,103.85121560367878,11783.604516487832,12,Freehold,4,3,2,1,2,8,0,30,4,1,13,1,0,518,3
325,325,GEYLANG ROAD,PAVILION SQUARE,RCR,33170.94741,32803.98461,1.3129416683418826,103.87978210188562,14847.282513282513,14,Freehold,0,1,2,3,4,13,0,17,3,1,12,1,0,561,1
326,326,BELMONT ROAD,YGK GARDEN,CCR,24221.03285,32786.90593,1.3127874167644302,103.79936268859385,15683.59375,10,Freehold,1,3,0,1,4,0,28,10,2,1,5,0,0,195,1
327,327,LEEDON HEIGHTS,D'LEEDON,CCR,24794.97409,33173.15667,1.3162805968110476,103.8045197942378,16391.098229941497,10,99 yrs lease commencing from 2010,0,1,1,1,1,0,13,2,1,0,1,1,0,35,2
328,328,JALAN EUNOS,THE NAVIAN,OCR,36133.17264,34447.996419999996,1.3278088777077752,103.90639958444542,17100.650593977247,14,Freehold,0,4,3,3,1,9,0,16,1,1,3,1,0,305,2
329,329,LORONG 39 GEYLANG,SUNFLOWER GRANDEUR,RCR,34362.04028,33151.113710000005,1.3160807566639483,103.89048472919404,10885.416666666666,14,Freehold,5,9,2,3,4,24,0,18,1,1,15,1,0,668,3
330,330,BUKIT TIMAH ROAD,RICH MANSIONS,CCR,28026.6016,33290.724480000004,1.3173440060564536,103.83355760811476,16217.711031921497,10,Freehold,0,5,2,2,1,0,0,2,1,2,1,2,0,172,3
331,331,ST. THOMAS WALK,ESPADA,CCR,28380.95563,31079.002630000003,1.297341970982843,103.83674163347862,25540.175067086173,9,Freehold,15,11,1,3,1,17,49,21,9,0,12,0,0,1307,5
332,332,TAMAN NAKHODA,VILLA DELLE ROSE,CCR,25200.027000000002,32813.15672,1.3130249243155458,103.8081594326217,14780.878139999919,10,Freehold,0,1,1,1,1,0,17,2,1,0,2,1,0,66,3
333,333,GRANGE ROAD,GRANGE 1866,CCR,27516.635710000002,31359.93495,1.299882622558451,103.82897533370421,29396.359869601532,10,Freehold,16,10,0,3,1,14,44,28,18,0,15,0,0,1083,1
334,334,CAIRNHILL RISE,ALBA,CCR,28712.122760000002,32192.87112,1.3074153995072348,103.8397173414387,27165.59124191416,9,Freehold,17,12,1,3,1,16,15,22,12,1,12,0,0,1300,4
335,335,HOLLAND ROAD,TOHO MANSIONS,CCR,23730.467380000002,32771.67051,1.3126495688600028,103.7949547177264,27198.77137114077,10,Freehold,2,4,0,2,4,4,35,11,3,2,8,0,0,323,1
336,336,NEWTON ROAD,26 NEWTON,CCR,28923.362289999997,33108.14595,1.3156928164887909,103.8416154564502,26116.27491576762,11,Freehold,3,4,3,2,2,0,0,18,6,1,7,1,0,411,4
337,337,PETAIN ROAD,PETAIN COURT,RCR,30845.763839999996,32690.03498,1.3119114509571843,103.85888916776243,12258.437801350048,8,Freehold,4,7,2,5,3,5,29,29,6,3,14,1,0,1093,5
338,338,RIVER VALLEY CLOSE,PACIFIC MANSION,CCR,28363.380439999997,30791.374060000002,1.2947407595646174,103.83658370933428,14276.660869210926,9,Freehold,10,11,1,4,2,24,49,17,7,1,10,1,0,964,6
339,339,MARTIN PLACE,MARTIN MODERN,CCR,28532.67705,30653.80865,1.29349666394026,103.83810491011177,26968.90979275341,9,99 yrs lease commencing from 2016,8,13,1,4,2,19,46,13,4,1,11,1,0,941,8
340,340,CARLISLE ROAD,CARLYX GREEN,RCR,29612.29117,32830.39628,1.313180918196846,103.84780581641084,12442.887931034482,8,Freehold,7,4,3,3,3,1,3,27,8,1,12,0,0,733,5
341,341,DRAYCOTT PARK,DRAYCOTT EIGHT,CCR,27873.512730000002,32632.1856,1.3113884126408737,103.83218202898563,19754.07789886377,10,99 yrs lease commencing from 1997,11,10,1,2,1,6,11,18,12,1,7,1,0,828,0
342,342,SOPHIA ROAD,SOPHIA 98,CCR,29535.52805,31632.180930000002,1.3023446852195857,103.84711600254064,14210.178710178709,9,Freehold,13,23,1,8,2,13,40,13,11,0,7,0,0,1394,6
343,343,DUNEARN ROAD,DUNEARN LODGE,CCR,25440.16876,34133.24743,1.3249633782033996,103.81031711566901,13611.111111111111,11,99 yrs lease commencing from 1993,0,5,2,3,1,0,2,2,1,0,8,1,0,142,7
344,344,AVA ROAD/BALESTIER ROAD,VICTORY POINT,RCR,30133.46302,33853.24951,1.3224312092555963,103.85248887495138,35312.402859807284,12,Freehold,3,3,2,1,2,5,0,29,3,1,13,2,0,447,0
345,345,FARRER ROAD,WILSHIRE RESIDENCES,CCR,24809.19656,32817.21775,1.3130616127654924,103.80464762707842,26911.62461041072,10,Freehold,0,1,1,2,2,0,19,4,1,0,3,1,0,87,1
346,346,PHENG GECK AVENUE,NIN RESIDENCE,RCR,32080.38736,35021.529910000005,1.332996523570536,103.8699831756752,14000.698563668215,13,99 yrs lease commencing from 2010,1,3,2,2,1,0,0,9,0,3,6,2,0,262,4
347,347,RIVER VALLEY ROAD,UE SQUARE,CCR,28945.08505,30611.17235,1.293111066499412,103.84181057086894,18096.86031057308,9,929 yrs lease commencing from 1953,10,27,1,6,3,11,51,14,9,1,14,1,0,1186,10
348,348,HOLLAND ROAD,UNIT 8,CCR,24944.471169999997,32447.31399,1.309716347785326,103.80586317294217,13172.043010752688,10,Freehold,0,1,0,1,2,0,21,3,2,0,2,0,0,79,1
349,349,PHENG GECK AVENUE,SENNETT RESIDENCE,RCR,32043.89728,34893.070289999996,1.3318347854082508,103.86965527462223,15364.904009184129,13,99 yrs lease commencing from 2011,1,3,2,2,1,0,0,11,0,3,4,2,0,249,5
350,350,EVELYN ROAD,SETIA RESIDENCES,CCR,28737.76815,33131.79148,1.31590666332106,103.83994779977918,19172.025723472667,11,Freehold,3,4,3,2,1,0,0,18,6,1,6,1,0,387,5
351,351,LORONG 31 GEYLANG,TIVOLI LODGE,RCR,33984.04698,33070.73418,1.3153539088888642,103.88708825366744,7773.1092436974795,14,Freehold,5,8,2,3,6,22,0,22,1,1,16,2,0,695,3
352,352,MEYAPPA CHETTIAR ROAD,THE POIZ RESIDENCES,RCR,31747.9998,34860.98774,1.331544680228854,103.86699646542576,15969.324315796885,13,99 yrs lease commencing from 2014,1,3,1,2,0,1,0,12,1,4,6,2,0,257,3
353,353,JALAN MASJID,KEMBANGAN SUITES,OCR,36837.38652,33601.42216,1.3201525705962152,103.91272708392384,14553.499416458548,14,Freehold,0,1,1,1,1,2,0,3,2,1,4,0,0,171,6
354,354,OXFORD ROAD,KENTISH GREEN,RCR,30055.392989999997,33097.88643,1.3155999781719132,103.8517873240619,10207.591249674124,8,99 yrs lease commencing from 1995,4,4,3,1,2,3,8,24,3,1,10,1,0,762,4
355,355,KIM YAM ROAD,GAMBIER COURT,CCR,28709.24173,30564.67785,1.2926905928165568,103.83969141717743,14011.657915184667,9,99 yrs lease commencing from 1997,10,16,1,6,3,16,52,16,5,0,12,1,0,906,8
356,356,JALAN MASJID,D'GALLERY,OCR,36771.64368,33584.39981,1.319998645535921,103.9121363459137,13722.132712734216,14,Freehold,0,1,2,2,1,3,0,4,2,1,5,0,0,187,5
357,357,DAKOTA CRESCENT,WATERBANK AT DAKOTA,RCR,34193.80268,32128.03498,1.306828432359795,103.8889728254255,16786.643573119065,14,99 yrs lease commencing from 2009,0,3,1,2,3,5,0,11,2,2,9,4,0,299,5
358,358,LORONG 32 GEYLANG,CENTRO MANSIONS,RCR,33946.934069999996,32821.10225,1.3130963340281092,103.88675472761864,8558.558558558558,14,Freehold,4,8,2,4,4,18,0,19,2,0,15,2,0,645,4
359,359,THOMSON ROAD,AMANINDA,CCR,28839.7761,34113.766319999995,1.3247872940057184,103.84086441961566,15052.033871061421,11,Freehold,5,0,3,2,0,3,0,19,5,0,8,2,0,485,4
360,360,MACKENZIE ROAD,PARC MACKENZIE,CCR,29620.16015,32064.610289999997,1.3062554195874871,103.84787648318337,15080.752481514974,9,Freehold,8,16,2,6,2,7,25,16,8,1,7,0,0,1112,7
361,361,LORONG 39 GEYLANG,D'WEAVE,RCR,34359.09659,33091.438839999995,1.3155410790916169,103.89045826638281,13747.017987087633,14,Freehold,5,9,2,3,4,24,0,17,1,1,15,1,0,669,3
362,362,JALAN RAJA UDANG,GLOBAL VILLE,RCR,29033.345910000004,34415.56933,1.3275166876585305,103.84260375875051,11342.789022304542,12,Freehold,5,3,1,3,0,3,0,28,4,1,9,1,0,553,4
363,363,GILSTEAD ROAD,GILSTEAD 38,CCR,28649.101000000002,33378.94888,1.318141869535874,103.83915108569558,10167.163345129447,11,Freehold,4,4,2,2,1,2,0,18,6,1,6,1,0,391,6
364,364,ORANGE GROVE ROAD,THE ORANGE GROVE,CCR,27227.75732,32890.652989999995,1.3137258910375422,103.82637959339856,21377.81011224922,10,Freehold,1,3,1,1,0,0,5,4,9,0,5,1,0,292,0
365,365,LORONG SARINA,THE VINES,OCR,36312.504389999995,33516.935860000005,1.319388654050742,103.9080107255381,11262.89424147376,14,Freehold,0,1,1,2,1,6,0,7,2,2,5,0,0,239,3
366,366,ST. MICHAEL'S ROAD,ST MICHAEL'S CONDOMINIUM,RCR,31229.826660000002,34263.86819,1.326144602692357,103.8623403257385,10275.046276386032,12,Freehold,1,5,3,2,3,5,0,28,1,4,10,2,0,413,1
367,367,JALAN HAJI ALIAS,CORONA VILLE,CCR,23740.48488,33863.9592,1.322527841094128,103.79504457908716,14938.817300968933,10,Freehold,0,1,0,1,0,0,12,2,2,0,1,0,0,69,4
368,368,LORONG 26 GEYLANG,REZI 26,RCR,33761.37462,32768.669839999995,1.3126221893061891,103.88508737475614,13688.423457953406,14,Freehold,1,5,2,3,4,17,0,15,3,0,12,2,0,594,3
369,369,LORONG 24 GEYLANG,REZI 24,RCR,33593.17547,32651.68211,1.311564224979801,103.8835760016347,17059.10730191924,14,Freehold,0,3,2,3,3,13,0,15,3,0,11,2,0,561,2
370,370,ROBIN ROAD,ROBIN SUITES,CCR,27493.73032,33329.173930000004,1.3176917251036089,103.82876948628208,21241.899561092643,10,Freehold,0,2,2,1,0,0,0,1,0,1,1,2,0,130,2
371,371,MINBU ROAD,MINBU COURT,CCR,29675.67738,34191.407360000005,1.3254894176489904,103.84837544691332,12290.365744870649,11,Freehold,5,5,1,2,1,7,0,36,5,1,12,1,0,666,3
372,372,GEYLANG ROAD,LE REGAL,RCR,33236.166260000005,32755.445539999997,1.3125026872455905,103.88036811721008,13051.452311711097,14,Freehold,0,1,2,2,3,13,0,14,3,1,11,2,0,554,1
373,373,RIVER VALLEY ROAD,RESIDENCES AT 338A,CCR,28520.00739,30969.99823,1.2963561715302636,103.83799107302394,18039.96410389853,9,Freehold,13,17,1,4,2,17,45,19,10,0,13,0,0,1174,8
374,374,BEATTY ROAD,STURDEE RESIDENCES,RCR,30863.33552,32801.21836,1.3129169524829627,103.8590470682134,16841.022274519673,8,99 yrs lease commencing from 2015,4,7,2,5,3,4,23,27,6,3,15,1,0,1000,4
375,375,SURREY ROAD,THE LINCOLN RESIDENCES,CCR,29010.66,33072.976760000005,1.3153747560120934,103.84239986938532,19451.745279629547,11,Freehold,3,4,4,2,2,0,0,20,7,1,7,1,0,423,4
376,376,LORONG 8 GEYLANG,GOODVIEW APARTMENTS,RCR,32843.30772,32659.921510000004,1.31163886617319,103.87683807512795,7650.353425724939,14,Freehold,0,3,0,4,3,3,0,15,4,1,10,1,0,571,1
377,377,JERVOIS ROAD,JERVOIS MEADOWS,CCR,26145.57459,30807.816839999996,1.294889409175837,103.81665576587507,14723.511576143157,10,Freehold,0,3,1,1,2,14,41,11,5,1,6,2,0,133,0
378,378,MINBU ROAD,MONTEBLEU,CCR,29867.83244,34002.69239,1.3237827351345697,103.85010205256792,16825.853502620957,11,Freehold,5,3,2,1,2,8,0,30,4,1,12,1,0,613,3
379,379,PARK VALE,THE PARK VALE,CCR,25585.52748,34689.63221,1.3299951367113432,103.81162319816394,14893.340606639493,11,999 yrs lease commencing from 1874,0,3,1,2,1,0,0,2,1,0,8,0,0,108,6
380,380,LORONG 35 GEYLANG,REZI 35,RCR,34178.67937,33111.352660000004,1.3157212093811257,103.88883713124595,16299.334899079675,14,Freehold,5,8,2,3,4,21,0,20,1,2,14,2,0,637,3
381,381,LORONG 20 GEYLANG,TREASURES @ G20,RCR,33366.5555,32638.714860000004,1.3114469940897548,103.88153970840185,12271.253746253748,14,Freehold,0,2,2,3,3,13,0,13,3,0,10,2,0,543,2
382,382,SALLIM ROAD,SALLIM LODGE,RCR,33486.9576,34220.19458,1.3257493113793175,103.88262186127376,9908.256880733945,14,Freehold,0,4,3,2,4,12,0,16,2,1,5,1,0,360,4
383,383,KENG LEE ROAD,ROCHELLE AT NEWTON,CCR,28957.57952,32925.8568,1.3140442567454114,103.8419229099357,16320.280255204692,11,99 yrs lease commencing from 2008,3,4,3,2,2,0,0,18,7,1,7,1,0,417,4
384,384,ESSEX ROAD,LION TOWERS,CCR,29332.695669999997,33205.52153,1.3165734318129592,103.84529352810672,14219.653179190753,11,Freehold,3,2,3,2,2,2,0,19,7,2,7,0,0,414,5
385,385,BALESTIER ROAD,ROCCA BALESTIER,RCR,30137.60783,33727.68327,1.3212956323505467,103.85252610954555,7844.753613292363,12,Freehold,3,2,3,1,2,5,3,38,2,2,13,1,0,524,0
386,386,SOPHIA ROAD,1919,CCR,29474.87138,31679.88685,1.302776123688378,103.84657097682032,21441.11868684029,9,Freehold,12,20,1,6,2,12,36,13,10,0,7,0,0,1222,6
387,387,ARCADIA ROAD,HILLCREST ARCADIA,CCR,25285.8976,35295.18784,1.335471541437573,103.8089308029993,10241.499101191905,11,99 yrs lease commencing from 1975,0,0,1,0,0,0,0,0,0,0,4,1,0,71,5
388,388,DEVONSHIRE ROAD,DEVONSHIRE 12,CCR,28523.12232,31158.661910000003,1.2980623794279131,103.83801906517056,21807.932859098102,9,Freehold,16,14,1,5,1,19,39,21,9,0,14,0,0,1310,6
389,389,GEYLANG ROAD,THE ARIZON,RCR,33928.47399,32889.911360000006,1.3137186226242452,103.88658886787624,8998.256203146446,14,Freehold,4,8,2,4,4,18,0,19,2,0,15,2,0,658,4
390,390,BALMORAL PARK,JEWEL OF BALMORAL,CCR,27350.90612,33129.43127,1.3158853203439618,103.82748614177609,18089.68215994532,10,Freehold,0,2,2,1,0,0,1,1,4,1,2,1,0,209,2
391,391,OXLEY WALK,BELLE VUE RESIDENCES,CCR,28955.32253,31008.60033,1.2967052650608446,103.84190257105504,20457.695442142864,9,Freehold,11,22,1,6,1,14,39,13,8,0,9,0,0,1152,10
392,392,GILSTEAD ROAD,CASA CONTENDERE,CCR,28516.193860000003,33264.8762,1.317110239036675,103.83795684473623,23099.13378248316,11,Freehold,3,4,3,2,1,0,0,17,6,1,6,1,0,389,5
393,393,LORONG 37 GEYLANG,MORO MANSIONS,RCR,34244.67235,33063.46368,1.3152881052180592,103.88943010161154,10065.964625216347,14,Freehold,5,9,2,3,4,22,0,19,1,1,15,2,0,639,3
394,394,PECK HAY ROAD,VIDA,CCR,28641.34701,32333.313769999997,1.3086855148601364,103.83908139049923,22060.99445371517,9,Freehold,16,12,1,3,1,15,14,21,11,1,10,0,0,1172,4
395,395,CAMBRIDGE ROAD,CAMBRIDGE VILLAGE,RCR,29572.2416,32831.90096,1.3131945280618929,103.84744595120866,12183.03001277139,8,Freehold,6,4,3,3,3,1,3,26,7,1,10,0,0,611,5
396,396,NEWTON ROAD,PEPPERMINT GROVE,CCR,28909.80747,33387.23201,1.3182167726205534,103.84149366774449,18217.391304347828,11,Freehold,4,4,2,2,2,2,0,19,6,1,8,1,0,411,6
397,397,RIVER VALLEY ROAD,YONG AN PARK,CCR,28102.04294,30882.28979,1.2955629713936645,103.83423547940079,19809.762458949088,9,Freehold,13,7,1,4,2,30,50,23,9,1,13,0,0,1127,4
398,398,KAMPONG EUNOS,LE REVE,OCR,36119.77491,33466.96748,1.3189368097492549,103.90627893938446,11811.562319909845,14,Freehold,0,2,2,2,2,8,0,8,2,2,7,0,0,357,2
399,399,RIVER VALLEY ROAD,VALLEY PARK,CCR,27472.37511,30618.072210000002,1.293173476169185,103.82857764482874,17750.665134152685,10,999 yrs lease commencing from 1877,2,3,2,3,4,26,46,15,3,2,11,1,0,309,3
400,400,LORONG 32 GEYLANG,NESS,RCR,33949.39637,32777.05071,1.3126979471449085,103.88677684413788,13841.029725105796,14,Freehold,4,8,2,4,4,18,0,19,2,0,15,2,0,650,3
401,401,CLAYMORE ROAD,THE TATE RESIDENCES,CCR,27702.15109,32308.39605,1.3084601729615255,103.83064226371,26141.88230091832,9,Freehold,15,12,0,2,0,9,19,22,16,1,10,0,0,974,0
402,402,BOON TECK ROAD,SUMMER GREEN,RCR,29824.92276,34355.20104,1.326970701104893,103.8497165071028,10735.8,12,Freehold,4,5,0,2,2,8,0,36,3,2,11,1,0,593,3
403,403,LORONG 27 GEYLANG,THE ALCOVE,RCR,33642.06298,32921.74323,1.314006552570823,103.88401532893162,8633.521811564804,14,99 yrs lease commencing from 2000,0,4,2,3,4,17,0,17,3,0,13,2,0,612,4
404,404,CAMBRIDGE ROAD,D'CAMBRIDGE,RCR,29703.12242,32994.164260000005,1.3146619730590827,103.84862198930836,12514.337231382542,8,Freehold,7,3,3,3,2,1,2,31,8,1,12,1,0,728,4
405,405,RACE COURSE ROAD,RITZ @ FARRER,RCR,30123.085160000002,32471.67163,1.3099367082225943,103.85239552951386,15465.566232391018,8,Freehold,5,8,2,4,3,1,23,24,5,1,13,0,0,1023,5
406,406,LENGKONG EMPAT,LEVENUE,OCR,36950.53978,34540.22148,1.328642698256825,103.91374409765812,14411.975877014222,14,Freehold,0,5,1,3,1,16,0,14,1,2,2,1,0,176,4
407,407,LORONG 14 GEYLANG,CENTRAL IMPERIAL,RCR,33107.721860000005,32693.51907,1.3119426678568935,103.87921397093231,11316.959259975778,14,Freehold,0,2,1,3,4,7,0,17,3,1,11,1,0,542,1
408,408,KIM SENG ROAD,THE COSMOPOLITAN,CCR,27879.612910000003,30892.058810000002,1.2956513188980514,103.83223684890257,23105.21279350433,9,Freehold,9,6,1,4,3,29,43,23,7,1,14,0,0,952,3
409,409,ANGULLIA PARK,ORCHARD VIEW,CCR,27571.6047,31651.24858,1.3025171612718454,103.82946925079,25673.758865248223,9,Freehold,15,10,0,3,0,10,38,26,17,0,11,0,0,1105,1
410,410,NATHAN ROAD,REGENCY PARK,CCR,27265.13377,30925.99921,1.295958255478617,103.82671548587936,19344.68403931676,10,Freehold,1,2,1,2,3,17,38,8,3,1,9,1,0,182,3
411,411,RIVER VALLEY ROAD,336 RIVER VALLEY,CCR,28579.19573,30944.04707,1.2961214773266108,103.83852290566051,28468.91842244346,9,Freehold,12,17,1,4,2,16,44,19,10,0,13,0,0,1145,8
412,412,MEYAPPA CHETTIAR ROAD,CASA MEYA,RCR,31736.89245,34788.606060000006,1.3308900874381708,103.86689665079862,14376.8018018018,13,Freehold,1,3,2,1,0,1,0,12,1,3,6,3,0,292,3
413,413,ST. MICHAEL'S ROAD,ONE ST MICHAEL'S,RCR,31482.307289999997,34104.5634,1.3247038789528482,103.86460898302937,14104.114447187832,12,Freehold,1,5,3,3,2,3,0,26,2,4,10,2,0,392,1
414,414,WHAMPOA DRIVE,RESIDENTIAL APARTMENTS,RCR,30225.226769999997,33859.349389999996,1.3224863678689838,103.85331342128329,11809.895833333336,12,Freehold,1,3,2,1,2,5,2,28,3,1,9,2,0,378,0
415,415,GUILLEMARD CRESCENT,COSMO,RCR,33310.90442,32431.87747,1.3095764399865382,103.88103962092005,15254.36330861551,14,Freehold,1,3,2,4,4,4,0,14,3,0,11,2,0,613,1
416,416,LORONG MYDIN,ASTORIA PARK,OCR,36735.13558,33710.9665,1.3211432793018332,103.9118083378099,10793.471642586816,14,99 yrs lease commencing from 1993,0,1,2,2,1,3,0,5,2,1,4,0,0,180,5
417,417,ZION ROAD,ZENITH,CCR,27693.89308,30558.72904,1.2926368003646482,103.83056807874694,18664.67135349123,10,999 yrs lease commencing from 1877,2,3,2,3,4,23,43,16,2,1,12,2,0,415,4
418,418,RANGOON ROAD,SUITES 123,RCR,30243.567560000003,33048.12547,1.3151499444864805,103.85347816401158,13934.514939463514,8,Freehold,3,3,3,1,3,4,12,30,3,1,13,1,0,795,3
419,419,YOUNGBERG TERRACE,AVON PARK,RCR,32056.65965,35712.52128,1.339245606403212,103.86977006083107,13767.71864585109,13,Freehold,1,3,2,2,1,0,0,7,0,2,4,1,0,136,3
420,420,LORONG MARZUKI,D' CASITA,OCR,36461.85011,33794.19317,1.3218960280411705,103.9093527493844,12473.819547252311,14,Freehold,0,1,2,2,1,6,0,6,2,1,4,0,0,209,3
421,421,SHAN ROAD,SHAN GATE APARTMENTS,RCR,29507.5315,34238.21725,1.3259127584902115,103.84686456753886,12754.844006568144,12,Freehold,5,5,2,2,1,7,0,35,6,0,11,1,0,639,4
422,422,BUCKLEY ROAD,BUCKLEY 18,CCR,28861.906839999996,33395.95055,1.3182956213973218,103.84106325616315,17962.496642647016,11,Freehold,4,4,2,2,1,2,0,19,6,1,7,1,0,413,6
423,423,LEICESTER ROAD,LEICESTER LODGE,RCR,31734.532180000002,34688.59771,1.3299856477887142,103.86687543023842,12500.0,13,Freehold,1,2,2,1,0,1,0,14,1,3,6,3,0,316,3
424,424,HORNE ROAD,RESIDENTIAL APARTMENTS,RCR,31050.937210000004,32561.466539999998,1.3107487038453622,103.86073273868557,10151.309330069536,8,999999 yrs lease commencing from 1958,5,8,1,5,4,7,34,25,6,3,16,0,0,1093,7
425,425,LORONG SELANGAT,SERENE VIEW MANSIONS,OCR,31770.81659,36453.881610000004,1.345950241870692,103.86720168476369,8901.86813186813,13,Freehold,1,6,2,3,1,1,0,7,0,2,5,2,0,329,5
426,426,TONG WATT ROAD,THE WHARF RESIDENCE,CCR,28766.02961,30621.536289999996,1.2932047992230713,103.84020168175677,21184.19003459012,9,999 yrs lease commencing from 1841,10,18,1,6,2,12,52,16,7,0,11,1,0,1134,9
427,427,SHELFORD ROAD,SHELFORD MANSIONS,CCR,25594.08787,34504.93606,1.3283248109297578,103.81170013256914,12289.56228956229,11,Freehold,0,4,2,2,1,0,0,2,1,0,8,1,0,126,5
428,428,TESSENSOHN ROAD,1953,RCR,30719.07492,33194.92665,1.3164775240168958,103.85775084988127,20227.059624552407,8,Freehold,4,6,2,3,3,6,14,34,4,3,15,2,0,831,3
429,429,STEVENS ROAD,FIFTY-TWO STEVENS,CCR,27248.98295,33034.2272,1.3150243260271302,103.82657031277952,19056.12244897959,10,Freehold,1,3,1,1,0,0,2,1,5,1,2,1,0,247,2
430,430,LORONG 8 GEYLANG,WING FONG BUILDING,RCR,32891.176230000005,32370.11005,1.309017906764939,103.87726815142702,8210.526315789473,14,Freehold,2,4,0,3,4,4,0,16,4,1,12,0,0,562,1
431,431,THOMSON ROAD,NOVENA REGENCY,CCR,28899.29612,33740.36413,1.3214103749920365,103.84139922814123,18215.21842355176,11,Freehold,5,2,2,1,0,3,0,20,5,0,8,1,0,459,5
432,432,LORONG 19 GEYLANG,BOUGAINVILLA APARTMENTS,RCR,33134.921610000005,32860.50989,1.3134528688890403,103.87945840167671,9348.758131283264,14,Freehold,0,1,1,3,4,13,0,17,3,1,11,1,0,550,1
433,433,ANGULLIA PARK,SKYLINE @ ORCHARD BOULEVARD,CCR,27583.65735,31721.69795,1.3031542807269036,103.82957754843922,45206.084656084655,9,Freehold,15,10,0,3,0,10,37,26,16,0,11,0,0,1090,1
434,434,KIM YAM ROAD,THE IVERIA,CCR,28584.15223,30851.62502,1.2952856447191834,103.83856744026063,28155.01423478483,9,Freehold,12,17,1,5,2,17,46,21,8,0,13,1,0,1151,9
435,435,ROBERTSON QUAY,RIVERSIDE 48,CCR,28721.85543,30369.507439999998,1.2909255399316997,103.83980475215859,19649.585004456327,9,Freehold,5,20,1,5,4,12,52,14,6,1,14,1,0,918,7
436,436,DUCHESS AVENUE,DUCHESS CREST,CCR,24624.90207,34100.18072,1.3246642552344807,103.802991509285,14328.67725563959,10,99 yrs lease commencing from 1995,0,4,2,3,1,0,3,4,1,0,5,2,0,145,6
437,437,RIVER VALLEY ROAD,TWO8ONE STUDIO,CCR,28728.11784,30899.32824,1.295717052842385,103.83986103477281,14891.01541733121,9,999 yrs lease commencing from 1841,11,18,1,4,1,19,42,17,9,0,13,0,0,1172,9
438,438,BALMORAL ROAD,BELMOND GREEN,CCR,27807.60677,33145.149560000005,1.3160274772910294,103.83158982838805,19945.95719538537,10,Freehold,1,5,2,2,1,0,2,1,2,1,3,2,0,270,2
439,439,CORONATION ROAD,CORONATION GROVE,CCR,24537.62231,33894.82434,1.3228070752549737,103.80220727694277,16442.574499738406,10,999 yrs lease commencing from 1875,0,3,2,2,1,0,4,4,1,0,1,2,0,122,5
440,440,MOUNT ELIZABETH,HIGH POINT,CCR,28237.897119999998,32307.727160000002,1.308454124304807,103.83545619901622,14925.373134328356,9,Freehold,19,12,1,3,1,15,17,26,15,1,12,0,0,1263,2
441,441,HOLLAND HILL,OLINA LODGE,CCR,24388.83501,32439.9359,1.3096495628812876,103.80087051432423,16049.782850279396,10,Freehold,1,4,0,2,4,6,34,11,2,1,6,0,0,217,1
442,442,ST. THOMAS WALK,GRANGE HEIGHTS,CCR,28212.244489999997,31127.44911,1.29778010550233,103.83522568985373,16974.4538438855,9,Freehold,18,11,1,3,1,19,43,29,9,0,13,0,0,1272,5
443,443,DALVEY ESTATE,DALVEY COURT,CCR,26759.59028,33697.82995,1.321025698860671,103.82217284654266,15400.2029853702,10,Freehold,0,3,1,2,1,0,0,0,2,1,3,1,0,89,3
444,444,LORONG 26 GEYLANG,GUILIN COURT,RCR,33714.08886,32728.45915,1.312258546974204,103.88466248155659,8429.748555895345,14,Freehold,0,4,2,3,4,17,0,15,3,0,12,2,0,552,3
445,445,LORONG AMPAS,D'LOTUS,RCR,30245.54488,34260.95747,1.3261183675692718,103.85349601961462,12986.754258936904,12,Freehold,2,4,1,1,2,5,0,20,3,1,11,2,0,452,1
446,446,WILBY ROAD,THE TESSARINA,CCR,23093.24887,34930.97101,1.3321774182084023,103.78922865075614,17513.65071921265,10,Freehold,1,2,1,2,0,0,3,3,5,0,5,1,0,115,2
447,447,LEICESTER ROAD,PARC ASTON,RCR,31814.94634,34704.19922,1.330126732306277,103.8675979981043,12304.674616813345,13,Freehold,1,3,2,1,1,1,0,14,2,2,6,3,0,299,3
448,448,BALESTIER ROAD,SHAW PLAZA - TWIN HEIGHTS,RCR,30002.062410000002,34120.897000000004,1.3248517272581477,103.85130818830382,12811.172595520422,12,Freehold,5,3,1,2,2,8,0,26,4,1,14,1,0,567,3
449,449,SURREY ROAD,SUITES @ NEWTON,CCR,28929.6363,33186.38203,1.3164003557720565,103.84167183395351,19879.004616085087,11,Freehold,3,4,3,2,2,1,0,18,6,1,7,1,0,415,5
450,450,RACE COURSE LANE,28 RC SUITES,RCR,30185.01566,32476.657260000004,1.3099817921772976,103.85295200543598,14824.038577456298,8,Freehold,5,8,2,4,3,2,24,24,5,1,14,0,0,1052,5
451,451,CLAYMORE ROAD,THE CLAYMORE,CCR,27809.678560000004,32382.273510000003,1.3091282955155026,103.83160844919901,29212.493447584904,9,Freehold,15,12,0,2,1,10,17,23,16,1,9,0,0,1010,0
452,452,BUKIT TIMAH ROAD,THE LEGACY,CCR,26811.54863,33699.97317,1.3210450834503848,103.82263971950748,16787.609238451936,10,Freehold,0,3,1,2,0,0,0,0,2,1,3,1,0,85,3
453,453,EMERALD HILL ROAD,111 EMERALD HILL,CCR,28658.53305,31932.33606,1.3050592134410504,103.83923580686796,23779.99702302305,9,Freehold,20,14,1,3,1,18,17,26,13,1,13,0,0,1313,5
454,454,BASSEIN ROAD,8 BASSEIN,CCR,29645.93873,33975.571939999994,1.3235374801467086,103.8481082174997,18475.12038445372,11,Freehold,6,3,1,1,2,7,0,31,7,1,12,1,0,654,5
455,455,JALAN DUSUN,GALLERY FIFTEEN,RCR,29155.95927,34420.51399,1.327561401008973,103.84370550720614,11004.42233278054,12,Freehold,5,3,1,2,0,3,0,29,5,1,9,1,0,555,4
456,456,ROBERTSON QUAY,ROBERTSON BLUE,CCR,28447.8703,30297.1613,1.2902712719640268,103.83734288017945,20860.25218555844,9,Freehold,3,12,1,4,5,15,47,13,3,2,10,1,0,710,5
457,457,SOPHIA ROAD,CASA SOPHIA,CCR,29446.85215,31650.39845,1.3025094423087826,103.84631920979244,20322.354590049054,9,Freehold,12,21,1,6,2,13,35,13,8,0,7,0,0,1320,7
458,458,HERTFORD ROAD,THE URBANITE,RCR,29675.30902,32866.813839999995,1.3135102623813624,103.84837206506063,15682.631464322483,8,Freehold,7,4,3,3,3,1,3,28,8,1,13,0,0,761,4
459,459,ROBIN DRIVE,RESIDENTIAL APARTMENTS,CCR,27359.3195,33474.60015,1.3190069059301657,103.82756173307429,22757.697456492642,10,Freehold,0,2,2,1,0,0,0,1,1,1,1,2,0,120,2
460,460,MOONSTONE LANE,MOONSTONE RESIDENCES,RCR,31644.424789999997,34369.36546,1.327098635756343,103.86606572725883,11618.869639948147,12,Freehold,1,4,2,3,2,3,0,20,2,2,11,2,0,372,2
461,461,LORONG TAHAR,RESIDENTIAL APARTMENTS,RCR,32704.88914,32774.3462,1.312673703857693,103.87559433387577,9955.132927074264,14,Freehold,0,1,0,2,2,3,0,11,3,1,8,1,0,492,0
462,462,MAKEWAY AVENUE,KOPAR AT NEWTON,CCR,28833.237189999996,32780.65526,1.312731108890849,103.84080562803403,25071.642535307128,9,99 yrs lease commencing from 2019,4,4,3,2,1,0,0,15,7,1,6,1,0,451,3
463,463,GRANGE ROAD,MANHATTAN MANSIONS,CCR,27462.52848,31348.679369999998,1.2997808301633953,103.82848915610504,17753.623188405796,10,Freehold,15,10,0,3,1,13,43,25,18,0,15,0,0,929,0
464,464,RANGOON ROAD,RESIDENTIAL APARTMENTS,RCR,30182.12213,33324.92216,1.3176532002730588,103.85292606542677,8683.484302695902,8,Freehold,3,5,3,2,2,6,8,29,2,2,10,1,0,605,2
465,465,ROBIN ROAD,THREE THREE ROBIN,CCR,27497.04122,33231.21318,1.3168058027398264,103.82879923801863,21690.559657892933,10,Freehold,0,2,2,1,0,0,0,1,0,1,1,2,0,140,2
466,466,JERVOIS ROAD,DORMER PARK,CCR,26677.03314,30742.14633,1.2942955352739494,103.82143115321121,17599.869278149148,10,Freehold,0,3,1,2,4,17,47,12,5,2,8,3,0,154,1
467,467,CORONATION ROAD,CORONATION ARCADE,CCR,25463.61576,33949.445830000004,1.3233011436411055,103.81052781478121,13109.243697478993,10,Freehold,0,5,2,3,2,0,3,4,1,0,5,1,0,123,7
468,468,SERANGOON ROAD,RESIDENTIAL APARTMENTS,RCR,30540.53332,32742.09927,1.312382328664085,103.8561465257453,8050.476773685592,8,9999 yrs lease commencing from 1957,5,8,2,6,3,3,25,29,6,3,15,1,0,1021,4
469,469,RIVER VALLEY GROVE,2 RVG,CCR,28110.62858,30991.143239999998,1.2965474036839322,103.83431262548456,20479.935394529817,9,Freehold,15,10,1,4,1,24,47,22,9,1,13,0,0,1204,4
470,470,BRADDELL ROAD,SUITES@BRADDELL,OCR,31932.940689999996,36188.25193,1.3435479610725056,103.868658434778,14667.449154193058,13,Freehold,1,6,2,2,1,1,0,2,0,2,2,2,0,234,3
471,471,OXFORD ROAD,KENTISH COURT,RCR,30119.76712,33047.615939999996,1.3151453452627166,103.85236575469284,10570.8891373716,8,99 yrs lease commencing from 1995,3,4,3,2,3,4,10,25,2,1,9,1,0,761,4
472,472,LORONG 26 GEYLANG,BLOSSOM VIEW,RCR,33758.32252,32660.91957,1.311647734854638,103.88505993012257,9785.662156771908,14,Freehold,1,3,2,3,3,14,0,15,3,0,12,2,0,571,4
473,473,BALMORAL ROAD,SLOANE RESIDENCES,CCR,27888.639519999997,33107.7083,1.3156888721620963,103.83231794887872,31189.42296376542,10,Freehold,1,5,2,2,1,1,3,1,2,1,3,2,0,246,2
474,474,BUCKLEY ROAD,THREE BUCKLEY,CCR,28729.5968,33254.36931,1.317015214113153,103.8398743789483,16258.431247392831,11,Freehold,3,4,3,2,1,1,0,18,6,1,6,1,0,388,6
475,475,GILSTEAD ROAD,THE ARMADALE,CCR,28773.492489999997,33426.03018,1.3185676532959834,103.84026880843071,16106.228727514806,11,Freehold,4,4,2,2,1,2,0,19,6,1,6,1,0,405,6
476,476,HOLLAND ROAD,ALLSWORTH PARK,CCR,22130.18504,33579.597819999995,1.3199559113376302,103.78057523970699,16446.237959034643,10,999 yrs lease commencing from 1885,0,0,1,1,0,0,30,1,0,0,2,0,0,36,9
477,477,JALAN DUSUN,GAIA,RCR,29156.39634,34451.88491,1.327845108483344,103.84370943570265,15170.168067226892,12,Freehold,5,4,1,2,0,3,0,30,5,1,9,1,0,563,4
478,478,LORONG MYDIN,D' PALMA,OCR,36731.97494,33590.08341,1.3200500572978386,103.91177990355108,13378.591823097018,14,Freehold,0,1,2,2,1,3,0,5,2,1,5,0,0,191,4
479,479,WILKIE ROAD,WILKIE STUDIO,CCR,29590.672319999998,31753.12335,1.3034384430627235,103.84761150522918,14346.321158331912,9,Freehold,11,22,1,7,2,11,38,13,12,0,7,0,0,1359,7
480,480,JERVOIS ROAD,JERVOIS VIEW,CCR,26972.84575,30697.67849,1.2938933949179512,103.82408915812584,18246.376811594204,10,Freehold,2,3,1,3,6,17,49,16,4,2,12,2,0,271,2
481,481,LORONG 38 GEYLANG,THE WATER EDGE,RCR,34170.053510000005,32890.18523,1.3137210519005862,103.8887595794561,14244.2433240093,14,Freehold,5,8,2,3,4,21,0,21,1,1,14,2,0,642,3
482,482,STEVENS DRIVE,PARC STEVENS,CCR,27318.10943,33218.036739999996,1.3166866362063103,103.82719144494159,16976.61907116061,10,Freehold,0,2,2,1,0,0,0,1,3,1,1,1,0,133,2
483,483,TRURO ROAD,70@TRURO,RCR,29755.196519999998,33022.042610000004,1.3149140920774125,103.84908990281497,19537.0346215781,8,Freehold,7,3,2,3,2,1,3,32,8,1,12,1,0,761,4
484,484,KAMPONG BUGIS,KALLANG RIVERSIDE,RCR,31758.203110000002,32158.544530000003,1.3071047418172859,103.86708781851151,24668.97629726498,12,Freehold,3,6,0,4,2,6,22,12,7,2,10,0,0,765,4
485,485,BALESTIER ROAD,ASCENT @ 456,RCR,29673.94575,34311.29155,1.326573607898336,103.84835989381916,11474.133685064937,12,Freehold,5,5,1,2,2,7,0,37,4,2,12,1,0,667,3
486,486,SARKIES ROAD,LIBERTE,CCR,28371.80072,32901.3474,1.3138226150160557,103.83665939423555,25197.19989648033,10,Freehold,4,4,2,1,1,1,3,8,7,1,3,1,0,342,4
487,487,BIRCH ROAD,RESIDENTIAL APARTMENTS,RCR,30250.86978,32613.102239999997,1.311215747637516,103.85354374653562,8666.666666666666,8,Freehold,5,6,2,4,3,3,22,25,7,2,14,1,0,1022,4
488,488,THOMSON ROAD,PEAK RESIDENCE,CCR,28848.39779,34170.61059,1.3253013732299197,103.84094189171171,27447.56603567333,11,Freehold,5,0,3,2,0,3,0,19,5,0,8,2,0,487,5
489,489,BALMORAL PARK,RESIDENTIAL APARTMENTS,CCR,27620.9811,33053.88632,1.315202123028335,103.8299129032229,20958.08383233533,10,Freehold,2,6,2,2,0,1,4,3,6,1,4,2,0,338,2
490,490,WOODLEIGH LANE,PARK COLONIAL,RCR,32091.152169999998,35634.37107,1.3385388391226674,103.8700799859202,19174.202291077694,13,99 yrs lease commencing from 2017,1,3,3,2,1,0,0,7,0,2,4,2,0,148,4
491,491,LORONG 4 GEYLANG,RESIDENTIAL APARTMENTS,RCR,32779.94424,32433.019480000003,1.3095868547255811,103.87626868833723,12690.328047145713,14,Freehold,2,2,0,3,3,3,0,12,4,1,11,0,0,528,1
492,492,BALESTIER ROAD,BALESTIER PLAZA,RCR,29899.04763,34219.56927,1.3257440909007283,103.85038255114377,11057.111175225229,12,Freehold,5,5,1,2,2,8,0,36,4,1,13,1,0,661,3
493,493,PATERSON ROAD,PATERSON LINC,CCR,27628.992589999998,31726.14783,1.3031945244523706,103.82998490642984,22591.050410837222,9,Freehold,17,10,0,3,0,10,37,25,16,0,11,0,0,1102,1
494,494,GRANGE ROAD,GRAMERCY PARK,CCR,27260.9053,31238.11185,1.2987808922794035,103.82667748385737,30999.955492239635,10,Freehold,9,8,1,3,1,10,41,14,12,0,13,0,0,694,0
495,495,LEICESTER ROAD,ONE LEICESTER,RCR,31788.15482,34627.23467,1.329430695647404,103.86735725186348,13935.016165600595,13,Freehold,1,2,2,1,1,2,0,14,2,2,6,3,0,322,3
496,496,DORSET ROAD,DORSET MANSIONS,RCR,29866.094839999998,32859.58318,1.3134448598741921,103.85008637019013,12659.82028241335,8,Freehold,6,4,2,2,2,1,6,19,5,1,9,1,0,735,5
497,497,ST. THOMAS WALK,ST THOMAS SUITES,CCR,28287.10031,31197.140839999996,1.2984103723914058,103.8358983031393,21768.200805906272,9,Freehold,19,11,1,3,1,19,40,29,10,0,13,0,0,1263,5
498,498,HOLLAND HILL,HOLLAND HILL PARK,CCR,24537.030909999998,32461.88569,1.3098480860109671,103.80220212361205,15740.367940279351,10,Freehold,1,3,0,2,3,3,29,9,2,0,6,0,0,186,1
499,499,NASSIM ROAD,BEAUFORT ON NASSIM,CCR,27045.11558,32320.47031,1.3085693549471114,103.82473848384323,26948.283655601525,10,Freehold,7,5,0,3,0,3,23,13,11,0,8,0,0,523,1
500,500,JALAN RAJAH,THE VERVE,RCR,29649.173039999998,34438.26172,1.3277218824870267,103.84813730435283,14014.769885557067,12,Freehold,5,5,1,2,2,6,0,40,4,2,12,1,0,670,3
501,501,BUKIT TIMAH ROAD,JAYA TOWER,CCR,26960.4995,33596.24603,1.3201070173060516,103.8239781247802,19430.8644285256,10,Freehold,0,2,1,1,0,0,0,0,1,1,1,1,0,79,3
502,502,KAMPONG EUNOS,DENG FU VILLE,OCR,36169.711610000006,33481.81035,1.3190710300348951,103.9067276500438,12690.808487287359,14,Freehold,0,1,2,2,2,8,0,8,2,2,7,0,0,314,2
503,503,CUSCADEN ROAD,CUSCADEN RESERVE,CCR,27092.8215,31772.102619999998,1.3036101123014727,103.8251671604613,38623.53083748274,10,99 yrs lease commencing from 2018,10,8,0,3,0,4,33,14,11,0,8,0,0,663,0
504,504,LORONG 27A GEYLANG,BALMY COURT,RCR,33746.03562,32938.53049,1.3141583513132031,103.88494957782123,9165.716197178946,14,Freehold,1,5,2,3,4,20,0,19,3,0,16,2,0,678,4
505,505,SUFFOLK ROAD,SUFFOLK PREMIER,CCR,29265.1661,32947.94438,1.314243997916279,103.8446867300256,14423.812493071719,11,Freehold,3,5,3,3,2,1,0,19,7,2,7,0,0,442,4
506,506,BRADDELL ROAD,E MAISON,OCR,31937.7178,36249.9603,1.344106028921467,103.86870136802835,13997.017713379026,13,Freehold,1,6,2,3,1,1,0,3,0,2,2,2,0,237,3
507,507,HOLLAND ROAD,FAIRLODGE,CCR,24472.49669,32717.234089999998,1.312157359189756,103.80162222337476,12256.844692118651,10,Freehold,1,2,0,2,3,0,24,8,1,0,4,0,0,159,2
508,508,LORONG 1 TOA PAYOH,OLEANDER TOWERS,RCR,29226.760110000003,35042.28491,1.3331844741173149,103.84434171650604,12080.43729269607,12,99 yrs lease commencing from 1995,3,5,3,3,3,3,0,27,2,2,6,1,0,507,2
509,509,ARDMORE PARK,JUNIPER AT ARDMORE,CCR,27590.98202,32341.53229,1.3087598441534418,103.82964335580294,24144.22412942685,10,Freehold,14,9,0,2,0,7,22,21,16,0,10,0,0,947,0
510,510,BUKIT TIMAH ROAD,THE LEGEND,CCR,27561.95515,33394.341539999994,1.3182810789992654,103.82938252045557,15389.16183023098,10,Freehold,0,2,2,1,0,0,0,1,0,1,1,2,0,142,2
511,511,CUSCADEN ROAD,THE TOMLINSON,CCR,27194.40318,31861.17645,1.304415667448574,103.82607991656565,22401.568721442844,10,Freehold,12,8,0,3,0,5,33,18,14,0,9,0,0,851,0
512,512,LORONG MELAYU,BLISS VILLE,OCR,36437.62416,33998.880860000005,1.3237471561917973,103.9091351227936,10670.637743006164,14,Freehold,0,1,2,2,1,9,0,11,2,1,3,1,0,237,3
513,513,MINBU ROAD,MEDGE,CCR,29898.857539999997,33957.53243,1.3233743225339676,103.85038082688814,15447.024922800938,11,Freehold,4,3,2,1,2,8,0,30,4,1,12,1,0,571,3
514,514,BALESTIER ROAD,SCENIC HEIGHTS,RCR,30097.982739999996,33764.200560000005,1.321625884535792,103.85217005977529,12316.741830065359,12,Freehold,3,2,2,1,2,5,1,28,3,2,12,1,0,510,0
515,515,BALMORAL PARK,PINEWOOD GARDENS,CCR,27639.77477,33083.283639999994,1.3154679822374775,103.83008177347904,18044.725053358132,10,Freehold,2,6,2,2,0,0,4,2,5,1,3,2,0,323,2
516,516,LORONG 9 GEYLANG,THE DIAMOND,RCR,32771.18456,32808.74725,1.3129848045240509,103.87619003618298,10194.967619047618,14,Freehold,0,1,1,2,2,3,0,13,3,1,9,1,0,512,0
517,517,DUCHESS AVENUE,DUCHESS ROYALE,CCR,24979.47192,34049.18434,1.3242030992608835,103.80617751481587,17697.363934788482,10,999 yrs lease commencing from 1875,0,4,2,2,2,0,4,4,2,0,8,2,0,166,5
518,518,GUILLEMARD ROAD,CASSIA EDGE,RCR,33843.79065,32652.785260000004,1.3115741549640398,103.8858279014252,13880.597014925374,14,Freehold,1,6,2,3,3,14,0,14,2,0,11,3,0,527,4
519,519,LINCOLN ROAD,THE LINCOLN MODERN,CCR,29083.66643,33067.268039999995,1.3153231258796974,103.84305586880444,16188.409719191015,11,Freehold,3,4,4,2,2,1,0,20,7,2,7,1,0,422,4
520,520,SIMS AVENUE EAST,EUNOS GREEN,OCR,36060.84908,33439.99413,1.3186928880586293,103.90574945368239,9608.304547228729,14,Freehold,0,2,2,2,2,8,0,8,2,2,8,0,0,396,1
521,521,TOMLINSON ROAD,KUM HING COURT,CCR,27218.490260000002,31621.737060000003,1.3022502625737338,103.82629635620714,24980.132450331126,10,Freehold,11,8,0,3,0,6,40,17,14,0,9,0,0,826,0
522,522,LORONG 27 GEYLANG,EXCELLENCE MANSIONS,RCR,33592.56287,32958.59735,1.3143398571345557,103.88357055253022,11304.347826086956,14,Freehold,0,4,2,3,4,17,0,17,3,0,13,2,0,602,4
523,523,SOPHIA ROAD,SOPHIA LODGE,CCR,29637.934989999998,31557.8753,1.3016726860558845,103.84803617192141,16062.252405206566,9,Freehold,12,26,0,7,2,12,46,16,10,0,8,0,0,1459,6
524,524,EVELYN ROAD,EVELYN MANSIONS,CCR,28643.84833,33196.8078,1.3164946500641814,103.83910388396276,17397.701542100087,11,Freehold,3,4,3,2,1,0,0,17,6,1,6,1,0,362,5
525,525,HOLLAND ROAD,THE ENCLAVE . HOLLAND,CCR,24181.896230000002,32714.79022,1.3121352230160106,103.7990110356224,24304.19936717037,10,Freehold,1,2,0,1,4,0,29,10,2,1,5,0,0,197,1
526,526,KIM KEAT CLOSE,RESIDENTIAL APARTMENTS,RCR,30195.194880000003,33949.352119999996,1.3233003228538482,103.8530435752645,10691.772812759094,12,Freehold,1,3,1,0,2,5,0,29,3,1,9,2,0,368,1
527,527,SIMS AVENUE,CENTRA HEIGHTS,RCR,33926.833739999995,33174.68097,1.3162939776337816,103.8865741839845,16237.850494332952,14,Freehold,5,8,2,3,4,20,0,21,1,1,16,1,0,704,3
528,528,LORONG 6 GEYLANG,TREASURES@G6,RCR,32831.055510000006,32547.053410000004,1.3106181291120809,103.8767279654558,13325.487142195088,14,Freehold,2,3,0,4,3,3,0,18,4,1,12,0,0,586,1
529,529,MACKENZIE ROAD,MACKENZIE REGENCY,CCR,29798.658110000004,31887.891,1.3046572228065811,103.84948036140577,14306.943427725895,9,Freehold,11,21,3,8,3,7,37,21,10,1,10,0,0,1365,7
530,530,CAIRNHILL CIRCLE,THE LIGHT @ CAIRNHILL,CCR,28566.970639999996,32085.93715,1.3064483293739704,103.83841307855008,21626.36594659695,9,Freehold,19,13,1,3,1,17,16,27,15,1,12,0,0,1323,4
531,531,OXLEY RISE,THE OXLEY,CCR,28984.90376,31267.174989999996,1.299043722366793,103.84216837948988,21796.352456453074,9,Freehold,12,21,1,5,0,14,33,20,12,0,11,0,0,1224,10
532,532,WAN THO AVENUE,WAN THO LODGE,RCR,32207.03317,35043.69867,1.3331969926280751,103.87112116306076,12604.209817293931,13,Freehold,1,3,2,2,1,0,0,12,0,2,6,2,0,290,4
533,533,WOODLEIGH CLOSE,EURO-ASIA PARK,RCR,31815.0982,35430.53939,1.3366954941831672,103.86759945348095,12889.684169218997,13,Freehold,1,3,2,2,1,0,0,8,0,3,4,2,0,166,2
534,534,MOUNT ELIZABETH,ELIZABETH TOWER,CCR,28327.461239999997,32065.47823,1.3062633095630078,103.8362609730974,16828.119103498782,9,Freehold,19,14,1,3,1,16,20,27,16,1,12,0,0,1323,2
535,535,HOLLAND VILLAGE WAY,ONE HOLLAND VILLAGE RESIDENCES,CCR,23546.44906,32739.894519999998,1.3123621720035423,103.79330122697843,29009.54149499102,10,99 yrs lease commencing from 2018,3,5,0,2,4,4,34,12,3,2,9,0,0,331,4
536,536,CLUNY PARK ROAD,CLUNY PARK RESIDENCE,CCR,25835.6631,33798.50109,1.321936081529253,103.81387086892859,25860.675214845494,10,Freehold,0,5,1,3,1,0,2,2,2,0,4,1,0,107,6
537,537,ORCHARD BOULEVARD,THE ORCHARD RESIDENCES,CCR,27820.735480000003,31797.17995,1.3038369156379104,103.83170780436113,33665.354916820164,9,99 yrs lease commencing from 2006,20,11,0,4,0,14,33,26,17,0,14,0,0,1270,1
538,538,FARRER ROAD,SPANISH VILLAGE,CCR,24923.80595,33049.63452,1.3151635194234077,103.80567742611277,15947.728868403428,10,Freehold,0,1,1,1,1,0,15,2,0,0,0,1,0,37,2
539,539,GUILLEMARD ROAD,GRANDLINK SQUARE,RCR,34475.09192,32942.189589999994,1.3141912980357044,103.89150051127474,10895.718816375434,14,Freehold,5,9,2,3,4,18,0,15,1,1,14,3,0,708,4
540,540,JERVOIS CLOSE,ONE JERVOIS,CCR,27082.1862,30589.14809,1.2929118875500625,103.8250716320948,18801.14840707316,10,Freehold,2,2,2,3,6,26,45,18,4,2,12,2,0,312,2
541,541,EMERALD HILL ROAD,TOP TEN,CCR,28710.783339999998,31908.564130000002,1.3048442273302143,103.83970529963592,16918.109808155983,9,Freehold,18,13,1,4,1,17,19,23,12,1,13,0,0,1328,6
542,542,ONE TREE HILL,ONE TREE HILL RESIDENCE,CCR,27036.06875,31456.37913,1.300754818550163,103.82465722049892,21332.42717290696,10,Freehold,5,8,0,3,0,2,36,9,9,0,8,0,0,448,0
543,543,MARTABAN ROAD,CHELSEA GROVE,RCR,29976.770539999998,34031.22429,1.3240407606780882,103.85108092146608,11594.859061145387,12,Freehold,5,3,2,1,2,8,0,30,4,1,13,1,0,570,3
544,544,TAI THONG CRESCENT,THE VENUE RESIDENCES,RCR,32006.95802,34527.10224,1.3285251055351148,103.86932330665114,14911.555743392886,13,99 yrs lease commencing from 2012,1,3,2,2,1,2,0,14,2,2,5,2,0,335,3
545,545,SOMMERVILLE ROAD,D' ALMIRA,OCR,31849.15437,36313.9322,1.3446845794218607,103.86790557998822,11025.479201496246,13,Freehold,1,6,2,3,1,1,0,3,0,2,2,2,0,278,3
546,546,GUILLEMARD CRESCENT,ARENA RESIDENCES,RCR,33266.73777,32442.980369999997,1.3096768582332745,103.88064276420819,19501.302275254347,14,Freehold,1,3,2,4,4,4,0,15,3,0,11,2,0,623,1
547,547,NASSIM HILL,NASSIM MANSION,CCR,26428.64635,32486.49989,1.3100708426198564,103.8191992032831,27569.966639195693,10,Freehold,1,3,0,2,0,0,15,3,3,0,2,0,0,136,2
548,548,KELLOCK ROAD,KELLOCK LODGE,CCR,27626.568880000003,30817.92958,1.294980918192635,103.82996313915994,16552.927847927745,10,Freehold,3,5,2,2,3,21,40,15,4,1,11,1,0,353,2
549,549,HOLLAND ROAD,SYLVAN LODGE,CCR,24076.56595,32769.99775,1.3126344870942537,103.79806458428602,14862.204537620522,10,Freehold,1,2,0,1,4,0,30,10,2,2,5,0,0,195,1
550,550,RIVER VALLEY ROAD,RV RESIDENCES,CCR,27457.08811,30747.1766,1.2943410506219957,103.82844028238412,21837.081519724077,10,999 yrs lease commencing from 1877,2,3,2,3,3,26,43,14,2,1,10,1,0,289,3
551,551,BUKIT TIMAH ROAD,BALMORAL PLAZA,CCR,28241.981519999998,33190.2066,1.3164349569211768,103.83549290615679,13741.959574563016,10,Freehold,1,4,2,1,1,0,1,7,4,1,3,2,0,354,4
552,552,LORONG 32 GEYLANG,LOFT 33,RCR,33996.58833,32786.5916,1.3127842223927275,103.88720088892931,13703.573467152864,14,Freehold,4,8,2,4,5,18,0,20,2,0,15,3,0,625,4
