,feature_id,name,google_place_id,num_ratings,avg_rating,W,weighted_rating,lat,long,address,feature_type
0,0,CHEN FAMILY CLINIC 153 SERANGOON NORTH AVE 1,ChIJ87EQ6lYW2jERUySifNftWtI,18.0,4.1,0.0004939355688491,3.476428845837221,1.36995099695439,103.872312298307,153 SERANGOON NORTH AVE 1 550153,clinic
1,1,CHENG CLINIC 447 ANG MO KIO AVE 10,ChIJm2EwyvwW2jERLwUt9mASBnQ,5.0,3.4,0.0001372043246803,3.4761102455673543,1.36747901395741,103.855967138976,447 ANG MO KIO AVE 10 560447,clinic
2,2,CHEONG FAMILY CLINIC PTE LTD 45 OWEN RD,ChIJvcJKnMQZ2jERQROXzDMoWL8,20.0,3.5,0.0005488172987212,3.476133795033771,1.31559567557441,103.850825476113,45 OWEN RD 210045,clinic
3,3,CHEONG MEDICAL CLINIC 76 JLN JURONG KECHIL,ChIJ96j1JGIQ2jERi92-rqkkGEk,11.0,3.6,0.0003018495142966,3.4761580825648317,1.34054866770426,103.77332960556,76 JLN JURONG KECHIL 598589,clinic
4,4,CHERN MEDICAL CLINIC 138 TAMPINES ST 11,ChIJp26ARxY92jERxKzsX3tSGvA,4.0,4.0,0.0001097634597442,3.476178192460764,1.34550450587014,103.945588355489,138 TAMPINES ST 11 521138,clinic
5,5,CHESTMED pte ltd 3 Mount Elizabeth,ChIJHacSR5IZ2jERWspT20XNvqo,2.0,5.0,5.488172987212557e-05,3.4762043227878405,1.30516521414744,103.83543933754,3 Mount Elizabeth 228510,clinic
6,6,CHIA & LEE MEDICAL & DENTAL CLINIC 802 TAMPINES AVE 4,ChIJx3OZNhU92jERM12IAZD6PHI,14.0,3.0,0.0003841721091048,3.475937777365639,1.34608442387087,103.93803402297,802 TAMPINES AVE 4 520802,clinic
7,7,CHIA CLINIC AND SURGERY 27 FOCH ROAD,ChIJ1R_r0c4Z2jERYqfCNOkgboU,4.0,3.0,0.0001097634597442,3.47606842900102,1.31270180835768,103.859968796046,27 FOCH ROAD 209264,clinic
8,8,CHIEW CLINIC 2 KOVAN ROAD,ChIJBfo3e7MX2jER6E7DSFvphe8,23.0,3.5,0.0006311398935294,3.476135760840561,1.36197602911345,103.88499280169,2 KOVAN ROAD 548008,clinic
9,9,CHIN CHOO CLINIC 35 CIRCUIT ROAD,ChIJnfVu0IsX2jERI9BnoAwhXJQ,19.0,4.2,0.0005213764337851,3.4764981032684905,1.32915899651205,103.886010316195,35 CIRCUIT ROAD 370035,clinic
10,10,CHIN LEONG CLINIC 517 WEST COAST ROAD,ChIJH1nQ2-wa2jER1688KExBP44,8.0,3.6,0.0002195269194885,3.4761478844985607,1.30747684403086,103.7601572777,517 WEST COAST ROAD 120517,clinic
11,11,CHINATOWN WELLNESS CLINIC 531 UPPER CROSS STREET,ChIJkao7m5EZ2jERFLq5ij8F_3s,5.0,4.2,0.0001372043246803,3.4762200090270983,1.28439238197795,103.846101472114,531 UPPER CROSS STREET 050531,clinic
12,12,CHIRON MEDICAL CLINIC 3 ST. GEORGE'S ROAD,ChIJm6PZvtYZ2jERuz5OmwHOjz0,14.0,4.0,0.0003841721091048,3.476321949474744,1.32258735163112,103.861107276896,3 ST. GEORGE'S ROAD 320003,clinic
13,13,CHNG CLINIC AND SURGERY 178 TOA PAYOH CENTRAL,ChIJj3DP92YX2jERusk-YMqbM_A,13.0,2.8,0.0003567312441688,3.4758794962803434,1.33358025833851,103.849264521174,178 TOA PAYOH CENTRAL 310178,clinic
14,14,CHONG & LIM FAMILY CLINIC 103 GANGSA ROAD,ChIJu0v59qMR2jERmqqOu4Bg870,10.0,2.8,0.0002744086493606,3.4759351562899194,1.37867070866309,103.768538441068,103 GANGSA ROAD 670103,clinic
15,15,CHONG MEDICAL CLINIC 703 BEDOK RESERVOIR ROAD,ChIJx561iFk92jER8nplwgZgmDg,1.0,5.0,2.7440864936062783e-05,3.4761625062215065,1.33716507465033,103.91989305506,703 BEDOK RESERVOIR ROAD 470703,clinic
16,16,CHONG'S MEDICAL CENTRE 190 CLEMENCEAU AVE,ChIJU25fA5gZ2jERRUq9PpbdiUA,12.0,3.3,0.0003292903792327,3.476062694806485,1.29815265418204,103.844111318068,190 CLEMENCEAU AVE 239924,clinic
17,17,CHOONG'S CLINIC 480 TAMPINES ST 44,ChIJQyDzPQc92jERs7JzNUXyHZU,14.0,3.0,0.0003841721091048,3.475937777365639,1.36189869571333,103.953613062624,480 TAMPINES ST 44 520480,clinic
18,18,CHOONG'S CLINIC 21 OLD AIRPORT RD,ChIJXWuVXkcY2jEROQvQSIv3pD0,18.0,3.5,0.0004939355688491,3.476132484495911,1.3075861395776,103.88441304265,21 OLD AIRPORT RD 390021,clinic
19,19,CHUA CLINIC 678 HOUGANG AVE 8,ChIJk1gSIE8W2jERo3iFNsbPi_I,9.0,3.3,0.0002469677844245,3.476077193518657,1.37084076367772,103.884236382226,678 HOUGANG AVE 8 530678,clinic
20,20,CHUA CLINIC & SURGERY 769 YISHUN AVE 3,ChIJafh1B3IU2jERsHQeB5wN5LM,4.0,3.3,0.0001097634597442,3.4761013580389437,1.42460205341205,103.83322239147,769 YISHUN AVE 3 760769,clinic
21,21,CHUA CLINIC & SURGERY 844 YISHUN ST 81,ChIJV3dKKBIU2jERtNf0AdZBo4g,10.0,2.7,0.0002744086493606,3.475907715424983,1.41562517359593,103.835446503405,844 YISHUN ST 81 760844,clinic
22,22,CHUA MEDICO CLINIC LLP 529 ANG MO KIO AVE 10,ChIJTfn0ReUW2jERuU9OFNu9n4w,42.0,2.1,0.0011525163273146,3.4745346880919894,1.37234358213412,103.85545542764,529 ANG MO KIO AVE 10 560529,clinic
23,23,CHUAH CLINIC & SURGERY PTE LTD 113 ALJUNIED AVE 2,ChIJz-oM7SMY2jER1UqkjmIrd64,15.0,2.9,0.0004116129740409,3.475883550904697,1.32052595944466,103.886159306963,113 ALJUNIED AVE 2 380113,clinic
24,24,CHUNGKIAW CLINIC PTE LTD 68 JALAN JURONG KECHIL,ChIJyzfhHYoQ2jERdqHgZKyn_1M,10.0,4.0,0.0002744086493606,3.4762644466691524,1.34054847931538,103.773649129579,68 JALAN JURONG KECHIL 596180,clinic
25,25,CITILIFE FAMILY CLINIC 215 JURONG EAST ST 21,ChIJbz-fRxoQ2jERVuxOOdKGTno,5.0,3.2,0.0001372043246803,3.476082804702418,1.33993327230313,103.738514477814,215 JURONG EAST ST 21 600215,clinic
26,26,CITIZEN FAMILY CLINIC AND SURGERY 102 YISHUN AVE 5,ChIJG0pyl3oU2jERjM5iJyJ43mo,51.0,4.7,0.0013994841117392,3.4778334893046865,1.43061830395979,103.828762985206,102 YISHUN AVE 5 760102,clinic
27,27,CLARION MEDICAL 202 ANG MO KIO AVENUE 3,ChIJ__9vAd4W2jERhTtDlecjL7E,78.0,4.9,0.0021403874650128,3.4791683430827254,1.36844644023912,103.844516260553,202 ANG MO KIO AVENUE 3 560202,clinic
28,28,DA Clinic @ Bishan 501 BISHAN STREET 11,ChIJpfXbtScX2jERw2Y4yudtEzY,42.0,2.8,0.0011525163273146,3.47534144952111,1.34841689766538,103.84907733333,501 BISHAN STREET 11 570501,clinic
29,29,1 Medical Teck Ghee 410 ANG MO KIO AVENUE 10,ChIJq6qaFB0X2jERVTzJfaiFLfw,45.0,4.4,0.0012348389221228,3.47726153178693,1.36271541943285,103.854644986918,410 ANG MO KIO AVENUE 10 560410,clinic
30,30,115 EASTPOINT CLINIC & SURGERY 115 BEDOK NORTH RD,ChIJjbl970k92jERbh5JJVoKOiw,2.0,3.0,5.488172987212557e-05,3.476094559328096,1.33143367986449,103.936865404289,115 BEDOK NORTH RD 460115,clinic
31,31,18 CLINIC 101 TOWNER ROAD,ChIJqe-U-tAZ2jERwNJp4nC6404,30.0,4.5,0.0008232259480818,3.476963573671152,1.31942539044681,103.861087462865,101 TOWNER ROAD 322101,clinic
32,32,"1Aesthetics, Medical & Surgery 8 EU TONG SEN STREET",ChIJZd4jpA8Q2jERT8WCj_4q9XA,123.0,4.9,0.0033752263871357,3.480926604675545,1.28895619965092,103.84679624319,8 EU TONG SEN STREET 059818,clinic
33,33,338 FAMILY CLINIC 338 ANG MO KIO AVE 1,ChIJB-1u2OEW2jER2xZn40-GUTs,17.0,3.9,0.000466494703913,3.4763184271085468,1.3638957019431,103.848986957423,338 ANG MO KIO AVE 1 560338,clinic
34,34,57 Medical Clinic (Geylang Bahru) 57 GEYLANG BAHRU,ChIJqx_qA_QZ2jERa0_o1ufgJhM,18.0,4.8,0.0004939355688491,3.4767746007354154,1.3235378064709,103.869147756879,57 GEYLANG BAHRU 330057,clinic
35,35,81 FAMILY CLINIC 86 MARINE PARADE CENTRAL,ChIJayfd33MY2jER7S2OSspi-og,41.0,4.2,0.0011250754623785,3.4769351085049647,1.30173721640039,103.906754510622,86 MARINE PARADE CENTRAL 440086,clinic
36,36,888 PLAZA FAMILY CLINIC 888 WOODLANDS DRIVE 50,ChIJQSkW_qAT2jERMkEGlR_I3OM,61.0,2.3,0.0016738927610998,3.4741519897465785,1.43712301469225,103.79531438351,888 WOODLANDS DRIVE 50 730888,clinic
37,37,A & A Clinic 570B WOODLANDS AVENUE 1,ChIJS6iqxqQT2jERevi6xwNmkYs,30.0,1.9,0.0008232259480818,3.474823186206139,1.43106395467045,103.79045407864,570B WOODLANDS AVENUE 1 732570,clinic
38,38,A LIFE CLINIC PTE LTD 10 SINARAN DRIVE,ChIJv-s_XecZ2jERZhWQEVvShX8,5.0,4.2,0.0001372043246803,3.4762200090270983,1.3207051098625,103.844160709873,10 SINARAN DRIVE 307506,clinic
39,39,A MEDICAL CLINIC 1 EVERTON PARK,ChIJhx9BYC0Z2jERGf6RH1XR96w,38.0,4.5,0.0010427528675703,3.4771883427420804,1.27742654256439,103.840001188467,1 EVERTON PARK 081001,clinic
40,40,A+FFORDABLE CLINIC (AMK AVE 10) 449 ANG MO KIO AVENUE 10,ChIJF3XUsOwX2jEROmRs9hbhFvk,5.0,4.0,0.0001372043246803,3.4761925681621624,1.36785888235033,103.856047008296,449 ANG MO KIO AVENUE 10 560449,clinic
41,41,A+FFORDABLE CLINIC (HOUGANG) 681 HOUGANG AVENUE 8,ChIJrwvUueYX2jERtiXiYCt8DW8,0.0,0.0,0.0,3.4761206896551724,1.37297840263115,103.885679159796,681 HOUGANG AVENUE 8 530681,clinic
42,42,A1 Medical Clinic 418 BEDOK NORTH AVENUE 2,ChIJEX20Y3s92jERNK5KRZhRZiQ,43.0,5.0,0.0011799571922506,3.477918802007536,1.32856421162809,103.930036524412,418 BEDOK NORTH AVENUE 2 460418,clinic
43,43,ABLE MEDICAL 201D TAMPINES STREET 21,ChIJbxR9GBs92jERviMbkz5BZKE,28.0,3.8,0.0007683442182097,3.4763695404506736,1.35226231434834,103.953586491461,201D TAMPINES STREET 21 524201,clinic
44,44,ACMS MEDICAL CLINIC 1 GRANGE ROAD,ChIJNUA7F5EZ2jEReRcnEx5pq68,14.0,3.9,0.0003841721091048,3.476283532263833,1.30139878843175,103.837359153263,1 GRANGE ROAD 239693,clinic
45,45,ACUMED MEDICAL GROUP 16 COLLYER QUAY,ChIJK5DQPWQZ2jERV9bB1KLc23s,12.0,3.3,0.0003292903792327,3.476062694806485,1.28418785545188,103.852547365584,16 COLLYER QUAY 049318,clinic
46,46,ACUMED MEDICAL GROUP 1 JURONG WEST CENTRAL 2,ChIJmRnrx-wP2jERwiEreLONpqU,28.0,3.1,0.0007683442182097,3.475831699497927,1.33945271688955,103.706685012636,1 JURONG WEST CENTRAL 2 648886,clinic
47,47,ACUMED MEDICAL GROUP 38 TEBAN GARDENS ROAD,ChIJ7al2zKUa2jER23XNvaMbc1g,14.0,2.6,0.0003841721091048,3.475784108521997,1.32113896653504,103.742787643586,38 TEBAN GARDENS ROAD 600038,clinic
48,48,ACUMED MEDICAL GROUP 111 WOODLANDS STREET 13,ChIJGVn5vVIS2jERE8Uxk5gOO34,13.0,2.2,0.0003567312441688,3.475665457533842,1.43794381737826,103.782059433299,111 WOODLANDS STREET 13 730111,clinic
49,49,ACUMED MEDICAL GROUP 64 YUNG KUANG ROAD,ChIJJxLa-vsP2jERNKhcxWlQjuQ,27.0,3.0,0.0007409033532736,3.475767930239644,1.33237347600046,103.722451247982,64 YUNG KUANG ROAD 610064,clinic
50,50,ACUMED MEDICAL GROUP 71 PIONEER ROAD,ChIJTcHyPMgF2jERHQXIRylpt1w,5.0,3.4,0.0001372043246803,3.4761102455673543,1.31715448633568,103.652226413178,71 PIONEER ROAD 639591,clinic
51,51,ACUMED MEDICAL GROUP 14 TUAS AVENUE 1,ChIJgZoTymQF2jERLS3n0vVuLME,0.0,0.0,0.0,3.4761206896551724,1.32148166492796,103.66095280564,14 TUAS AVENUE 1 639499,clinic
52,52,ADIDAH FAMILY CLINIC & SURGERY 821 TAMPINES ST 81,ChIJGyKGd2s92jERkONG-pVSU80,2.0,3.5,5.488172987212557e-05,3.4761220001930324,1.34841976695403,103.934649103244,821 TAMPINES ST 81 520821,clinic
53,53,ADMIRALTY FAMILY MEDICAL CLINIC 693 WOODLANDS AVENUE 6,ChIJg_ysn3UT2jERMC40IofSfkc,30.0,3.2,0.0008232259480818,3.4758933799386456,1.43808788035983,103.80376495913,693 WOODLANDS AVENUE 6 730693,clinic
54,54,ADVANCE CLINIC & SURGERY PTE LTD 301 UBI AVE 1,ChIJV3uiq_AX2jERfKRJBRcWfPM,29.0,1.9,0.0007957850831458,3.4748664363211077,1.33068802483318,103.901953041118,301 UBI AVE 1 400301,clinic
55,55,AE Medical Clinic 467B FERNVALE LINK,ChIJISx5uHkW2jERnskNoJPMos4,23.0,4.6,0.0006311398935294,3.4768300147234434,1.39807105477126,103.877933381804,467B FERNVALE LINK 792467,clinic
56,56,AIDAN MEDICAL CLINIC 539 BEDOK NORTH STREET 3,ChIJBWrIOb892jER_PRa6ViCneU,9.0,5.0,0.0002469677844245,3.4764970387521785,1.33131386611754,103.925307290309,539 BEDOK NORTH STREET 3 460539,clinic
57,57,ALEXANDRA FAMILY CLINIC & SURGERY 57 DAWSON ROAD,ChIJiZI9ky0a2jERijIarTug2xQ,25.0,4.1,0.0006860216234015,3.476548684352462,1.29270339832463,103.810958956801,57 DAWSON ROAD 142057,clinic
58,58,ALLIANCE CLINIC AND PARTNERS PTE LTD 652 JALAN TENAGA,ChIJUe4FkPsX2jERS3QgBmQFl30,14.0,2.2,0.0003841721091048,3.4756304396783557,1.33269651937702,103.907742997146,652 JALAN TENAGA 410652,clinic
59,59,AMDA International Peace Clinic 9 TAMAN SERASI,ChIJsw56sY0Z2jERqbzoUzA3Gko,28.0,3.7,0.0007683442182097,3.4762927060288527,1.30847204130269,103.819135632329,9 TAMAN SERASI 257720,clinic
60,60,AMITY MEDICAL CLINIC & DENTAL SURGERY 371 BT BATOK ST 31,ChIJIff4EjYQ2jERS8qhFrCZ69A,11.0,3.9,0.0003018495142966,3.4762486374191206,1.35925940880518,103.75069463099,371 BT BATOK ST 31 650371,clinic
61,61,AMK FAMILY CLINIC PTE LTD 51 ANG MO KIO AVE 3,ChIJFx0aKOcW2jERMjq2KwXy4Ew,36.0,3.2,0.0009878711376982,3.475847917995341,1.36929729659109,103.847159445411,51 ANG MO KIO AVE 3 569922,clinic
62,62,AMPM FAMILY CLINIC & SURGERY PTE. LTD. 123 TOA PAYOH LOR 1,ChIJw6kAz2kX2jERB-DqHg6P0DA,13.0,3.9,0.0003567312441688,3.4762719006489293,1.33864901778038,103.845703844549,123 TOA PAYOH LOR 1 310123,clinic
63,63,ANG MO KIO MEDICAL CENTRE 157 ANG MO KIO AVE 4,ChIJK7WoYsMW2jERMjz_9P49dwU,65.0,4.9,0.001783656220844,3.4786604008448,1.37530562129984,103.839395071325,157 ANG MO KIO AVE 4 560157,clinic
64,64,ANSARI FAMILY CLINIC & SURGERY 78 LORONG  25A GEYLANG ROAD,ChIJAQAAMDsY2jEReidYKQRLoU4,63.0,2.7,0.0017287744909719,3.4747789520049808,1.31592240672591,103.883338697356,78 LORONG  25A GEYLANG ROAD 388259,clinic
65,65,APEX CLINIC & SURGERY 844 YISHUN ST 81,ChIJXUTTjhEU2jERQha4BXoGirM,9.0,4.2,0.0002469677844245,3.4762994645246392,1.41562517359593,103.835446503405,844 YISHUN ST 81 760844,clinic
66,66,APEX CLINIC & SURGERY 306 WOODLANDS ST 31,ChIJ____p1IS2jERFTqHJaIA9AY,19.0,4.4,0.0005213764337851,3.476602378555248,1.42992991950792,103.774636554647,306 WOODLANDS ST 31 730306,clinic
67,67,APEX MEDICAL CENTRE (JURONG) PTE LTD 960 JURONG WEST ST 92,ChIJRz0LZJkP2jERN4tYjdD88WQ,16.0,3.8,0.000439053838977,3.4762628901097448,1.34138531152671,103.691459639169,960 JURONG WEST ST 92 640960,clinic
68,68,AR-Raudhah Medical Clinic and Surgery Pte Ltd 372 BUKIT BATOK STREET 31,ChIJWSwxFzYQ2jERcDY_nn7DVyo,23.0,4.4,0.0006311398935294,3.476703786744737,1.35866916669751,103.751213742333,372 BUKIT BATOK STREET 31 650372,clinic
69,69,ARCADIA CLINIC 2 PANDAN VALLEY,ChIJabmqUXwa2jERBUii-vz1R3o,20.0,4.5,0.0005488172987212,3.4766826123324925,1.32044171174532,103.778972458718,2 PANDAN VALLEY 597626,clinic
70,70,ASIAMEDIC WELLNESS ASSESSMENT CENTRE 350 ORCHARD ROAD,ChIJjWaJoI0Z2jER9M2tbuCAZWE,100.0,4.0,0.0027440864936062,3.477558259794969,1.30580981572661,103.831507365278,350 ORCHARD ROAD 238868,clinic
71,71,ASPEN CLINIC 283 BISHAN STREET 22,ChIJIUkbqhgX2jERuGi1fXJQeY0,35.0,2.3,0.0009604302727621,3.4749911077404056,1.35891907140489,103.844748631654,283 BISHAN STREET 22 570283,clinic
72,72,ASSOCIATE DISPENSARIES 94 TOA PAYOH LOR 4,ChIJaRJhO2kX2jERd-V_K1jNask,1.0,2.0,2.7440864936062783e-05,3.4760801836266983,1.33889442806175,103.849538318462,94 TOA PAYOH LOR 4 310094,clinic
73,73,ASSURANCE MEDICARE CLINIC AND SURGERY 370 TANJONG KATONG ROAD,ChIJ1wNt_msY2jERAInNTyZp7tM,23.0,3.3,0.0006311398935294,3.476009532861855,1.30288819409101,103.896729088429,370 TANJONG KATONG ROAD 437127,clinic
74,74,ATLAS PACIFIC MEDICAL 428 RIVER VALLEY ROAD,ChIJRTjcHIQZ2jERIlUMIvhyh-s,30.0,4.6,0.0008232259480818,3.4770458962659605,1.29446098576164,103.827620903348,428 RIVER VALLEY ROAD 248327,clinic
75,75,ATRIO FAMILY CLINIC (AMK) PTE. LTD. 532 ANG MO KIO AVENUE 10,ChIJGTczjO8W2jERGYJW3OLmQyM,26.0,3.9,0.0007134624883376,3.476423111642686,1.37380851529933,103.854594160953,532 ANG MO KIO AVENUE 10 560532,clinic
76,76,Acacia Medical Clinic 180 DEPOT ROAD,ChIJgQkh3Mgb2jER4JyUIHj648k,19.0,4.3,0.0005213764337851,3.476550240911869,1.28220135432784,103.803023755955,180 DEPOT ROAD 109684,clinic
77,77,AcuMed Medical Group 301 BOON LAY WAY,ChIJr-kR6OwP2jERrIaMsBlNn1c,18.0,3.0,0.0004939355688491,3.475885516711487,1.33845148863534,103.70592708661,301 BOON LAY WAY 649846,clinic
78,78,AcuMed Medical Group 214 Bedok North Street 1,ChIJ0Q7xSks92jERemmbPKn_zg4,33.0,2.8,0.00090554854289,3.475508429549837,1.32587565153874,103.932493034946,214 Bedok North Street 1 460214,clinic
79,79,AcuMed Medical Group 215C COMPASSVALE DRIVE,ChIJD7Qe4RIW2jERd9xUCvcdy8s,20.0,4.6,0.0005488172987212,3.4767374940623648,1.38977026270373,103.892787161386,215C COMPASSVALE DRIVE 543215,clinic
80,80,Acumed Medical Group 1 JOO KOON CIRCLE,ChIJ9e3t90sF2jERFcR33s3hrac,8.0,2.5,0.0002195269194885,3.4759064048871235,1.32561767794228,103.678409741881,1 JOO KOON CIRCLE 629117,clinic
81,81,Acumed Medical Group 128 TUAS SOUTH AVENUE 3,ChIJq6rqvIcG2jERWygyIZVET-I,3.0,2.3,8.232259480818836e-05,3.4760238683481925,1.28909462597839,103.626524577792,128 TUAS SOUTH AVENUE 3 637370,clinic
82,82,Affinity Medical Clinic 253 SERANGOON CENTRAL DRIVE,ChIJS-ujxkEX2jERgu9clfcvaKQ,21.0,3.1,0.0005762581636573,3.4759039470372377,1.35403939788243,103.870851534198,253 SERANGOON CENTRAL DRIVE 550253,clinic
83,83,"Allergy, Arthritis & Rheumatism Clinic 1 FARRER PARK STATION ROAD",ChIJr57ad8YZ2jERAvlKobHmC5E,1.0,1.0,2.7440864936062783e-05,3.476052742761762,1.31247324146379,103.853929522028,1 FARRER PARK STATION ROAD 217562,clinic
84,84,Allhealth Family Clinic 872C TAMPINES STREET 86,ChIJM2cQ93E92jERJa1cc6yHujY,26.0,4.2,0.0007134624883376,3.476637150389187,1.35524290247104,103.931623628634,872C TAMPINES STREET 86 523872,clinic
85,85,Ally Health 46-2 COMMONWEALTH DRIVE,ChIJYz9rMcsb2jERshO2J5ihWuc,0.0,0.0,0.0,3.4761206896551724,1.29996199426431,103.798227586733,46-2 COMMONWEALTH DRIVE 140462,clinic
86,86,Ang Mo Kio Family Medicine Clinic 4190 ANG MO KIO AVENUE 6,ChIJ7VF9MeYW2jER6G15kLhhCfA,17.0,2.7,0.000466494703913,3.475758633463851,1.37193728999032,103.845949440183,4190 ANG MO KIO AVENUE 6 569841,clinic
87,87,Anteh Dispensary Pte Ltd 1 LORONG 22 GEYLANG,ChIJMVM176MZ2jERIOwtili8GAc,1.0,5.0,2.7440864936062783e-05,3.4761625062215065,1.31277604579897,103.882455638548,1 LORONG 22 GEYLANG 398664,clinic
88,88,Apollo Medical Centre 668 CHANDER ROAD,ChIJP3_cqbgZ2jERvqll4jbwJf8,46.0,1.7,0.0012622797870588,3.473878728409244,1.30758123998287,103.851478219833,668 CHANDER ROAD 210668,clinic
89,89,Asia HealthPartners 304 ORCHARD ROAD,ChIJVVWVbZIZ2jERRRwybi_KrEY,0.0,0.0,0.0,3.4761206896551724,1.30450610034739,103.833961913411,304 ORCHARD ROAD 238863,clinic
90,90,Atrio Family Clinic 291 YISHUN STREET 22,ChIJ6_kCo2MU2jERSyLbheJS4hU,100.0,3.3,0.0027440864936062,3.475637399249445,1.43576080433402,103.836723874387,291 YISHUN STREET 22 760291,clinic
91,91,B S CHEW CLINIC 252 JURONG EAST ST 24,ChIJdz5jpRkQ2jERIZDw_lP2Ecg,14.0,3.0,0.0003841721091048,3.475937777365639,1.34302644245795,103.738145286322,252 JURONG EAST ST 24 600252,clinic
92,92,B T GOH FAMILY CLINIC & SURGERY 194 KIM KEAT AVE,ChIJQdg5jHwX2jERmDNvZy032Wo,8.0,5.0,0.0002195269194885,3.476455222185845,1.33093933661869,103.858181908966,194 KIM KEAT AVE 310194,clinic
93,93,BALKIS FAMILY CLINIC 631 BEDOK RESERVOIR RD,ChIJnV2g11c92jER5LOYZxRutvs,15.0,3.7,0.0004116129740409,3.47621284128393,1.33295923548327,103.914941831149,631 BEDOK RESERVOIR RD 470631,clinic
94,94,BEDOK  CENTRAL CLINIC 214 BEDOK NORTH STREET 1,ChIJ16j1srQi2jERO6Q9Pix1mJo,15.0,2.5,0.0004116129740409,3.475718905715081,1.32587565153874,103.932493034946,214 BEDOK NORTH STREET 1 460214,clinic
95,95,BEDOK CLINIC & SURGERY(Family Medical Centre) 17 BEDOK SOUTH RD,ChIJEfeDQrYi2jERj5gDp7JpZFs,27.0,1.4,0.0007409033532736,3.4745824848744062,1.32014882956642,103.935563486314,17 BEDOK SOUTH RD 460017,clinic
96,96,BEDOK LIFE CLINIC 123 BEDOK NORTH ST 2,ChIJSxyidko92jERJEbi8VmLaIU,9.0,4.7,0.0002469677844245,3.476422948416851,1.32919868633173,103.937343348132,123 BEDOK NORTH ST 2 460123,clinic
97,97,BEDOK MEDICAL CENTRE 18 BEDOK SOUTH RD,ChIJSeYkiLYi2jERcub6M0_wmH0,10.0,4.0,0.0002744086493606,3.4762644466691524,1.3206250489608,103.934734222327,18 BEDOK SOUTH RD 460018,clinic
98,98,BISHAN GRACE CLINIC 150 BISHAN STREET 11,ChIJRfBZSG0X2jER24iGo_Ng4yM,23.0,4.6,0.0006311398935294,3.4768300147234434,1.34452706925104,103.855213610026,150 BISHAN STREET 11 570150,clinic
99,99,BL MEDICAL ASSOCIATES 2 SCIENCE PARK DRIVE,ChIJd8eLS00a2jERyyMOo3i9s1I,12.0,4.7,0.0003292903792327,3.476523701337411,1.29076149231466,103.784855036241,2 SCIENCE PARK DRIVE 118222,clinic
100,100,BOK FAMILY CLINIC  PTE LTD 117 BEDOK RESERVOIR ROAD,ChIJs0ToB_wX2jERtYGETZwO9ro,23.0,3.2,0.0006311398935294,3.4759464188725024,1.33141324887407,103.908688936297,117 BEDOK RESERVOIR ROAD 470117,clinic
101,101,BOON KENG CLINIC & SURGERY 11 UPPER BOON KENG RD,ChIJxbN--C0Y2jERFzppSWVfxsc,60.0,4.3,0.0016464518961637,3.4774771673079,1.31423937057055,103.870914031071,11 UPPER BOON KENG RD 380011,clinic
102,102,BOON LAY CENTRAL CLINIC 221 BOON LAY PLACE,ChIJPSMAG8IP2jERoLYYiWdY54o,28.0,2.4,0.0007683442182097,3.47529385854518,1.3463481965558,103.712429315355,221 BOON LAY PLACE 640221,clinic
103,103,BOON LAY CLINIC & SURGERY 221 BOON LAY PLACE,ChIJPSMAG8IP2jERoLYYiWdY54o,28.0,2.4,0.0007683442182097,3.47529385854518,1.3463481965558,103.712429315355,221 BOON LAY PLACE 640221,clinic
104,104,BOON LAY CORPORATION CLINIC 350 JURONG EAST AVENUE 1,ChIJYcu2rh8Q2jERnILUbM8iI0s,40.0,3.9,0.0010976345974425,3.4765859542513478,1.34404941870857,103.731255559658,350 JURONG EAST AVENUE 1 600350,clinic
105,105,BOSTON MEDICAL 119 ALJUNIED AVENUE 2,ChIJV29mdiMY2jER93r9W8TufwQ,22.0,2.6,0.0006036990285933,3.475591776445897,1.32012887334325,103.886058091098,119 ALJUNIED AVENUE 2 380119,clinic
106,106,BUKIT BATOK MEDICAL CLINIC 207 BUKIT BATOK ST 21,ChIJd1fgWrgP2jERlap_6Q_lUZI,10.0,1.8,0.0002744086493606,3.4756607476405588,1.3462486617594,103.749382188619,207 BUKIT BATOK ST 21 650207,clinic
107,107,BUKIT TIMAH CLINIC 621A BUKIT TIMAH ROAD,ChIJrUJNYgga2jER6gUTkMIozOI,23.0,2.3,0.0006311398935294,3.475378392968326,1.3245755173538,103.809058595403,621A BUKIT TIMAH ROAD 269731,clinic
108,108,BUKIT TIMAH NAM SANG  CLINIC 80 JLN JURONG KECHIL,ChIJA7waJWIQ2jERnFzqfDqnc8E,16.0,4.5,0.000439053838977,3.4765702277970285,1.34055525010784,103.773237589356,80 JLN JURONG KECHIL 598591,clinic
109,109,Banyan Clinic Pte Ltd. 768 Woodlands Avenue 6,ChIJgxzhp9wP2jERmgXuBkjyTEs,31.0,3.2,0.0008506668130179,3.4758858029480955,1.44562290748789,103.798140993881,768 Woodlands Avenue 6 730768,clinic
110,110,Beo Crescent Clinic & Surgery 40 Beo Crescent,ChIJtXrCqngZ2jERAyEqSpY-QLk,12.0,4.3,0.0003292903792327,3.476391985185718,1.28905789113721,103.827513018591,40 Beo Crescent 160040,clinic
111,111,Bethesda Medical Centre 3 TEMASEK BOULEVARD,ChIJ20X__K4Z2jERUiVVBmiKTtY,75.0,3.1,0.0020580648702047,3.475346608876836,1.29593189474123,103.859014406987,3 TEMASEK BOULEVARD 038983,clinic
112,112,Bless Medical Centre Pte Ltd 221 BOON LAY PLACE,ChIJE6IhD8IP2jERAiMiDYC3a84,27.0,2.9,0.0007409033532736,3.4756938399043165,1.3463481965558,103.712429315355,221 BOON LAY PLACE 640221,clinic
113,113,Braddell Family Clinic 124 LORONG 1 TOA PAYOH,ChIJI0IR8asX2jERbDRs90SsbXg,28.0,3.9,0.0007683442182097,3.4764463748724945,1.33864876707252,103.844627301844,124 LORONG 1 TOA PAYOH 310124,clinic
114,114,C & K FAMILY CLINIC PTE LTD 108 UPPER EAST COAST ROAD,ChIJNwhUn7si2jERM32UoBYD7Hk,52.0,2.3,0.0014269249766752,3.4744424536675185,1.31316934216382,103.92930519829,108 UPPER EAST COAST ROAD 455297,clinic
115,115,C H TAN MEDICAL CLINIC & DENTAL SURGERY 177 BT BATOK WEST AVE 8,ChIJ2X_mXD0Q2jERuQ5PDO6gVkw,7.0,3.9,0.0001920860545524,3.476202110959503,1.34634407478636,103.741742087355,177 BT BATOK WEST AVE 8 650177,clinic
116,116,C K TAN FAMILY CLINIC & SURGERY PTE LTD 125 TOA PAYOH LOR 1,ChIJ-82F0mkX2jER9G5fzoJbi54,9.0,4.1,0.0002469677844245,3.4762747677461965,1.33833133425818,103.845737117486,125 TOA PAYOH LOR 1 310125,clinic
117,117,C Y KOK CLINIC & SURGERY 157 ANG MO KIO AVE 4,ChIJyWk5cMMW2jERRHngLdnc1nM,5.0,3.4,0.0001372043246803,3.4761102455673543,1.37530562129984,103.839395071325,157 ANG MO KIO AVE 4 560157,clinic
118,118,C.M.C. WONG BINJAI CLINIC 15 BINJAI PARK,ChIJ_0ajAZAQ2jERllB71XTa6xg,8.0,4.5,0.0002195269194885,3.4763454587261005,1.33622384171884,103.786854059334,15 BINJAI PARK 589824,clinic
119,119,C3 Family Clinic @Aljunied Crescent 95 ALJUNIED CRESCENT,ChIJSQXO3yMY2jERtqShKe4-fVE,32.0,2.5,0.000878107677954,3.475263550582976,1.32170328990751,103.886195689055,95 ALJUNIED CRESCENT 380095,clinic
120,120,CARE MEDICAL PTE LTD 683 HOUGANG AVE 8,ChIJ-2X3HEYW2jERoMErWUKMWn8,16.0,3.6,0.000439053838977,3.476175079341949,1.37331270083797,103.886367847372,683 HOUGANG AVE 8 530683,clinic
121,121,CARITAS CLINIC 304 UBI AVE 1,ChIJjVbAa_cX2jERr5pYjDnNC-M,16.0,3.7,0.000439053838977,3.476218984725847,1.32955256814021,103.901228610039,304 UBI AVE 1 400304,clinic
122,122,CASHEW MEDICAL & SURGERY 445 FAJAR RD,ChIJY4ZiXJ8R2jERMKVZ8peyTAs,54.0,1.7,0.0014818067065473,3.473488822105604,1.38358044593591,103.77076830515,445 FAJAR RD 670445,clinic
123,123,CASSIA CLINIC & SURGERY 34 CASSIA CRESCENT,ChIJGQC12zgY2jERDbgb_KT33yQ,14.0,4.2,0.0003841721091048,3.476398783896565,1.30964078460585,103.884471780069,34 CASSIA CRESCENT 390034,clinic
124,124,CCK FAMILY CLINIC 304 CHOA CHU KANG AVE 4,ChIJn0X2M-gR2jERiNAg08R15TM,65.0,2.3,0.001783656220844,3.4740228946706053,1.38449608058333,103.743145847094,304 CHOA CHU KANG AVE 4 680304,clinic
125,125,CECILIA FAMILY CLINIC & SURGERY 484 TAMPINES ST 43,ChIJ8aqNDgc92jER64eJ7Mlf5Bs,14.0,2.0,0.0003841721091048,3.4755536052565343,1.36189785903603,103.952639447158,484 TAMPINES ST 43 520484,clinic
126,126,CENTRAL 24-HR CLINIC (BEDOK) 219 BEDOK CENTRAL,ChIJR3VqvrQi2jERPJKJUjZmKFY,213.0,1.4,0.0058449042313813,3.4639859630513485,1.32496457671995,103.932948087726,219 BEDOK CENTRAL 460219,clinic
127,127,CENTRAL 24-HR CLINIC (CLEMENTI) 450 Clementi Ave 3,ChIJLRgm1I0a2jER056txf2zC6o,157.0,1.4,0.0043082157949618,3.4671763137077525,1.31353886094619,103.765476305113,450 Clementi Ave 3 120450,clinic
128,128,CENTRAL 24-HR CLINIC (HOUGANG) 681 HOUGANG AVE 8,ChIJQ0p_ukgW2jER1q8Ez8G1izo,196.0,1.5,0.0053784095274683,3.465492303310504,1.37297840263115,103.885679159796,681 HOUGANG AVE 8 530681,clinic
129,129,CENTRAL 24-HR CLINIC (MARSILING) 303 WOODLANDS STREET 31,ChIJhWwGI6sT2jERYstIFBYYQGk,31.0,2.2,0.0008506668130179,3.475035136135077,1.43079961597954,103.774011078502,303 WOODLANDS STREET 31 730303,clinic
130,130,CENTRAL 24-HR CLINIC (PASIR RIS) 446 PASIR RIS DRIVE 6,ChIJ_68zTaw92jER1Lb0MkEeiFg,162.0,1.3,0.0044454201196421,3.4664469189586096,1.37030619330386,103.957726864829,446 PASIR RIS DRIVE 6 510446,clinic
131,131,CENTRAL 24-HR CLINIC (TAMPINES) 201D TAMPINES STREET 21,ChIJke0HpbM92jER7VTM5zGqOpg,63.0,1.4,0.0017287744909719,3.472531545166717,1.35226231434834,103.953586491461,201D TAMPINES STREET 21 524201,clinic
132,132,CENTRAL 24-HR CLINIC (WOODLANDS) 768 WOODLANDS AVENUE 6,ChIJRws40gwT2jER3cH0xLGxgnM,133.0,1.4,0.0036496350364963,3.4685436068462114,1.44562290748789,103.798140993881,768 WOODLANDS AVENUE 6 730768,clinic
133,133,CENTRAL 24-HR CLINIC (YISHUN) 701A YISHUN AVE 5,ChIJcxcJBnoU2jEROypHKYD1l54,189.0,1.3,0.0051863234729158,3.464834623842516,1.4298784547931,103.827943218947,701A YISHUN AVE 5 761701,clinic
134,134,CENTRAL MEDICAL GROUP PTE LTD 11 JALAN BUKIT MERAH,ChIJx06ons0b2jERIY-nOpik78s,10.0,4.6,0.0002744086493606,3.4764290918587686,1.28662190371744,103.808963346658,11 JALAN BUKIT MERAH 150011,clinic
135,135,CHAI CHEE CLINIC & SURGERY 25A CHAI CHEE RD,ChIJbUKMpK0i2jERbQxO_YMzlRk,11.0,4.4,0.0003018495142966,3.476399562176269,1.32328959901597,103.924149637094,25A CHAI CHEE RD 461025,clinic
136,136,CHAN FAMILY CLINIC 865 MOUNTBATTEN ROAD,ChIJeeTQwG0Y2jERqwgkGUOlJ4g,30.0,5.0,0.0008232259480818,3.477375186645193,1.30409731167599,103.901515916912,865 MOUNTBATTEN ROAD 437844,clinic
137,137,CHANG CLINIC 1 JLN ANAK BUKIT,ChIJf05zA4kQ2jEREDmCJdXa5tQ,13.0,3.2,0.0003567312441688,3.476022188778011,1.3387593077272,103.77860007818,1 JLN ANAK BUKIT 588996,clinic
138,138,CHANG CLINIC & SURGERY 7 EVERTON PARK,ChIJtwBAKWwZ2jERWddJ0m-zkV8,8.0,4.4,0.0002195269194885,3.476323506034152,1.27692435181046,103.838679504053,7 EVERTON PARK 080007,clinic
139,139,CHARIS CLINIC & SURGERY 164 TAMPINES ST 12,ChIJIRHhKxE92jERKeN_-mVXd4k,33.0,2.6,0.00090554854289,3.4753273198412598,1.3496215147162,103.9460006915,164 TAMPINES ST 12 521164,clinic
140,140,GOH CLINIC + SURGERY 283 BT BATOK EAST AVE 3,ChIJH1-UjkEQ2jERi3lUpAYxgyA,8.0,4.4,0.0002195269194885,3.476323506034152,1.34694365739119,103.757539380941,283 BT BATOK EAST AVE 3 650283,clinic
141,141,GOODDOCTORS MEDICAL CLINIC 18 YISHUN AVENUE 9,ChIJf36Oz18U2jERi0DZxsUs3zY,61.0,3.0,0.0016738927610998,3.4753237146793485,1.43312284024159,103.841660985807,18 YISHUN AVENUE 9 768897,clinic
142,142,GRACE CLINIC & SURGERY 607 ANG MO KIO AVE 4,ChIJJa1wKscW2jER-st3PZkn8rs,3.0,3.3,8.232259480818836e-05,3.4761061909430007,1.38046758627437,103.838816721495,607 ANG MO KIO AVE 4 560607,clinic
143,143,GREAT HEALTH MEDICAL CLINIC 407 ANG MO KIO AVENUE 10,ChIJQyFYIR0X2jERuZxoGhFBQnk,2.0,2.5,5.488172987212557e-05,3.47606711846316,1.36191347168144,103.855247666969,407 ANG MO KIO AVENUE 10 560407,clinic
144,144,GREEN CROSS MEDICAL CENTRE 824 TAMPINES ST 81,ChIJk4_P8Gs92jERfGEfxIh3xEU,41.0,2.9,0.0011250754623785,3.4754725104038724,1.34903743492173,103.932714940567,824 TAMPINES ST 81 520824,clinic
145,145,GREENLIFE CLINIC & SURGERY 11 CANBERRA RD,ChIJDQGkyWIT2jEREKKK8nD13ZY,30.0,1.8,0.0008232259480818,3.474740863611331,1.44902668521597,103.820139486431,11 CANBERRA RD 759775,clinic
146,146,GREENLIFE CLINIC & SURGERY 624 CHOA CHU KANG STREET 62,ChIJc4d59vMR2jEReE-z3Zk92Uc,32.0,2.6,0.000878107677954,3.4753513613507714,1.3980473611046,103.747084778715,624 CHOA CHU KANG STREET 62 680624,clinic
147,147,GREENLINK MEDICAL CLINIC 807 YISHUN RING ROAD,ChIJVVVVxQ0U2jER1q6BiTBnLRM,32.0,4.1,0.000878107677954,3.4766685228677026,1.41649875780089,103.831578419639,807 YISHUN RING ROAD 760807,clinic
148,148,GSH CLINIC & SURGERY PTE. LTD. 9 YIO CHU KANG ROAD,ChIJme01uXM92jERwQWje3FIh5g,33.0,4.5,0.00090554854289,3.4770478620727507,1.35466521856974,103.876883622707,9 YIO CHU KANG ROAD 545523,clinic
149,149,Gerrard Teoh Hematology & Medical Clinic 10 SINARAN DRIVE,ChIJBQ8UXecZ2jER6gOnWC-8bxI,1.0,5.0,2.7440864936062783e-05,3.4761625062215065,1.3207051098625,103.844160709873,10 SINARAN DRIVE 307506,clinic
150,150,GreenForest Family Clinic 878C TAMPINES AVENUE 8,ChIJ-wW75m492jERt1pErqs2CnM,17.0,3.9,0.000466494703913,3.4763184271085468,1.35126411242426,103.929363834353,878C TAMPINES AVENUE 8 523878,clinic
151,151,H S LEE CLINIC & SURGERY 173 YISHUN AVE 7,ChIJAatkBX0U2jERqc74-cTfG4E,29.0,2.1,0.0007957850831458,3.4750255933377368,1.43706628201915,103.831120689791,173 YISHUN AVE 7 760173,clinic
152,152,HARMONY FAMILY CLINIC 235 CHOA CHU KANG CENTRAL,ChIJyYdlIsER2jERl8vViHlgtCo,28.0,4.4,0.0007683442182097,3.4768305469816,1.3797566438487,103.748749195678,235 CHOA CHU KANG CENTRAL 680235,clinic
153,153,HAVELOCK FAMILY CLINIC 22 HAVELOCK RD,ChIJK4tkpngZ2jERDvG_hgoRiD8,12.0,4.0,0.0003292903792327,3.4762931980719483,1.28874603715013,103.828824191963,22 HAVELOCK RD 160022,clinic
154,154,HEAL MEDICAL CENTRE 262 BALESTIER ROAD,ChIJUUoTedkZ2jERfZ6st775wmE,3.0,5.0,8.232259480818836e-05,3.4762461393541746,1.32213342793662,103.85319966194,262 BALESTIER ROAD 329714,clinic
155,155,HEALTH PARTNERS FAMILY CLINIC 1 BT BATOK CENTRAL LINK,ChIJLYx42D4Q2jERRhaDW13d9_g,37.0,2.9,0.0010153120026343,3.475535747404,1.35001920966652,103.749244800522,1 BT BATOK CENTRAL LINK 658713,clinic
156,156,HEALTH PARTNERS MEDICAL CLINIC 100 Cecil Street,ChIJP5oL1g0Z2jERhyBQDar1KFA,53.0,4.8,0.0014543658416113,3.478046094502554,1.28113563498683,103.848958253576,100 Cecil Street 069532,clinic
157,157,HEALTH PARTNERS MEDICAL CLINIC (SIGLAP) 23 UPPER EAST COAST ROAD,ChIJ42lgSrsi2jERpRQg0MzCeo8,25.0,4.2,0.0006860216234015,3.476617286514802,1.31312677933466,103.926329604059,23 UPPER EAST COAST ROAD 455289,clinic
158,158,HEALTH PARTNERSHIP MEDICAL CENTRE 109 BUKIT PURMEI RD,ChIJvTWlEmEZ2jERSDFiv30DTCo,10.0,3.2,0.0002744086493606,3.4760449197496635,1.27392939913176,103.825310761058,109 BUKIT PURMEI RD 090109,clinic
159,159,HEALTHBRIDGE FAMILY CLINIC 615A EDGEFIELD PLAINS,ChIJMZ-JLQUW2jERi2DbJ-2qBxM,29.0,4.1,0.0007957850831458,3.476617163504028,1.40386056418231,103.909541012266,615A EDGEFIELD PLAINS 821615,clinic
160,160,HEALTHCARE FAMILY CLINIC & SURGERY 403 SIN MING AVE,ChIJfVXDNCkX2jEReqJKcSibVj4,19.0,2.2,0.0005213764337851,3.47545535040092,1.36287032246814,103.833604034065,403 SIN MING AVE 570403,clinic
161,161,HEALTHCARE MEDICAL @ Kovan 208 HOUGANG STREET 21,ChIJkcdBszsX2jERZuQKfJLqths,72.0,4.8,0.0019757422753965,3.4787363339761432,1.35869679921108,103.886636110951,208 HOUGANG STREET 21 530208,clinic
162,162,"HEALTHCARE MEDICAL @ RAILMALL 446 UPPER BUKIT TIMAH ROAD,",ChIJAS7MY1EQ2jERczZBT9VLEbU,29.0,3.0,0.0007957850831458,3.475741799912568,1.35960982893863,103.767604074877,"446 UPPER BUKIT TIMAH ROAD, 678067",clinic
163,163,HEALTHIFY MEDICAL FAMILY CLINIC 262 BALESTIER ROAD,ChIJiw7rQ0cZ2jERaJjgKYvkFvM,61.0,4.8,0.0016738927610998,3.4783367216493284,1.32213342793662,103.85319966194,262 BALESTIER ROAD 329714,clinic
164,164,HEALTHLINE FAMILY CLINIC & SURGERY PTE. LTD. 25A CHAI CHEE ROAD,ChIJA6IDpK0i2jERpN5rqGB2Xbw,28.0,2.7,0.0007683442182097,3.475524361810643,1.32328959901597,103.924149637094,25A CHAI CHEE ROAD 461025,clinic
165,165,HEALTHLINK (AMK) MEDICAL CENTRE 108 ANG MO KIO AVE 4,ChIJ-xEEg9sW2jERUSS5iWPq4yE,21.0,4.1,0.0005762581636573,3.476480205200895,1.37096635229769,103.838201939907,108 ANG MO KIO AVE 4 560108,clinic
166,166,HEALTHLINK FAMILY CLINIC & SURGERY 21 GHIM MOH ROAD,ChIJ69fT8Gga2jER3kUMC5lAEDw,11.0,4.6,0.0003018495142966,3.4764599320791283,1.31010302628844,103.788545950367,21 GHIM MOH ROAD 270021,clinic
167,167,EVERHEALTH MEDICAL CENTRE 540 HOUGANG AVENUE 8,ChIJ6cRSVT8W2jER4YI85huuCEY,3.0,3.7,8.232259480818836e-05,3.476139119980924,1.37781568096983,103.891282466742,540 HOUGANG AVENUE 8 530540,clinic
168,168,EVERTON CLINIC 7 EVERTON PARK,ChIJtwBAKWwZ2jERKcGs1sxhUP0,19.0,4.0,0.0005213764337851,3.4763938279817337,1.27692435181046,103.838679504053,7 EVERTON PARK 080007,clinic
169,169,EVERWELL CLINIC & SURGERY 45 OWEN RD,ChIJvcJKnMQZ2jERlZZcYP_IBrc,21.0,4.9,0.0005762581636573,3.476941211731821,1.31559567557441,103.850825476113,45 OWEN RD 210045,clinic
170,170,EXCEL FAMILY CLINIC 21 HOUGANG ST 51,ChIJi19V_UAW2jERyv3C6taqb9M,184.0,4.9,0.0050491191482355,3.4833100259458107,1.37924529078289,103.88783201701,21 HOUGANG ST 51 538719,clinic
171,171,EXCELSIOR CLINIC & SURGERY 283 BT BATOK EAST AVE 3,ChIJH1-UjkEQ2jERVZ-ysCPy-yE,15.0,4.1,0.0004116129740409,3.476377486473546,1.34694365739119,103.757539380941,283 BT BATOK EAST AVE 3 650283,clinic
172,172,Edgedale Medical Clinic (Cambridge) 40 CAMBRIDGE ROAD,ChIJSSqZdcIZ2jER4KmIConCICI,5.0,5.0,0.0001372043246803,3.4763297724868427,1.3159930169211,103.848243054151,40 CAMBRIDGE ROAD 210040,clinic
173,173,Elissa Medical Clinic 1 HOUGANG STREET 91,ChIJ-Zf4444X2jERRHI5-B5we8g,33.0,3.2,0.00090554854289,3.475870648966993,1.37571530662888,103.879472338027,1 HOUGANG STREET 91 538692,clinic
174,174,Elyon Family Clinic And Surgery 78B TELOK BLANGAH STREET 32,ChIJWXDXEMMb2jERE15zq5Ma0L0,62.0,4.2,0.0017013336260358,3.477352249867054,1.27363296004244,103.808335234688,78B TELOK BLANGAH STREET 32 102078,clinic
175,175,Etern Medical Clinic 70 PUNGGOL CENTRAL,ChIJL0ieReMV2jERFEQYCN1VTnM,56.0,2.8,0.0015366884364195,3.475081702809755,1.40454653696814,103.902072622227,70 PUNGGOL CENTRAL 828868,clinic
176,176,Etern Medical Clinic (Fernvale Palm) 432A SENGKANG WEST WAY,ChIJmeOMUXoW2jERzTUXvMohN9A,18.0,3.8,0.0004939355688491,3.4762806651665663,1.39475047621055,103.877202311346,432A SENGKANG WEST WAY 791432,clinic
177,177,Etern Medical Clinic (Sengkang) 33 SENGKANG WEST AVENUE,ChIJib0vKmUW2jERKha6nIU7XRE,44.0,3.1,0.0012073980571867,3.475666562265215,1.39147015412078,103.876125506847,33 SENGKANG WEST AVENUE 797653,clinic
178,178,Eterna Medical Clinic 629 ANG MO KIO AVENUE 4,ChIJA1ToJcEW2jERFYjsPXY3hSA,17.0,4.6,0.000466494703913,3.4766449734012856,1.38010475022238,103.840408652686,629 ANG MO KIO AVENUE 4 560629,clinic
179,179,F K LIM FAMILY CLINIC 267 TAMPINES ST 21,ChIJPx0Hdho92jERqr98lSeo65o,20.0,3.8,0.0005488172987212,3.476298440223388,1.3507727878183,103.949259231371,267 TAMPINES ST 21 520267,clinic
180,180,FAITH CLINIC (BEDOK) 746 BEDOK RESERVOIR ROAD,ChIJw6fAMFo92jERRZq48r8wiG0,50.0,4.7,0.0013720432468031,3.4777999049978328,1.33728644810221,103.921215743798,746 BEDOK RESERVOIR ROAD 470746,clinic
181,181,FAITH CLINIC (SIMEI) 139 SIMEI ST 1,ChIJ6cVJHx892jERN_cMerYPHwQ,68.0,2.7,0.0018659788156522,3.474672464889886,1.34668351018352,103.956561347989,139 SIMEI ST 1 520139,clinic
182,182,FAITH CLINIC (TOA PAYOH) 211 TOA PAYOH LOR 8,ChIJwXwXf24X2jEREsLg508uQlQ,34.0,2.9,0.0009329894078261,3.4755831751540947,1.34042178823098,103.853768900177,211 TOA PAYOH LOR 8 310211,clinic
183,183,FAITH CLINIC (YISHUN) 598 YISHUN RING ROAD,ChIJM2bsi-4V2jERhiL9o4uJ9ns,31.0,2.5,0.0008506668130179,3.475290336178982,1.41795288509924,103.841268831273,598 YISHUN RING ROAD 768698,clinic
184,184,FAITH FAMILY CLINIC 57 MARINE TERRACE,ChIJW8VV6Z8i2jERu092uTd8Oys,24.0,3.8,0.0006585807584655,3.4763339903370305,1.30651257339373,103.91548479998,57 MARINE TERRACE 440057,clinic
185,185,FAITH HEALTHCARE (RIVERVALE) 11 RIVERVALE CRESCENT,ChIJoQIrNAUW2jERjdBl4yODIkQ,53.0,2.8,0.0014543658416113,3.475137362819332,1.39250411008759,103.904483668484,11 RIVERVALE CRESCENT 545082,clinic
186,186,FAITH HEALTHCARE (TAMPINES) 11 TAMPINES STREET 32,ChIJMb1frgI92jEROsCONd6Ej2A,48.0,3.8,0.001317161516931,3.4765472910188886,1.3545494425702,103.959900188924,11 TAMPINES STREET 32 529287,clinic
187,187,FAITH MEDICAL CLINIC & SURGERY 487C TAMPINES ST 45,ChIJC7GoAAE92jER5f88pn_CfuQ,33.0,4.8,0.00090554854289,3.4773195266356174,1.36075820419992,103.957884241959,487C TAMPINES ST 45 522487,clinic
188,188,FAJAR FAMILY CLINIC & SURGERY 445 FAJAR ROAD,ChIJY4ZiXJ8R2jERvJmvsJOZ8Rk,8.0,2.9,0.0002195269194885,3.475994215654919,1.38358044593591,103.77076830515,445 FAJAR ROAD 670445,clinic
189,189,FAMILY CARE CLINIC & SURGERY 608 ANG MO KIO AVE 5,ChIJQbEJkMYW2jER26WjiE1rQ0Q,11.0,3.2,0.0003018495142966,3.476037342759113,1.37858210019768,103.836760311656,608 ANG MO KIO AVE 5 560608,clinic
190,190,FAMILY CARE CLINIC PTE LTD 415 BT BATOK WEST AVE 4,ChIJmYLanjQQ2jERf4FTEW9PliA,58.0,4.1,0.0015915701662916,3.477113637352884,1.36326877933412,103.746610701854,415 BT BATOK WEST AVE 4 650415,clinic
191,191,FAMILY CARE MEDICAL CENTRE PTE LTD 916 Hougang Ave 9,ChIJ31GoyEUW2jERlOShaKPEp3A,16.0,3.6,0.000439053838977,3.476175079341949,1.37491294218702,103.884293734337,916 Hougang Ave 9 530916,clinic
192,192,FAMILY HEALTH CLINIC 43 Holland Drive,ChIJrZds90Ea2jERVX7BX7JeWec,18.0,3.9,0.0004939355688491,3.476330058723451,1.3074341112717,103.792897574707,43 Holland Drive 270043,clinic
193,193,FAMILY HEALTH CLINIC & SURGERY 2 BALESTIER ROAD,ChIJ7yMWNOAZ2jERnlImnvc-oL4,7.0,3.6,0.0001920860545524,3.4761444851431373,1.32589620222,103.842935479988,2 BALESTIER ROAD 320002,clinic
194,194,FAMILY HEALTH MEDICAL CENTRE 226G ANG MO KIO AVE 1,ChIJsYg2xd4W2jEREQFJjX7_VWA,18.0,3.2,0.0004939355688491,3.4759843038252565,1.36682590272899,103.839861074062,226G ANG MO KIO AVE 1 567226,clinic
195,195,CLIFFORD DISPENSARY PTE LTD 50 AIRPORT BOULEVARD,ChIJ-d-ImpQ82jERkNR8ctf7zVk,1.0,4.0,2.7440864936062783e-05,3.4761350653565706,1.34821194016273,103.985459981704,50 AIRPORT BOULEVARD 819658,clinic
196,196,CLIFFORD DISPENSARY PTE LTD 350 ORCHARD ROAD,ChIJI19dBY0Z2jERpRNWqSXUm_8,14.0,4.4,0.0003841721091048,3.476475618318386,1.30580981572661,103.831507365278,350 ORCHARD ROAD 238868,clinic
197,197,CLINIC @ THE SAIL 2 MARINA BOULEVARD,ChIJlcF4Rw4Z2jERTrQHaJ98jZ8,16.0,3.3,0.000439053838977,3.476043363190256,1.28076943496046,103.85265856205,2 MARINA BOULEVARD 018987,clinic
198,198,CLINIC FARIDAH 59 NEW UPPER CHANGI ROAD,ChIJhQlGBLMi2jERAItattPTvgo,9.0,3.2,0.0002469677844245,3.4760524967402144,1.32405898637368,103.940695612374,59 NEW UPPER CHANGI ROAD 461059,clinic
199,199,CLINICAL ASSOCIATES MEDICAL CENTRE 137 TECK WHYE LANE,ChIJrUSyZr8R2jER7LajGQbHyaY,22.0,2.3,0.0006036990285933,3.4754106667373192,1.38004753002611,103.752483840899,137 TECK WHYE LANE 680137,clinic
200,200,CMY Medical 37 CHAI CHEE AVENUE,ChIJ48kvprIi2jERz7gn7-F8yOI,1.0,5.0,2.7440864936062783e-05,3.4761625062215065,1.32544200316618,103.926207634385,37 CHAI CHEE AVENUE 461037,clinic
201,201,COMFORT CLINIC & SURGERY 214 SERANGOON AVE 4,ChIJ0aSxLakX2jERxmblV-vNxSQ,16.0,4.0,0.000439053838977,3.47635070087754,1.35732435179355,103.873633486993,214 SERANGOON AVE 4 550214,clinic
202,202,COMPASSVALE 297A MEDICAL CLINIC 297A COMPASSVALE ST,ChIJP_rjHw8W2jERM9Zp1SHFeag,37.0,2.7,0.0010153120026343,3.475332685003473,1.39483596046538,103.900697317522,297A COMPASSVALE ST 541297,clinic
203,203,COUNTRYSIDE CLINIC AND SURGERY 106 YISHUN RING RD,ChIJseMgiHkU2jER7K9q_9JIYb0,26.0,4.2,0.0007134624883376,3.476637150389187,1.43147861410692,103.827452004281,106 YISHUN RING RD 760106,clinic
204,204,CRAWFURD MEDICAL 3 TEMASEK BOULEVARD,ChIJfbpQ-a4Z2jER2j6zGeCu-rg,50.0,3.9,0.0013720432468031,3.4767022704003905,1.29593189474123,103.859014406987,3 TEMASEK BOULEVARD 038983,clinic
205,205,CRESCENT CLINIC &  SURGERY 1A EUNOS CRESCENT,ChIJZTK_VBsY2jERcAkVfO9Z2M8,23.0,4.3,0.0006311398935294,3.4766406727553845,1.32129030506821,103.902727807655,1A EUNOS CRESCENT 401001,clinic
206,206,CREST FAMILY CLINIC PTE. LTD. 724 WOODLANDS AVE 6,ChIJ9wrOU3MT2jERrEkT4pbTwXs,14.0,3.4,0.0003841721091048,3.476091446209281,1.44466656455938,103.79871304314,724 WOODLANDS AVE 6 730724,clinic
207,207,CROSS STREET MEDICAL CLINIC 531 UPPER CROSS STREET,ChIJ___bVwsZ2jERESA6zWsxa5U,19.0,5.0,0.0005213764337851,3.4769152044155187,1.28439238197795,103.846101472114,531 UPPER CROSS STREET 050531,clinic
208,208,Calrose Medical Family Clinic 231A SUMANG LANE,ChIJ6YkDyO8V2jERZJ-DbpUBf4Q,37.0,4.9,0.0010153120026343,3.477566371409268,1.40205917712603,103.891879097963,231A SUMANG LANE 821231,clinic
209,209,Camry Medical Centre 95 Toa Payoh Lorong 4,ChIJRcsJF2kX2jERxP1yrjhmLn0,11.0,4.2,0.0003018495142966,3.476339192273409,1.33889072192265,103.848993317286,95 Toa Payoh Lorong 4 310095,clinic
210,210,Canberra Care Medical Clinic 120 CANBERRA CRESCENT,ChIJEbC2s4UU2jER5mYoIKvF70w,44.0,4.4,0.0012073980571867,3.477236179739558,1.4456745291262,103.831508132382,120 CANBERRA CRESCENT 750120,clinic
211,211,Care Family Clinic 663 BUFFALO ROAD,ChIJaUtRzrgZ2jERjx-UYvX9vwM,40.0,4.2,0.0010976345974425,3.47691524463058,1.30568031682027,103.850857725358,663 BUFFALO ROAD 210663,clinic
212,212,Caring Family Clinic 501 JURONG WEST STREET 51,ChIJDTJhntwP2jERdAfoyqnRwWE,42.0,3.6,0.0011525163273146,3.4762634625829616,1.34981225393483,103.719222201398,501 JURONG WEST STREET 51 640501,clinic
213,213,Central 24-HR Clinic ( Pioneer North ) 959 JURONG WEST STREET 92,ChIJIau6YpkP2jERy16nvniRhjE,60.0,1.4,0.0016464518961637,3.472702456809025,1.34148123560942,103.690721731343,959 JURONG WEST STREET 92 640959,clinic
214,214,Central 24HR Clinic (Jurong West) 492 JURONG WEST STREET 41,ChIJn-CSNZgP2jERB94kuD2Tzss,134.0,1.6,0.0036770759014324,3.4692220514790626,1.34994543580238,103.725180466271,492 JURONG WEST STREET 41 640492,clinic
215,215,Changi Clinic 848 Sims Avenue,ChIJ2w5JohoY2jERu8ZUhmkdJLY,17.0,4.3,0.000466494703913,3.476505024990112,1.31720886041624,103.901431784397,848 Sims Avenue 400848,clinic
216,216,Chin Medical Clinic 524A JELAPANG ROAD,ChIJ45jIVZgR2jER1czY64AbCRg,25.0,4.8,0.0006860216234015,3.477028899488843,1.38540569301034,103.766228468168,524A JELAPANG ROAD 671524,clinic
217,217,Chua & Partners Family Clinic 18 Jalan Membina,ChIJPb_VtX4Z2jERyPAmO63pyQA,82.0,3.4,0.0022501509247571,3.475949406614952,1.28569742860668,103.826785447839,18 Jalan Membina 164018,clinic
218,218,Chua Medical Centre Pte Ltd 248 Simei St 3,ChIJ82lKFSI92jER8_ChWAjVT3g,25.0,3.6,0.0006860216234015,3.476205673540761,1.34359376286677,103.953541142784,248 Simei St 3 520248,clinic
219,219,Chua Medical Clinic And Surgery Pte. Ltd. 642 BUKIT BATOK CENTRAL,ChIJQTK6suQR2jERFi1_7N79-Zw,12.0,4.3,0.0003292903792327,3.476391985185718,1.34900647929724,103.751706683251,642 BUKIT BATOK CENTRAL 650642,clinic
220,220,Chung & Ee Medical Clinic 10 TELOK BLANGAH CRESCENT,ChIJNUdVdVQb2jERhJequCHl5Kg,26.0,4.9,0.0007134624883376,3.4771365741310234,1.27773153221637,103.819769431776,10 TELOK BLANGAH CRESCENT 090010,clinic
221,221,Circuit Medical Clinic 36 CIRCUIT ROAD,ChIJcT9GeJYX2jERam31CfbsfAA,19.0,5.0,0.0005213764337851,3.4769152044155187,1.32902607935956,103.886930797614,36 CIRCUIT ROAD 370036,clinic
222,222,CityGP Family Clinic 122 BEDOK NORTH STREET 2,ChIJU7W1J_s92jERdTfVw2Is9F8,24.0,4.0,0.0006585807584655,3.476465706488724,1.32861719819575,103.937787149156,122 BEDOK NORTH STREET 2 460122,clinic
223,223,CityHealth Clinic & Surgery 152 Beach Road,ChIJWbuRMrAZ2jERn-cmE2qH8GY,21.0,2.5,0.0005762581636573,3.4755581921390437,1.29884087991136,103.859351023904,152 Beach Road 189721,clinic
224,224,Clinic@Costa 84 BAYSHORE ROAD,ChIJRfgLLMci2jEREBHVdxmI6B0,14.0,4.4,0.0003841721091048,3.476475618318386,1.31218816522514,103.940116990924,84 BAYSHORE ROAD 469994,clinic
225,225,Clover Medical Clinic Pte Ltd 21 CHOA CHU KANG NORTH 6,ChIJLUrc7fMR2jERfSqwcIdHeoo,28.0,2.8,0.0007683442182097,3.475601196232464,1.39706712804272,103.746637430571,21 CHOA CHU KANG NORTH 6 689578,clinic
226,226,Cornerstone Medical 29A GHIM MOH LINK,ChIJh_XRl-Mb2jERF2z4YfZUimg,15.0,4.7,0.0004116129740409,3.4766244542579705,1.30849288053919,103.784598100789,29A GHIM MOH LINK 271029,clinic
227,227,Cornerstone Medical Bidadari 106A BIDADARI PARK DRIVE,ChIJMfZq0ZYX2jERW4j7vPr7fmY,5.0,5.0,0.0001372043246803,3.4763297724868427,1.33413900018418,103.871259715426,106A BIDADARI PARK DRIVE 341106,clinic
228,228,Corporation Clinic (Choa Chu Kang) 253 Choa Chu Kang Ave 1,ChIJE2pmQcQR2jER95l78KhGs6Q,2.0,5.0,5.488172987212557e-05,3.4762043227878405,1.37736607411235,103.744393648371,253 Choa Chu Kang Ave 1 680253,clinic
229,229,Crossroads Family Clinic 601B TAMPINES AVENUE 9,ChIJBWxt6rU92jER97GrcnNyatk,19.0,4.4,0.0005213764337851,3.476602378555248,1.36088277451527,103.937510784032,601B TAMPINES AVENUE 9 522601,clinic
230,230,DA CLINIC @ POTONG PASIR 51 UPPER SERANGOON ROAD,ChIJY5TPYFcX2jERW_yYO0f2tQk,45.0,3.0,0.0012348389221228,3.475532757295958,1.33149708060439,103.868214025397,51 UPPER SERANGOON ROAD 347697,clinic
231,231,DA Clinic @ Anson 10 ANSON ROAD,ChIJYTliDhQZ2jERE62gbJ-Qj2g,38.0,3.8,0.0010427528675703,3.4764584157347813,1.27588674304532,103.84592379296,10 ANSON ROAD 079903,clinic
232,232,DA clinic @ Anchorvale 351 ANCHORVALE ROAD,ChIJO35ZN88X2jER6_V_9RVBJHA,22.0,3.1,0.0006036990285933,3.4758936259601936,1.39332786576656,103.886617624917,351 ANCHORVALE ROAD 540351,clinic
233,233,DA clinic @ Bukit Batok 451 BUKIT BATOK WEST AVENUE 6,ChIJJySm8akR2jERGUACxV0waUo,27.0,3.7,0.0007409033532736,3.476286562586936,1.35303824914482,103.743948447105,451 BUKIT BATOK WEST AVENUE 6 650451,clinic
234,234,DA clinic @ Sembawang 604 SEMBAWANG ROAD,ChIJZ_c4QYMV2jERDC7q23NDTH4,11.0,3.6,0.0003018495142966,3.4761580825648317,1.44182470635163,103.824845207379,604 SEMBAWANG ROAD 758459,clinic
235,235,DA clinic @ Taman Jurong 140 Corporation Drive,ChIJdWn9gQsP2jERy-zAhfOKDP4,38.0,3.8,0.0010427528675703,3.4764584157347813,1.01626425482099,103.581751807954,140 Corporation Drive 610410,clinic
236,236,DAILY MEDICAL CENTRE 159 HOUGANG STREET 11,ChIJozp2zaQX2jERs42e3ykfZV0,29.0,3.6,0.0007957850831458,3.4762192709624555,1.35144832553092,103.879517231861,159 HOUGANG STREET 11 530159,clinic
237,237,DAVITA MEDICAL & DIALYSIS CENTRE (JURONG EAST) 2 VENTURE DRIVE,ChIJ8T7veNoR2jERB9RmCzNbcTI,0.0,0.0,0.0,3.4761206896551724,1.33015172116219,103.744574632224,2 VENTURE DRIVE 608526,clinic
238,238,DAYSPRING MEDICAL CLINIC (TAMPINES) 2 TAMPINES CENTRAL 5,ChIJVVVVVRA92jERTEyeQgh-oHg,33.0,4.3,0.00090554854289,3.4768667523641725,1.35236829560034,103.943812302435,2 TAMPINES CENTRAL 5 529509,clinic
239,239,DOCTORS FOR LIFE MEDICAL 3 PICKERING STREET,ChIJgdG5ewsZ2jERbbRPmbZi6fo,10.0,1.9,0.0002744086493606,3.4756881885054947,1.28428813152396,103.847429981968,3 PICKERING STREET 048660,clinic
240,240,DOCTORS INC MEDICAL GROUP 178 TOA PAYOH CENTRAL,ChIJoypljWYX2jERRiKWWX1AipE,49.0,4.4,0.001344602381867,3.47736293997642,1.33358025833851,103.849264521174,178 TOA PAYOH CENTRAL 310178,clinic
241,241,"DOCTORS KOO, LOH & ASSOCIATES (PTE) LTD 152 YUNG HO RD",ChIJc1I0KlYF2jERcwbN_Wgaqmo,2.0,5.0,5.488172987212557e-05,3.4762043227878405,1.32707670705423,103.720708632127,152 YUNG HO RD 610152,clinic
242,242,DOVER MEDICAL CENTRE 1 FUSIONOPOLIS WAY,ChIJcQ8uKk4a2jERQQUZTPCkBPQ,5.0,4.8,0.0001372043246803,3.4763023316219064,1.29915016462316,103.787581248398,1 FUSIONOPOLIS WAY 138632,clinic
243,243,DR CHUA'S FAMILY CLINIC PTE. LTD. 638 JURONG WEST STREET 61,ChIJQUb825YP2jERQw4IM0M3axE,51.0,4.4,0.0013994841117392,3.4774136440711647,1.34169239237791,103.697174842354,638 JURONG WEST STREET 61 640638,clinic
244,244,DR JOYCE & PARTNERS FAMILY CLINIC 224A SUMANG LANE,ChIJ-aAbLYkV2jER66lYpW03kRo,54.0,4.3,0.0014818067065473,3.4773415195426267,1.40195621611022,103.892811293348,224A SUMANG LANE 821224,clinic
245,245,DR LIM LEAN HUAT & ASSOCIATES PTE LTD 101 IRRAWADDY ROAD,ChIJP5oL1g0Z2jER4u9y0psdUzA,15.0,4.7,0.0004116129740409,3.4766244542579705,1.32047597480701,103.843252763122,101 IRRAWADDY ROAD 329565,clinic
246,246,DR SOH FAMILY CLINIC 966 JURONG WEST STREET 93,ChIJ_zXeqpoP2jERZaV8QgMLqXg,16.0,3.6,0.000439053838977,3.476175079341949,1.34170245992124,103.692916978325,966 JURONG WEST STREET 93 640966,clinic
247,247,DRS CHUA & PARTNERS PTE LTD 1 TANJONG PAGAR PLAZA,ChIJ56SZZGsZ2jERX3Hkx3X3kgM,24.0,2.2,0.0006585807584655,3.4752802611234856,1.27568702794453,103.842433596845,1 TANJONG PAGAR PLAZA 082001,clinic
248,248,"DRS KOO, KOH & ASSOCIATES P.L. 163 BUKIT MERAH CENTRAL",ChIJZ5k3aNEb2jERJhJ5pSjClq0,17.0,3.1,0.000466494703913,3.475945231345416,1.2836613928251,103.817072709118,163 BUKIT MERAH CENTRAL 150163,clinic
249,249,DRS LIM & CHAN CLINIC 2 LOR LEW LIAN,ChIJv8vBaKQX2jERL68C-TvWWN4,22.0,3.0,0.0006036990285933,3.4758332560573346,1.35060795579762,103.875680063619,2 LOR LEW LIAN 531002,clinic
250,250,DRS LIM & CHAN CLINIC 106 HOUGANG AVE 1,ChIJv4KgD7gX2jERuGk_m5zgmp8,16.0,3.6,0.000439053838977,3.476175079341949,1.35370297114613,103.890680792157,106 HOUGANG AVE 1 530106,clinic
251,251,"DRS OH, LIM, WONG & PARTNERS 959 JURONG WEST ST 92",ChIJ6a9wfZkP2jERyZk1gx6s2_g,12.0,4.1,0.0003292903792327,3.4763261271098718,1.34148123560942,103.690721731343,959 JURONG WEST ST 92 640959,clinic
252,252,"DRS SINGH & PARTNERS, RAFFLES CITY MEDICAL CENTRE 252 NORTH BRIDGE RD",ChIJkxbIK6QZ2jERyYOzMiKKf5c,21.0,2.8,0.0005762581636573,3.4757310695881407,1.29376028146733,103.8527683243,252 NORTH BRIDGE RD 179103,clinic
253,253,DRS TANG & PARTNERS PTE. LTD. 64 YUNG KUANG ROAD,ChIJHwvQ-vsP2jERdA3tNoqz-9k,25.0,4.3,0.0006860216234015,3.4766858886771423,1.33237347600046,103.722451247982,64 YUNG KUANG ROAD 610064,clinic
254,254,DTAP @ Robertson 11 UNITY STREET,ChIJJ1rP4p4Z2jERM0rOQOqXQok,89.0,4.6,0.0024422369793095,3.478865469267177,1.29189934215369,103.841475100183,11 UNITY STREET 237995,clinic
255,255,DTAP @ SIGLAP 914 EAST COAST ROAD,ChIJa1ZSJXMY2jERA3gQD3KrEuE,30.0,4.7,0.0008232259480818,3.4771282188607686,1.31205928217535,103.92444984956,914 EAST COAST ROAD 459108,clinic
256,256,DTAP @ Somerset 1 GRANGE ROAD,ChIJy1_9GZEZ2jERw8P5uy9baVk,51.0,4.7,0.0013994841117392,3.4778334893046865,1.30139878843175,103.837359153263,1 GRANGE ROAD 239693,clinic
257,257,DUXTON MEDICAL CLINIC CANBERRA 361 SEMBAWANG CRESCENT,ChIJaZK4I4oT2jERJu2jhvlw__8,13.0,4.5,0.0003567312441688,3.4764859393954306,1.44631506786133,103.813936814037,361 SEMBAWANG CRESCENT 750361,clinic
258,258,DaVita Medical & Dialysis Centre (Farrer Park) 1 FARRER PARK STATION ROAD,ChIJWcfmwNUZ2jERWurIHwAJdnw,0.0,0.0,0.0,3.4761206896551724,1.31247324146379,103.853929522028,1 FARRER PARK STATION ROAD 217562,clinic
259,259,DaVita Medical & Dialysis Centre (Novena) 101 IRRAWADDY ROAD,ChIJV2hXWZ0Z2jERxPjxJjNuAyo,0.0,0.0,0.0,3.4761206896551724,1.32047597480701,103.843252763122,101 IRRAWADDY ROAD 329565,clinic
260,260,Dawson Medical Clinic 85 DAWSON ROAD,ChIJn66lIy4a2jERwK7rSmV5pqI,10.0,4.7,0.0002744086493606,3.4764565327237045,1.29531966312279,103.809758591462,85 DAWSON ROAD 141085,clinic
261,261,Doctors Clinic & Surgery 305 Woodlands Street 31,ChIJA5FeoFIS2jERL0iRurXtFNg,57.0,2.9,0.0015641293013555,3.4752195624033653,1.43036145793777,103.774102413755,305 Woodlands Street 31 730305,clinic
262,262,Dover Clinic and Surgery Pte Ltd 28 DOVER CRESCENT,ChIJp_zYIlwa2jER3xNn6e6XUUQ,32.0,2.8,0.000878107677954,3.4755269828863624,1.30446092684555,103.781779696786,28 DOVER CRESCENT 130028,clinic
263,263,Dr Chen and Partners Medical Clinic 9 SIN MING ROAD,ChIJCwLN5ToX2jERQbTf8h1Relc,0.0,0.0,0.0,3.4761206896551724,1.35319495294524,103.835564729732,9 SIN MING ROAD 575630,clinic
264,264,Dr Chua & Lee Family Clinic 213 BISHAN STREET 23,ChIJW31lBVkX2jERMGqg1v3YKD4,14.0,5.0,0.0003841721091048,3.476706121583849,1.35717822107249,103.848152968836,213 BISHAN STREET 23 570213,clinic
265,265,Dr Gary's Family Clinic 77 INDUS ROAD,ChIJV9CSg4EZ2jERyWmbqh-Fyec,33.0,4.9,0.00090554854289,3.4774100814899067,1.29113483647707,103.826764453903,77 INDUS ROAD 160077,clinic
266,266,Dr Jeremy Chan Medical Clinic 123 LORONG 1 TOA PAYOH,ChIJKXaL0WkX2jERSPGB58Lt6is,19.0,4.6,0.0005213764337851,3.4767066538420046,1.33864901778038,103.845703844549,123 LORONG 1 TOA PAYOH 310123,clinic
267,267,Dr Joyce & Partners Family Clinic (Toa Payoh Branch) 177 TOA PAYOH CENTRAL,ChIJmxUcDhIX2jERYZNLsRxQsGA,13.0,4.7,0.0003567312441688,3.4765572856442644,1.33390034089973,103.848854818027,177 TOA PAYOH CENTRAL 310177,clinic
268,268,Dr Nah & Lee Family Clinic 780 WOODLANDS CRESCENT,ChIJ3zaUhXIT2jERnTCNSwEuw4o,52.0,4.6,0.0014269249766752,3.477724381113872,1.4483415501858,103.801057143564,780 WOODLANDS CRESCENT 730780,clinic
269,269,Dr Stanley Peck Family Clinic 636 BUKIT BATOK CENTRAL,ChIJxxhElicR2jERVOd1ObH1IG0,21.0,4.8,0.0005762581636573,3.476883585915455,1.34963274148521,103.751825709259,636 BUKIT BATOK CENTRAL 650636,clinic
270,270,Dr Steven Ang Aesthetic & Family Clinic 75D Redhill Road,ChIJQccxqtQb2jERd4P-rJHBHhU,30.0,3.9,0.0008232259480818,3.476469638102303,1.28846476848129,103.815711568942,75D Redhill Road 154075,clinic
271,271,Dr W.K. Koo & Associates P.L. 1 JURONG WEST CENTRAL 2,ChIJAQAAAO0P2jERYwkifSIibEA,42.0,1.9,0.0011525163273146,3.4743041848265266,1.33945271688955,103.706685012636,1 JURONG WEST CENTRAL 2 648886,clinic
272,272,Dr.W Family Clinic 8 EMPRESS ROAD,ChIJ65ydwREa2jER8xweqge5Urc,43.0,4.1,0.0011799571922506,3.4768568405345097,1.31641190070436,103.805373812286,8 EMPRESS ROAD 260008,clinic
273,273,Drs Chan & Tang Family Clinic 125 LORONG 1 TOA PAYOH,ChIJ-82F0mkX2jERqg6vFcDx6iY,24.0,4.8,0.0006585807584655,3.4769925710954963,1.33833133425818,103.845737117486,125 LORONG 1 TOA PAYOH 310125,clinic
274,274,"Drs Koo, Fok & Associates Pte Ltd 55 BENOI ROAD",ChIJf79p3ocP2jERRBgtiwbzqbo,1.0,1.0,2.7440864936062783e-05,3.476052742761762,1.32561764091444,103.678410551478,55 BENOI ROAD 629907,clinic
275,275,"Drs Koo, Fok & Associates( Pioneer ) 31 JURONG WEST STREET 63",ChIJVVVVxZEP2jERAuT9El-eQGM,11.0,1.6,0.0003018495142966,3.475554383536238,1.3375870106289,103.697321608176,31 JURONG WEST STREET 63 648310,clinic
276,276,Duxton Medical Clinic 7 TANJONG PAGAR PLAZA,ChIJOYip4WwZ2jERZ8kCYmgwcrc,32.0,4.3,0.000878107677954,3.476844144403293,1.27712012192209,103.84311774345,7 TANJONG PAGAR PLAZA 081007,clinic
277,277,E MEDICAL CLINIC & SURGERY 126 LORONG 1 TOA PAYOH,ChIJafbGLmgX2jERP4NgfurMphM,24.0,4.7,0.0006585807584655,3.4769267130196497,1.33781465664298,103.845130852041,126 LORONG 1 TOA PAYOH 310126,clinic
278,278,E. L. CHIN FAMILY CLINIC & SURGERY PTE. LTD. 432 CLEMENTI AVE 3,ChIJGe0I_pEa2jERbCHPOEh1MUA,17.0,4.4,0.000466494703913,3.476551674460503,1.31402057647513,103.762740587674,432 CLEMENTI AVE 3 120432,clinic
279,279,E.J. TAN CLINIC & SURGERY 104 JURONG EAST STREET 13,ChIJtwti1RoQ2jERBcf88-tFZwo,29.0,3.2,0.0007957850831458,3.475900956929197,1.33658465341547,103.737623303578,104 JURONG EAST STREET 13 600104,clinic
280,280,EAST COAST FAMILY CLINIC 121 MEYER ROAD,ChIJdVRkLmYY2jERP-DBd0ojjo4,14.0,3.6,0.0003841721091048,3.4761682806311023,1.29769266267746,103.894446070261,121 MEYER ROAD 437932,clinic
281,281,EAST COAST MEDICAL CENTRE PTE LTD 57A NEW UPPER CHANGI RD,ChIJYbYVCMsi2jERqXorTAuvDWQ,10.0,3.5,0.0002744086493606,3.476127242344472,1.32371678656959,103.941288714677,57A NEW UPPER CHANGI RD 462057,clinic
282,282,EASTERN CLINIC & SURGERY PTE LTD 235 JURONG EAST STREET 21,ChIJLYlg6hAQ2jERrOTzeZKlA0c,9.0,4.3,0.0002469677844245,3.476324161303081,1.33997597903837,103.742159955431,235 JURONG EAST STREET 21 600235,clinic
283,283,EASTERN CLINIC & SURGERY PTE LTD 318 JURONG EAST STREET 31,ChIJZ1cNQSAQ2jERq-lLcC8yDpI,4.0,4.0,0.0001097634597442,3.476178192460764,1.34750822879295,103.73056069188,318 JURONG EAST STREET 31 600318,clinic
284,284,EASTERN CLINIC AND DENTAL SURGERY 303 JURONG EAST ST 32,ChIJAQAA0BgQ2jERm31QpIE6PHo,10.0,3.9,0.0002744086493606,3.476237005804216,1.34485611221062,103.735622181592,303 JURONG EAST ST 32 600303,clinic
285,285,EASTERN MEDICAL CENTRE 631 BEDOK RESERVOIR RD,ChIJnV2g11c92jER6bmKZkRTiUA,10.0,2.2,0.0002744086493606,3.475770511100303,1.33295923548327,103.914941831149,631 BEDOK RESERVOIR RD 470631,clinic
286,286,EC Family Clinic 30 EUNOS CRESCENT,ChIJLZYR0gQY2jERBeHX3CYn-Ak,92.0,2.6,0.0025245595741177,3.4739088707800208,1.31976065842876,103.903047958629,30 EUNOS CRESCENT 409423,clinic
287,287,EDGEDALE MEDICAL CLINIC 122A EDGEDALE PLAINS,ChIJZwDReQMW2jERv7aOsvJ_GgQ,54.0,4.6,0.0014818067065473,3.477786061554591,1.39350981246858,103.90910656253,122A EDGEDALE PLAINS 821122,clinic
288,288,EE CLINIC 128 ANG MO KIO AVE 3,ChIJ45oen90W2jER0nFHXd2weBM,21.0,4.2,0.0005762581636573,3.4765378310172608,1.3708320282205,103.843546990564,128 ANG MO KIO AVE 3 560128,clinic
289,289,EH MEDICAL FAMILY CLINIC (BUKIT BATOK) 292 BUKIT BATOK EAST AVENUE 6,ChIJ0UmXucwR2jERhUqbLcZmCcQ,21.0,3.7,0.0005762581636573,3.476249701935432,1.34449810534059,103.755375174448,292 BUKIT BATOK EAST AVENUE 6 650292,clinic
290,290,EH Medical 785E WOODLANDS RISE,ChIJYbgLj3ET2jERTBiZS1TRPTw,42.0,4.4,0.0011525163273146,3.4771854756448133,1.44680413878616,103.805487571931,785E WOODLANDS RISE 735785,clinic
291,291,EHA CLINIC @ Jurong 492 JURONG WEST STREET 41,ChIJsbl63N4P2jERWd67xD042Jo,83.0,4.3,0.0022775917896932,3.477997150408112,1.34994543580238,103.725180466271,492 JURONG WEST STREET 41 640492,clinic
292,292,EJ FAMILY CLINIC & SURGERY 109 TOA PAYOH LOR 1,ChIJp4T8PGoX2jERp_qP_1n0alk,31.0,3.2,0.0008506668130179,3.4758858029480955,1.34123727109327,103.846202461177,109 TOA PAYOH LOR 1 310109,clinic
293,293,EL SHADDAI ARTHRITIS + RHEUMATISM SPECIALIST MEDICAL CENTRE 102 TOWNER ROAD,ChIJoeApXtEZ2jERsXX2LBQO8To,22.0,2.6,0.0006036990285933,3.475591776445897,1.32058609482407,103.862002015014,102 TOWNER ROAD 322102,clinic
294,294,ELIAS FAMILY CLINIC & SURGERY 625 ELIAS RD,ChIJl8tJvr492jERLA5wpp01SmU,14.0,3.6,0.0003841721091048,3.4761682806311023,1.37860239755804,103.941978174961,625 ELIAS RD 510625,clinic
295,295,EMMANUEL MEDICAL CLINIC 272 TAMPINES ST 22,ChIJT5XH9hk92jERNlX7apL00zA,7.0,3.1,0.0001920860545524,3.476048442115861,1.34915941815592,103.95028148718,272 TAMPINES ST 22 520272,clinic
296,296,EON MEDICAL CLINIC 475 UPPER SERANGOON CRESCENT,ChIJ0ZjVoDsW2jER5YaLL4h8PBs,11.0,4.2,0.0003018495142966,3.476339192273409,1.37571547934496,103.900675272909,475 UPPER SERANGOON CRESCENT 530475,clinic
297,297,ESSENTIAL FAMILY CLINIC & SURGERY 626A WOODLANDS DR 52,ChIJqbSFyJgT2jERQeUqNfgcHOQ,20.0,1.8,0.0005488172987212,3.475200805625945,1.43409799393499,103.800131263153,626A WOODLANDS DR 52 731626,clinic
298,298,ESTEEMED MEDICAL CLINIC 260 ANG MO KIO STREET 21,ChIJNcGFH9oW2jER_a5lJ7lbeik,12.0,5.0,0.0003292903792327,3.4766224884511807,1.36891592440303,103.834501165254,260 ANG MO KIO STREET 21 560260,clinic
299,299,ESTHER YEO CLINIC 256 JURONG EAST ST 24,ChIJl7u_WhgQ2jEReOd8Ak8je_4,22.0,3.7,0.0006036990285933,3.47625584537735,1.34416527281328,103.738263366894,256 JURONG EAST ST 24 600256,clinic
300,300,ETERN MEDICAL CLINIC (PUNGGOL SUMANG LRT) 308C PUNGGOL WALK,ChIJWWz5hDoV2jER5cbSpwbG1So,5.0,4.2,0.0001372043246803,3.4762200090270983,1.40800694968972,103.899074358389,308C PUNGGOL WALK 823308,clinic
301,301,EVANGEL MEDICAL CLINIC 10 CHAI CHEE RD,ChIJ89_ilFI92jER0iDVhShGoCU,2.0,5.0,5.488172987212557e-05,3.4762043227878405,1.32727572409468,103.924803599547,10 CHAI CHEE RD 467010,clinic
302,302,EVERCARE MEDICAL CLINIC 253 CHOA CHU KANG AVE 1,ChIJoWPmacQR2jERRiJAXyODfh0,30.0,3.5,0.0008232259480818,3.4761403477230703,1.37736607411235,103.744393648371,253 CHOA CHU KANG AVE 1 680253,clinic
303,303,EVERCARE MEDICAL CLINIC (475) PTE LTD 475 CHOA CHU KANG AVE 3,ChIJq378adsR2jERnZHLd3gLAo0,20.0,4.6,0.0005488172987212,3.4767374940623648,1.37789727696934,103.739015486131,475 CHOA CHU KANG AVE 3 680475,clinic
304,304,EVERHEALTH FAMILY CLINIC & SURGERY 762 JURONG WEST ST 75,ChIJvQnCTbwP2jER4WU_0_i4nOI,3.0,3.7,8.232259480818836e-05,3.476139119980924,1.34874357156987,103.697732090659,762 JURONG WEST ST 75 640762,clinic
305,305,FAMILY HEALTHCARE CLINIC & SURGERY PTE LTD 523 HOUGANG AVE 6,ChIJZw518EcW2jERVkweTU_SVqY,19.0,1.6,0.0005213764337851,3.475142524540649,1.37372091211225,103.890706990241,523 HOUGANG AVE 6 530523,clinic
306,306,FAMILY LIFE CLINIC 727 CLEMENTI WEST ST 2,ChIJjZiHC_Ia2jER_DFH77r4wyE,17.0,3.6,0.000466494703913,3.476178478697373,1.3046248764802,103.763817745262,727 CLEMENTI WEST ST 2 120727,clinic
307,307,FAMILY MEDICAL CLINIC PTE LTD 280 BT BATOK EAST AVE 3,ChIJGQpKhUEQ2jEROkYa-_E8Qy8,28.0,2.6,0.0007683442182097,3.475447527388822,1.3477014777938,103.757044584459,280 BT BATOK EAST AVE 3 650280,clinic
308,308,FAMILY MEDICARE CLINIC & SURGERY 721 ANG MO KIO AVE 8,ChIJ9zs6LOYW2jERAfTH61mSf8Q,11.0,3.7,0.0003018495142966,3.476188267516261,1.37234984800157,103.847899479496,721 ANG MO KIO AVE 8 560721,clinic
309,309,FAMILY MEDICINE CLINIC 58 MARINE TERRACE,ChIJ50AEZ3UY2jERnu6eifodXaw,7.0,3.9,0.0001920860545524,3.476202110959503,1.30611781278668,103.914026029639,58 MARINE TERRACE 440058,clinic
310,310,FAMILYCARE CLINIC & SURGERY 85C TOA PAYOH LOR 4,ChIJT14Le2gX2jERhxAOsCPgdSk,18.0,4.4,0.0004939355688491,3.476577026507876,1.33628570923804,103.847479439025,85C TOA PAYOH LOR 4 313085,clinic
311,311,FEMA CLINIC & SURGERY 10 SINARAN DRIVE,ChIJv-s_XecZ2jERDI9I4i53sFI,6.0,3.0,0.0001646451896163,3.476042298673944,1.3207051098625,103.844160709873,10 SINARAN DRIVE 307506,clinic
312,312,FINEST HEALTH MEDICAL CENTRE 19 LORONG 7 TOA PAYOH,ChIJIw2ZeUsX2jERr8nzRsplioc,3.0,3.7,8.232259480818836e-05,3.476139119980924,1.33528228586453,103.856504185567,19 LORONG 7 TOA PAYOH 310019,clinic
313,313,FIRST CARE FAMILY CLINIC & SURGERY 253 JURONG EAST ST 24,ChIJWU93AxkQ2jERqcaemhXRmY0,37.0,3.2,0.0010153120026343,3.47584034100479,1.34318835753237,103.736785753592,253 JURONG EAST ST 24 600253,clinic
314,314,FIRST MEDICAL CENTRE PTE LTD 169 STIRLING ROAD,ChIJl-5TNjEa2jERc6J99GQMQg8,17.0,3.9,0.000466494703913,3.4763184271085468,1.29043486494243,103.803105949038,169 STIRLING ROAD 140169,clinic
315,315,FIRST MEDICAL CLINIC & SURGERY 167 WOODLANDS ST 11,ChIJN-ANt6wT2jERt1y-wpfzWJs,18.0,3.5,0.0004939355688491,3.476132484495911,1.43359370625977,103.775884057974,167 WOODLANDS ST 11 730167,clinic
316,316,FIRSTHEALTH CLINIC & SURGERY 126 KIM TIAN ROAD,ChIJSTS-pXsZ2jERBX2LjfICNcw,21.0,3.6,0.0005762581636573,3.4761920761190663,1.28253466924079,103.829470015099,126 KIM TIAN ROAD 160126,clinic
317,317,FOCUS MEDICAL CENTRE 137 TECK WHYE LANE,ChIJrUSyZr8R2jERdPF61Pthgzs,6.0,2.8,0.0001646451896163,3.476009369636021,1.38004753002611,103.752483840899,137 TECK WHYE LANE 680137,clinic
318,318,FONG CLINIC 162 MEI LING ST,ChIJMXMEaDQa2jERl58k7OAFWx8,6.0,4.3,0.0001646451896163,3.476256337420445,1.2922546717017,103.802856952292,162 MEI LING ST 140162,clinic
319,319,FOO CLINIC 962 JURONG WEST ST 91,ChIJAdYZh5kP2jERibV635L0b-8,7.0,3.1,0.0001920860545524,3.476048442115861,1.34201784065971,103.69148311528,962 JURONG WEST ST 91 640962,clinic
320,320,FRASER MEDICAL CENTRE 78A TELOK BLANGAH ST 32,ChIJf_oJJMMb2jERs5C21xnGAes,31.0,2.1,0.0008506668130179,3.4749500694537754,1.27338751529297,103.808980553653,78A TELOK BLANGAH ST 32 101078,clinic
321,321,FRIENDSHIP CLINIC & SURGERY 1 JALAN BUKIT MERAH,ChIJGRhhpM0b2jERwD8pFdLM330,11.0,3.8,0.0003018495142966,3.4762184524676907,1.28645354013154,103.808242400061,1 JALAN BUKIT MERAH 150001,clinic
322,322,FRONTIER MEDICAL ASSOCIATES 982 BUANGKOK CRESCENT,ChIJpTXxLkMW2jERjZqRu3n1uTc,10.0,2.5,0.0002744086493606,3.4758528336951118,1.38085035421403,103.879309094037,982 BUANGKOK CRESCENT 530982,clinic
323,323,FRONTIER MEDICAL ASSOCIATES 163 ANG MO KIO AVE 4,ChIJqzXdtsQW2jERHcGSCjGKzW4,11.0,3.5,0.0003018495142966,3.476127897613402,1.37354853932334,103.838176471518,163 ANG MO KIO AVE 4 560163,clinic
324,324,FRONTIER MEDICAL ASSOCIATES 304 UBI AVENUE 1,ChIJH4SfFPcX2jERn1qvhmRTEWM,6.0,4.2,0.0001646451896163,3.476239872901484,1.32955256814021,103.901228610039,304 UBI AVENUE 1 400304,clinic
325,325,FRONTIER MEDICAL ASSOCIATES 899C WOODLANDS DR 50,ChIJg-XCBqET2jEREqKQE7cw-iQ,14.0,4.4,0.0003841721091048,3.476475618318386,1.43656985620916,103.795261266782,899C WOODLANDS DR 50 732899,clinic
326,326,FRONTIER MEDICAL ASSOCIATES 654 YISHUN AVE 4,ChIJaRmgmGsU2jERMK08nWOI1oA,9.0,3.6,0.0002469677844245,3.4761512838539845,1.42305346406148,103.840410312781,654 YISHUN AVE 4 760654,clinic
327,327,FRONTIER MEDICAL ASSOCIATES 105 CANBERRA STREET,ChIJz3oUt5oU2jERAQpVJdJ1ClI,11.0,4.6,0.0003018495142966,3.4764599320791283,1.44885888645002,103.8324062093,105 CANBERRA STREET 750105,clinic
328,328,FRONTIER MEDICAL ASSOCIATES 440 BUKIT BATOK WEST AVENUE 8,ChIJH5obfm8R2jERwZpI6FSsaJA,3.0,3.3,8.232259480818836e-05,3.4761061909430007,1.35572308150266,103.739303105448,440 BUKIT BATOK WEST AVENUE 8 650440,clinic
329,329,FRONTIER MEDICAL ASSOCIATES 451 BUKIT BATOK WEST AVE 6,ChIJQSU1uCYR2jERHUNNFfBYvZ8,7.0,4.9,0.0001920860545524,3.4763941970140557,1.35303824914482,103.743948447105,451 BUKIT BATOK WEST AVE 6 650451,clinic
330,330,FRONTIER MEDICAL ASSOCIATES 691 WOODLANDS DRIVE 73,ChIJAQBAR3YT2jERUFxh1c4NqWk,15.0,4.8,0.0004116129740409,3.476665615555375,1.44062992413871,103.806198056521,691 WOODLANDS DRIVE 73 730691,clinic
331,331,FULLERTON HEALTH @ DRS TRYTHALL HOY DAVIES 391B ORCHARD ROAD,ChIJWw4PRBMZ2jERUBBwLz0tQJc,1.0,5.0,2.7440864936062783e-05,3.4761625062215065,1.30242417185937,103.834676124776,391B ORCHARD ROAD 238874,clinic
332,332,FULLERTON HEALTHCARE @ ARC 460 ALEXANDRA ROAD,ChIJwz3yHMEb2jERg-UIOGwwdEg,101.0,4.4,0.0027715273585423,3.4786812464397845,1.27398640019417,103.801264139133,460 ALEXANDRA ROAD 119963,clinic
333,333,FUSION MEDICAL HEALTH SCREENING & AESTHETIC 501 ORCHARD ROAD,ChIJrY2Id0Ua2jERYwDFYQrwvIs,230.0,4.8,0.0063113989352944,3.4844762201249413,1.30467628686208,103.830642027915,501 ORCHARD ROAD 238880,clinic
334,334,Faith Clinic (Jurong West) 762 JURONG WEST ST 75,ChIJvQnCTbwP2jERUQLqcKJSGmM,48.0,2.5,0.001317161516931,3.4748349810468784,1.34874357156987,103.697732090659,762 JURONG WEST ST 75 640762,clinic
335,335,Famicare Bedok Clinic Pte Ltd 158 Bedok South Avenue 3,ChIJT2_lHs8i2jERUwiaMz_b_qU,61.0,3.7,0.0016738927610998,3.4764954396121186,1.31873582672514,103.945086743402,158 Bedok South Avenue 3 460158,clinic
336,336,Family Doctors at 365 365 CORPORATION DRIVE,ChIJmb1cIOUP2jERdDhCPvwPdIA,29.0,4.3,0.0007957850831458,3.476776320520657,1.33772592748385,103.720184719407,365 CORPORATION DRIVE 610365,clinic
337,337,Family Medicine Clinic Chinatown 133 NEW BRIDGE ROAD,ChIJCZiifQoZ2jER0ltRvDSkZsw,29.0,3.8,0.0007957850831458,3.4763784279790846,1.28499882861736,103.844697080902,133 NEW BRIDGE ROAD 059413,clinic
338,338,Fernvale Family Clinic 405C FERNVALE LANE,ChIJfS0MhGMW2jERh7q-UluTXhs,7.0,4.3,0.0001920860545524,3.476278945381324,1.38919466650292,103.873437403062,405C FERNVALE LANE 793405,clinic
339,339,First Light Family Clinic & Surgery 272 Bukit Batok East Avenue 4,ChIJBY8A2EMQ2jERKyoNzy8_-bc,16.0,3.4,0.000439053838977,3.4760872685741537,1.34879030670709,103.757864718234,272 Bukit Batok East Avenue 4 650272,clinic
340,340,Foo And Ong Family Clinic Pte. Ltd. 151 BUKIT BATOK ST 11,ChIJta5STTwQ2jERkRzxbzwpnMU,10.0,4.6,0.0002744086493606,3.4764290918587686,1.34874703498808,103.744211484368,151 BUKIT BATOK ST 11 650151,clinic
341,341,Frontier Family Medicine Clinic 3151 COMMONWEALTH AVENUE WEST,ChIJ5dl5QI4a2jERL1m3EVwmN0w,6.0,2.7,0.0001646451896163,3.475992905117059,1.3142704390532,103.76514748726,3151 COMMONWEALTH AVENUE WEST 129581,clinic
342,342,Frontier Medical Associates 678D JURONG WEST STREET 64,ChIJme76DZUP2jERAAG3pzxZjOM,29.0,4.6,0.0007957850831458,3.477015056045601,1.34486489516062,103.703395356357,678D JURONG WEST STREET 64 644678,clinic
343,343,Frontier People's Clinic 123 BEDOK NORTH STREET 2,ChIJSxyidko92jERqw-Byu33hr4,12.0,2.3,0.0003292903792327,3.4757334044272525,1.32919868633173,103.937343348132,123 BEDOK NORTH STREET 2 460123,clinic
344,344,Fullerton Health @ NTU 36 NANYANG AVENUE,ChIJqyjq5Z8P2jERRwB6YLBu2Ec,777.0,4.2,0.0213215520553207,3.49155492005246,1.34536991705032,103.682668844091,36 NANYANG AVENUE 639801,clinic
345,345,Fullerton Health @ OFC 10 COLLYER QUAY,ChIJsX-DJwwZ2jER3IFrd9Xh9YU,538.0,4.1,0.0147631853356017,3.4853311355408407,1.28320475137081,103.851909612057,10 COLLYER QUAY 049315,clinic
346,346,Fullerton Health @ Watsons (Changi City Point) 5 CHANGI BUSINESS PARK CENTRAL 1,ChIJPfUMG9U92jER9qgBvlsXFwg,42.0,4.8,0.0011525163273146,3.477646482175739,1.33408360486513,103.962946072076,5 CHANGI BUSINESS PARK CENTRAL 1 486038,clinic
347,347,Fullerton Healthcare @ Drs Trythall Hoy Davies 1 JURONG WEST CENTRAL 2,ChIJNUsxtuwP2jEREbvShaoZieE,93.0,3.8,0.0025520004390538,3.476947229797373,1.33945271688955,103.706685012636,1 JURONG WEST CENTRAL 2 648886,clinic
348,348,Fullerton Healthcare @ Gethin-Jones 78 SHENTON WAY,ChIJl62_0hQZ2jEReiiULD80VCc,188.0,4.6,0.0051588826079798,3.481918651082778,1.2732000622671,103.84529056569,78 SHENTON WAY 079120,clinic
349,349,Fullerton Healthcare @ MBFC 10 MARINA BOULEVARD,ChIJJcy4yA8Z2jERGQgohizgfEI,84.0,4.3,0.0023050326546292,3.478019758368991,1.27946938564498,103.85374955327,10 MARINA BOULEVARD 018981,clinic
350,350,Fullerton Healthcare @ Metropolis 9 NORTH BUONA VISTA DRIVE,ChIJEecHSEIa2jER_mrmeFfB2F0,79.0,4.2,0.0021678283299489,3.477689935731602,1.30624556797731,103.791237458059,9 NORTH BUONA VISTA DRIVE 138588,clinic
351,351,Fullerton Healthcare Screening Centre 391B ORCHARD ROAD,ChIJj6KI8ZEZ2jERPFC59l8Cvmw,1470.0,4.4,0.0403380714560122,3.513388199292593,1.30242417185937,103.834676124776,391B ORCHARD ROAD 238874,clinic
352,352,Fusion Medical & Health Screening Centre 1 FUSIONOPOLIS LINK,ChIJW1xqo5gb2jERWIJFdZNBOhE,70.0,4.8,0.0019208605455243,3.478663677189449,1.29925468196734,103.789607732973,1 FUSIONOPOLIS LINK 138542,clinic
353,353,G & H MEDICAL CLINIC PTE LTD 106 YISHUN RING ROAD,ChIJseMgiHkU2jERCKeHHEL01iA,12.0,3.2,0.0003292903792327,3.476029765768562,1.43147861410692,103.827452004281,106 YISHUN RING ROAD 760106,clinic
354,354,G S CLINIC & SURGERY 632 ANG MO KIO AVE 4,ChIJU5O5GsEW2jER2ugbC2CE9Ds,8.0,4.0,0.0002195269194885,3.476235695266356,1.37992681961038,103.841432372506,632 ANG MO KIO AVE 4 560632,clinic
355,355,G.I.F.T MEDICAL CENTRE 389 UPPER ALJUNIED RD,ChIJTernnIUX2jER784I2CNdToM,7.0,3.7,0.0001920860545524,3.4761636937485925,1.33317933421739,103.878829907545,389 UPPER ALJUNIED RD 367874,clinic
356,356,GARDEN CLINIC 304 SERANGOON AVE 2,ChIJzcG9HAgX2jERSaFeN_ACDjM,18.0,4.3,0.0004939355688491,3.4765276329509907,1.35381345318208,103.867773013652,304 SERANGOON AVE 2 550304,clinic
357,357,GEYLANG BAHRU CLINIC 16 UPPER BOON KENG RD,ChIJ9e3v2S0Y2jER3-GjBP27QJQ,11.0,3.5,0.0003018495142966,3.476127897613402,1.31543175845042,103.871651573599,16 UPPER BOON KENG RD 380016,clinic
358,358,GLOBAL CARE MEDICAL 77 JALAN MALU-MALU,ChIJ0bvd34MU2jERc5tq5TeEzeU,26.0,4.9,0.0007134624883376,3.4771365741310234,1.44381831615093,103.825776599298,77 JALAN MALU-MALU 769687,clinic
359,359,GOH CLINIC & SURGERY 204 HOUGANG ST 21,ChIJdb_FVrEX2jERCVz3OGpvENw,44.0,3.4,0.0012073980571867,3.476028781682371,1.3588191151875,103.884988426823,204 HOUGANG ST 21 530204,clinic
360,360,"HUA MEI CLINIC, WHAMPOA 300 WHAMPOA DRIVE",ChIJjduj0a0Z2jERZKvCM51Oyuc,0.0,0.0,0.0,3.4761206896551724,1.32486749271072,103.857201210738,300 WHAMPOA DRIVE 327737,clinic
361,361,HUAN CLINIC 51 CHIN SWEE ROAD,ChIJ20c6BHUZ2jER9UNuSSFBy84,6.0,4.2,0.0001646451896163,3.476239872901484,1.2874030082089,103.842029779252,51 CHIN SWEE ROAD 160051,clinic
362,362,HUI CLINIC + SURGERY 157 ANG MO KIO AVE 4,ChIJ6fSAfMMW2jER_89D-XnK8AM,11.0,4.6,0.0003018495142966,3.4764599320791283,1.37530562129984,103.839395071325,157 ANG MO KIO AVE 4 560157,clinic
363,363,HWANG & LIANG FAMILY CLINIC & SURGERY 476 TAMPINES ST 44,ChIJpUWPHwc92jERTHkDxiAvrLY,57.0,4.1,0.0015641293013555,3.477096517564992,1.36092283905723,103.95335936462,476 TAMPINES ST 44 520476,clinic
364,364,Hamid Family Clinic & Surgery 156 Pasir Ris St 13,ChIJR-lucFU82jER2yLNhuii0LA,30.0,4.3,0.0008232259480818,3.476798928481536,1.36408364491692,103.962895349626,156 Pasir Ris St 13 510156,clinic
365,365,Health First Family Clinic 26 JALAN MEMBINA,ChIJZafMXXwZ2jEROyA7Gq03bMc,25.0,3.2,0.0006860216234015,3.4759312648914005,1.28263437658533,103.825595753279,26 JALAN MEMBINA 161026,clinic
366,366,"HealthMatters - The Family Practice 1 Pasir Ris Close,",ChIJHeeu2LU92jERRykBZHp-LSg,14.0,3.2,0.0003841721091048,3.47601461178746,1.37912717895311,103.955444757708,"1 Pasir Ris Close, 519599",clinic
367,367,HealthMed Family Clinic (Bukit Panjang) 416 Saujana Road,ChIJu2JHCaIR2jERpS-3S6l4KRQ,15.0,4.9,0.0004116129740409,3.476706776852779,1.38319686720506,103.768454110363,416 Saujana Road 670416,clinic
368,368,Healthcare AMK Medical Clinic 157 ANG MO KIO AVENUE 4,ChIJK7WoYsMW2jERMjz_9P49dwU,65.0,4.9,0.001783656220844,3.4786604008448,1.37530562129984,103.839395071325,157 ANG MO KIO AVENUE 4 560157,clinic
369,369,Healthcare Hougang Medical Clinic 311 HOUGANG AVENUE 5,ChIJO2Ia8TQW2jER1U4E6Ov4RQQ,40.0,4.3,0.0010976345974425,3.477025008090324,1.36566733051337,103.894853675365,311 HOUGANG AVENUE 5 530311,clinic
370,370,Healthlife Family Clinic 296A BUKIT BATOK STREET 22,ChIJj9bkVw4R2jER5g8Y1G1sVpA,21.0,4.8,0.0005762581636573,3.476883585915455,1.34409358188013,103.746409176593,296A BUKIT BATOK STREET 22 651296,clinic
371,371,Healthmark Family Clinic (Compassvale) 263 Compassvale Street,ChIJA-ZBOAwW2jERDXSzvfcTFcI,28.0,3.0,0.0007683442182097,3.475754865076106,1.39484816497783,103.896042267939,263 Compassvale Street 540263,clinic
372,372,Healthmark Family Medicine Clinic 601 Choa Chu Kang St 62,ChIJBwDQNvER2jEReqqYzirzISw,15.0,3.7,0.0004116129740409,3.47621284128393,1.39693363037626,103.744921736282,601 Choa Chu Kang St 62 680601,clinic
373,373,Healthmark Medical Clinic 639 Punggol Drive,ChIJUZqPvv892jER4wcf955fzdU,12.0,3.3,0.0003292903792327,3.476062694806485,1.39944615058909,103.916054652799,639 Punggol Drive 820639,clinic
374,374,Healthmark Pioneer Mall Clinic 638 Jurong West Street 61,ChIJO6aM0JYP2jERF5E_4Tn06BE,30.0,3.1,0.0008232259480818,3.475811057343837,1.34169239237791,103.697174842354,638 Jurong West Street 61 640638,clinic
375,375,Healthpath Medical Clinic and Surgery 338 ANG MO KIO AVENUE 1,ChIJtzENJB4X2jERlH5XqZGA0xI,27.0,3.8,0.0007409033532736,3.476360652922263,1.3638957019431,103.848986957423,338 ANG MO KIO AVENUE 1 560338,clinic
376,376,Healthsprings Medical & Laser Clinic 105A BIDADARI PARK DRIVE,ChIJcYR6UO8X2jERCe565p8BMU8,21.0,4.6,0.0005762581636573,3.476768334282724,1.33400699198631,103.870430572629,105A BIDADARI PARK DRIVE 341105,clinic
377,377,Healthsprings Medical Clinic 524A JELAPANG ROAD,ChIJF9AEVJgR2jERLjQgyHepE7I,45.0,4.0,0.0012348389221228,3.476767596218081,1.38540569301034,103.766228468168,524A JELAPANG ROAD 671524,clinic
378,378,Healthway Medical 218 BEDOK NORTH ST 1,ChIJOUls4Eo92jERBYhMOiqqviw,76.0,2.7,0.0020855057351407,3.474502085505735,1.32749295502142,103.934249434387,218 BEDOK NORTH ST 1 460218,clinic
379,379,Healthway Medical 90 Hougang Avenue 10,ChIJKzajnDcW2jERYkwrENym4p4,23.0,3.3,0.0006311398935294,3.476009532861855,1.37249493836098,103.893775562591,90 Hougang Avenue 10 538766,clinic
380,380,Healthway Medical 690 JURONG WEST CENTRAL 1,ChIJybFmp-wP2jERhgvJ7q88Xmo,68.0,3.0,0.0018659788156522,3.475232258534582,1.34118688532867,103.706710011276,690 JURONG WEST CENTRAL 1 640690,clinic
381,381,Healthway Medical 168 Punggol Field,ChIJg8xbYAIW2jERZ_2JwGdei1U,39.0,3.2,0.0010701937325064,3.475825187023688,1.39423719749383,103.913047323352,168 Punggol Field 820168,clinic
382,382,Healthway Medical 503 Tampines Central 1,ChIJAQAAUA492jER3JlHizQcvuE,24.0,4.2,0.0006585807584655,3.476597422640417,1.35580335647499,103.945102946946,503 Tampines Central 1 520503,clinic
383,383,Healthway Medical 177 Toa Payoh Central,ChIJ0x_lT2YX2jERZN6Q_ME2QwY,31.0,3.3,0.0008506668130179,3.475970869629397,1.33390034089973,103.848854818027,177 Toa Payoh Central 310177,clinic
384,384,Healthway Medical 108 HOUGANG AVE 1,ChIJMUl7FrgX2jERiGA3f8thIKE,19.0,2.5,0.0005213764337851,3.4756117633310555,1.3527739328609,103.890093177136,108 HOUGANG AVE 1 530108,clinic
385,385,Healthway Medical 6A SHENTON WAY,ChIJq6Hy1CAZ2jERbZk3um8O6Lo,18.0,3.4,0.0004939355688491,3.4760830909390266,1.27796672374231,103.849007895658,6A SHENTON WAY 068815,clinic
386,386,Healthway Medical 118 RIVERVALE DRIVE,ChIJDaggbhcW2jERJQNIFgsOvOg,46.0,2.7,0.0012622797870588,3.4751410081963026,1.38533736141014,103.901841043722,118 RIVERVALE DRIVE 540118,clinic
387,387,FAMILY HEALTHCARE CLINIC & SURGERY 151 SERANGOON NORTH AVE 2,ChIJ0x9DUlEW2jERQNtThQjfyLs,5.0,4.2,0.0001372043246803,3.4762200090270983,1.36934534973621,103.873778334173,151 SERANGOON NORTH AVE 2 550151,clinic
388,388,Healthway Medical 888 WOODLANDS DR 50,ChIJPxWg86AT2jERiqogi3jhmX8,80.0,2.3,0.002195269194885,3.473538788135705,1.43712301469225,103.79531438351,888 WOODLANDS DR 50 730888,clinic
389,389,Healthway Medical 201D TAMPINES STREET 21,ChIJ____Pxs92jERCa9qVe2Vh_A,35.0,3.1,0.0009604302727621,3.4757594519586155,1.35226231434834,103.953586491461,201D TAMPINES STREET 21 524201,clinic
390,390,Healthway Medical 101 YISHUN AVENUE 5,ChIJVVVVBXoU2jEROOvJjF2jxC4,36.0,3.5,0.0009878711376982,3.4761442793366504,1.43053575388582,103.827667722133,101 YISHUN AVENUE 5 760101,clinic
391,391,Healthway Medical 446 BUKIT BATOK WEST AVENUE 8,ChIJbZ4t5G0R2jERNBB_O17nKj8,20.0,2.9,0.0005488172987212,3.4758045046545387,1.35017085094578,103.739084635311,446 BUKIT BATOK WEST AVENUE 8 650446,clinic
392,392,Healthway Medical 705 SERANGOON ROAD,ChIJE_7nDikZ2jERaYdXHZuB49c,4.0,4.0,0.0001097634597442,3.476178192460764,1.31799485295601,103.859085390214,705 SERANGOON ROAD 328127,clinic
393,393,Healthway Medical 461 YISHUN AVENUE 6,ChIJF66BazYV2jERHOyeVz6_nU8,11.0,3.0,0.0003018495142966,3.475976972856253,1.42841471934027,103.849972823964,461 YISHUN AVENUE 6 760461,clinic
394,394,Healthway Medical 267 Compassvale Link,ChIJFVxfdRYW2jERXppRuknP3-U,57.0,4.1,0.0015641293013555,3.477096517564992,1.38374441791265,103.89704655689,267 Compassvale Link 540267,clinic
395,395,Healthway Medical 10 SINARAN DRIVE,ChIJhYFOg-cZ2jER8r3xSiexzyc,30.0,3.2,0.0008232259480818,3.4758933799386456,1.3207051098625,103.844160709873,10 SINARAN DRIVE 307506,clinic
396,396,Healthway Medical 727 Clementi West  Street 2,ChIJxZZDhO0a2jERy2mfLi-OyDA,22.0,2.4,0.0006036990285933,3.475471036640178,1.3046248764802,103.763817745262,727 Clementi West  Street 2 120727,clinic
397,397,Healthway Medical 308 ANCHORVALE ROAD,ChIJi4frM2wW2jERQ8XPlbq1KnY,27.0,3.2,0.0007409033532736,3.475916110910299,1.38955848478423,103.886426650155,308 ANCHORVALE ROAD 540308,clinic
398,398,Healthway Medical 960 JURONG WEST ST 92,ChIJJauQgJkP2jERioFCqnMfrIA,22.0,4.4,0.0006036990285933,3.4766784346973654,1.34138531152671,103.691459639169,960 JURONG WEST ST 92 640960,clinic
399,399,Healthway Medical 475 CHOA CHU KANG AVE 3,ChIJJURpbNsR2jER4dCYTh7fKrk,107.0,4.0,0.0029361725481587,3.477658889704755,1.37789727696934,103.739015486131,475 CHOA CHU KANG AVE 3 680475,clinic
400,400,Healthway Medical 721 Ang Mo Kio Ave 8,ChIJY9hwM-YW2jERV79mhc3YFFM,34.0,3.3,0.0009329894078261,3.475956370917225,1.37234984800157,103.847899479496,721 Ang Mo Kio Ave 8 560721,clinic
401,401,Healthway Medical 445 FAJAR ROAD,ChIJCy5OXJ8R2jERQWA0fpIBg4c,16.0,4.6,0.000439053838977,3.4766141331809264,1.38358044593591,103.77076830515,445 FAJAR ROAD 670445,clinic
402,402,Healthway Medical 710 TAMPINES ST 71,ChIJfxC8qgw92jERJC9EjQNcq8M,23.0,4.5,0.0006311398935294,3.4767669007340904,1.35860238778915,103.937730608185,710 TAMPINES ST 71 520710,clinic
403,403,Healthway Medical 443 CLEMENTI AVENUE 3,ChIJdXaLIY4a2jERWM00RgHyUB4,25.0,3.1,0.0006860216234015,3.4758626627290603,1.31421051604588,103.764010395269,443 CLEMENTI AVENUE 3 120443,clinic
404,404,Healthway Medical 30 SEMBAWANG DRIVE,ChIJW6IeMH0T2jERV3CBp-JTadU,94.0,2.3,0.0025794413039899,3.4730869553697987,1.44819535415187,103.819502127479,30 SEMBAWANG DRIVE 757713,clinic
405,405,Healthway Medical 153 BUKIT BATOK ST 11,ChIJye83sz0Q2jERSS6ozx318lU,55.0,2.2,0.0015092475714834,3.4741947076033908,1.34747947809009,103.744276460475,153 BUKIT BATOK ST 11 650153,clinic
406,406,Healthway Medical 717 WOODLANDS DRIVE 70,ChIJWalxOXUT2jERRDiBk62vWVo,52.0,2.5,0.0014269249766752,3.474727838662853,1.44087378957359,103.799494171179,717 WOODLANDS DRIVE 70 730717,clinic
407,407,Healthway Medical 452 ANG MO KIO AVE 10,ChIJnXp0q-QW2jERmkIDPt0lKt4,45.0,3.5,0.0012348389221228,3.4761501767570198,1.36889751154086,103.856200835268,452 ANG MO KIO AVE 10 560452,clinic
408,408,Healthwerkz Medical Centre (CCK) 225 CHOA CHU KANG CENTRAL,ChIJR20cNcIR2jERtGk-7lP7Y0A,16.0,3.9,0.000439053838977,3.476306795493642,1.38109065346169,103.744889593655,225 CHOA CHU KANG CENTRAL 680225,clinic
409,409,Healthwerkz medical centre @ orchard 9 SCOTTS ROAD,ChIJ162TXI0Z2jERsbEUiy3TGdY,2.0,5.0,5.488172987212557e-05,3.4762043227878405,1.3065470470191,103.832128173794,9 SCOTTS ROAD 228210,clinic
410,410,Heartland Family Clinic 333C YISHUN STREET 31,ChIJKdo4cV0U2jERcHcVzeDreb0,106.0,5.0,0.0029087316832226,3.48055324568658,1.43188998725882,103.845790190573,333C YISHUN STREET 31 763333,clinic
411,411,HeartlandHealth 87 WHAMPOA DRIVE,ChIJcYaAFIUZ2jERVm2TBLTXjvA,9.0,2.0,0.0002469677844245,3.475756135398905,1.32328917056723,103.855735558254,87 WHAMPOA DRIVE 320087,clinic
412,412,Hill Spring Medical 12 JALAN LEBAN,ChIJV4Rro9EW2jERvjXvCnoHvLM,45.0,3.9,0.0012348389221228,3.4766441123258685,1.37154719878388,103.829175553654,12 JALAN LEBAN 577552,clinic
413,413,Hisemainn Medical Clinic (Bukit Batok) 289E BUKIT BATOK ST 25,ChIJrQdslmkQ2jER5_RAZHotDEQ,16.0,2.9,0.000439053838977,3.4758677416546653,1.34417029371853,103.759431387572,289E BUKIT BATOK ST 25 654289,clinic
414,414,Hisemainn Medical Clinic (Jurong West) 276 JURONG WEST ST 25,ChIJ_WYxW7gP2jERt550sFossFE,19.0,2.4,0.0005213764337851,3.4755596256876773,1.35361178019917,103.703725312401,276 JURONG WEST ST 25 640276,clinic
415,415,Horizon Medical Centre 200 Upper Thomson Road,ChIJP0JYTToX2jERYYiPv9yKaUA,92.0,4.0,0.0025245595741177,3.4774432541837856,1.35184499139998,103.836053648693,200 Upper Thomson Road 574424,clinic
416,416,LIFELINE BISHAN MEDICAL CLINIC 501 BISHAN ST 11,ChIJzxbFaRQX2jERsVf-XS-qYiI,37.0,2.5,0.0010153120026343,3.475129622602946,1.34841689766538,103.84907733333,501 BISHAN ST 11 570501,clinic
417,417,LIFELINE BUKIT PANJANG MEDICAL CLINIC 103 GANGSA ROAD,ChIJ2_vCEqUR2jERT1luHk4yQnk,26.0,1.7,0.0007134624883376,3.474853494168343,1.37867070866309,103.768538441068,103 GANGSA ROAD 670103,clinic
418,418,LIFELINE MEDICAL CENTRE 710 CLEMENTI WEST ST 2,ChIJi4SrB-0a2jERiZM09MTlibs,12.0,4.8,0.0003292903792327,3.476556630375334,1.30628911897632,103.761518107763,710 CLEMENTI WEST ST 2 120710,clinic
419,419,LIFELINE MEDICAL GROUP 118 RIVERVALE DRIVE,ChIJ-TfVcRcW2jERPxMERrxrAcE,49.0,1.4,0.001344602381867,3.473329132830819,1.38533736141014,103.901841043722,118 RIVERVALE DRIVE 540118,clinic
420,420,LIFELINE NEIGHBOURHOOD MEDICAL CLINIC 280 BUKIT BATOK EAST AVE 3,ChIJafgzm0EQ2jERZRsHWwglDl4,16.0,1.9,0.000439053838977,3.4754286878156884,1.3477014777938,103.757044584459,280 BUKIT BATOK EAST AVE 3 650280,clinic
421,421,LIFELINE PUNGGOL MEDICAL CLINIC PTE LTD 198 PUNGGOL FIELD,ChIJA8nyawcW2jERhL30dwi8UpU,32.0,2.5,0.000878107677954,3.475263550582976,1.39946295696544,103.906402433947,198 PUNGGOL FIELD 820198,clinic
422,422,LIFELINE YISHUN RING MEDICAL CLINIC 846 YISHUN RING ROAD,ChIJIbGU73sU2jER3zK9UCpo5LM,15.0,4.7,0.0004116129740409,3.4766244542579705,1.41678634673088,103.834641578841,846 YISHUN RING ROAD 760846,clinic
423,423,LIFELINK SN CLINIC & SURGERY 153 Serangoon North Avenue 1,ChIJ87EQ6lYW2jERtzbk2Fa-su8,35.0,2.3,0.0009604302727621,3.4749911077404056,1.36995099695439,103.872312298307,153 Serangoon North Avenue 1 550153,clinic
424,424,LILY AW PASIR RIS FAMILY CLINIC & SURGERY 446 PASIR RIS DR 6,ChIJqU_nVKw92jER4OOKm3_pHu8,54.0,2.2,0.0014818067065473,3.474229725458877,1.37030619330386,103.957726864829,446 PASIR RIS DR 6 510446,clinic
425,425,LIM CLINIC & SURGERY 20 CHAI CHEE ROAD,ChIJAWKkK1M92jERIgEnPXgcjU0,13.0,4.0,0.0003567312441688,3.476307573773346,1.32627271273425,103.922885287164,20 CHAI CHEE ROAD 461020,clinic
426,426,LIM CLINIC & SURGERY 109 TOA PAYOH LOR 1,ChIJp4T8PGoX2jERl6ixZs5ZKos,28.0,3.7,0.0007683442182097,3.4762927060288527,1.34123727109327,103.846202461177,109 TOA PAYOH LOR 1 310109,clinic
427,427,LIM COUNTRY CLINIC 208 HOUGANG ST 21,ChIJL2u2o7YX2jERCZh13fjDTYU,13.0,3.1,0.0003567312441688,3.4759865156535943,1.35869679921108,103.886636110951,208 HOUGANG ST 21 530208,clinic
428,428,LIN & SONS CLINIC & SURGERY PTE LTD 18 TECK WHYE LANE,ChIJAQCwzrgR2jER5Ejfzm_TNfk,38.0,1.7,0.0010427528675703,3.4742686347128835,1.37829768774576,103.754071399254,18 TECK WHYE LANE 680018,clinic
429,429,LIVEWELL MEDICAL FAMILY CLINIC 20 AH HOOD ROAD,ChIJNawPIWAX2jERCzFlmhmDIgk,21.0,4.0,0.0005762581636573,3.4764225793845296,1.3269450448725,103.846554377717,20 AH HOOD ROAD 329984,clinic
430,430,LO & LEE CLINIC & SURGERY 134 LORONG AH SOO,ChIJd89VT7kX2jERTHW3TtRX6hc,17.0,1.8,0.000466494703913,3.4753387882303293,1.35046468301438,103.886509353222,134 LORONG AH SOO 530134,clinic
431,431,LOH CLINIC 45 SIMS DR,ChIJPw_A5i8Y2jERXkLckXMaxvs,7.0,1.6,0.0001920860545524,3.475760313034032,1.31733721507169,103.878442674599,45 SIMS DR 380045,clinic
432,432,LOI+WONG CLINIC & SURGERY 492 JURONG WEST ST 41,ChIJsbl63N4P2jERXbli4Rktobw,17.0,2.9,0.000466494703913,3.475851932404633,1.34994543580238,103.725180466271,492 JURONG WEST ST 41 640492,clinic
433,433,LONDON (MH) CLINIC & SURGERY 104 HOUGANG AVE 1,ChIJsxAO8bcX2jERP9qv_H8Gzho,20.0,2.7,0.0005488172987212,3.4756947411947943,1.35478438650586,103.890318475998,104 HOUGANG AVE 1 530104,clinic
434,434,LOW & LEE CLINIC & SURGERY 55 CHAI CHEE DR,ChIJ6bhRsFQ92jERl84eF0FVTzs,24.0,4.7,0.0006585807584655,3.4769267130196497,1.32684846987483,103.919015572902,55 CHAI CHEE DR 460055,clinic
435,435,LOW MEDICAL CLINIC 67 KALLANG BAHRU,ChIJew7aoywY2jER-wtHSUSXfoU,10.0,3.8,0.0002744086493606,3.47620956493928,1.3213944644766,103.869336175072,67 KALLANG BAHRU 330067,clinic
436,436,LUM CLINIC & SURGERY 109 BUKIT PURMEI RD,ChIJSyRda2EZ2jERpHfLdC0y_sE,13.0,1.3,0.0003567312441688,3.4753443994140905,1.27392939913176,103.825310761058,109 BUKIT PURMEI RD 090109,clinic
437,437,LUSUMU Family Clinic 530 Bedok North St 3,ChIJ3RKTxU892jERumIQbmafqlg,7.0,4.9,0.0001920860545524,3.4763941970140557,1.33371332045971,103.927020293721,530 Bedok North St 3 460530,clinic
438,438,Lakeside Family Medicine Clinic 518A JURONG WEST STREET 52,ChIJy7BikucP2jER8ZEiJsbb_bk,9.0,4.7,0.0002469677844245,3.476422948416851,1.34513828527898,103.71885762802,518A JURONG WEST STREET 52 641518,clinic
439,439,Lee Respiratory and Sleep Clinic 820 THOMSON ROAD,ChIJnZIxx0YX2jER_8BXfLu8etI,1.0,5.0,2.7440864936062783e-05,3.4761625062215065,1.34182282585918,103.837601167324,820 THOMSON ROAD 574623,clinic
440,440,Lian Clinic 18 Marsiling Lane,ChIJLxMNnAET2jERbqlYhlla9Hg,77.0,4.4,0.0021129466000768,3.478072797302847,1.44341700675837,103.777861242043,18 Marsiling Lane 730018,clinic
441,441,Lifescan Medical Centre 290 ORCHARD ROAD,ChIJlRacLAMZ2jERWFAWFslBWJM,89.0,4.0,0.0024422369793095,3.477400127079592,1.30387230856356,103.835857545111,290 ORCHARD ROAD 238859,clinic
442,442,Lily Neo Clinic Pte Ltd 101 IRRAWADDY ROAD,ChIJ_____5IZ2jERtmpP_Gw3ytw,10.0,3.5,0.0002744086493606,3.476127242344472,1.32047597480701,103.843252763122,101 IRRAWADDY ROAD 329565,clinic
443,443,Lim Clinic 446 ANG MO KIO AVE10,ChIJq29OsfwW2jERgzlDblM9RPw,8.0,4.3,0.0002195269194885,3.4763015533422026,1.36776095160051,103.855357145899,446 ANG MO KIO AVE10 560446,clinic
444,444,Hua Mei Clinic 298 TIONG BAHRU ROAD,ChIJhwQvzX4Z2jERAZLsMwrEvlE,0.0,0.0,0.0,3.4761206896551724,1.28629937149605,103.828093503377,298 TIONG BAHRU ROAD 168730,clinic
445,445,I-HEALTH MEDICAL CLINIC 30 BENDEMEER ROAD,ChIJVRyGrF0Z2jERLJ4I_ujYEio,85.0,5.0,0.0023324735195653,3.479675097793565,1.31930336749337,103.864049815076,30 BENDEMEER ROAD 330030,clinic
446,446,ICON MEDICAL CLINIC 517 JURONG WEST ST 52,ChIJg11xfd0P2jERFegJb3S25go,28.0,3.9,0.0007683442182097,3.4764463748724945,1.34584959191131,103.71972430603,517 JURONG WEST ST 52 640517,clinic
447,447,IDOC CLINIC (HONG KAH) PTE LTD 502 JURONG WEST AVENUE 1,ChIJASC-IFwP2jER7iwj7IvDXoI,17.0,3.8,0.000466494703913,3.4762717776381558,1.3505012764805,103.718334683532,502 JURONG WEST AVENUE 1 640502,clinic
448,448,INTEMEDICAL 24 HOUR CLINIC 525 ANG MO KIO AVENUE 10,ChIJYdfjcOUW2jERg-DZ-iWbWu8,86.0,3.3,0.0023599143845013,3.4757050599062467,1.37262666866782,103.853976743936,525 ANG MO KIO AVENUE 10 560525,clinic
449,449,ISLAND FAMILY CLINIC (ANCHORVALE) 338 ANCHORVALE CRESCENT,ChIJq6pqH3UW2jERJ3dTf15mDrU,14.0,4.7,0.0003841721091048,3.4765908699511177,1.39922857033118,103.889653919266,338 ANCHORVALE CRESCENT 540338,clinic
450,450,ISLAND FAMILY CLINIC (FERNVALE) 473A FERNVALE STREET,ChIJkzdSa3cW2jERfXX13EWnn9M,17.0,4.1,0.000466494703913,3.476411726049329,1.39785974899126,103.881232764558,473A FERNVALE STREET 791473,clinic
451,451,ISLAND FAMILY CLINIC (KEAT HONG) 803 KEAT HONG CLOSE,ChIJT_r3fMUR2jERdg_RYfF5VKA,24.0,4.5,0.0006585807584655,3.476794996867957,1.37415533414763,103.742759621795,803 KEAT HONG CLOSE 680803,clinic
452,452,Integrated Wellness Clinic 8 SINARAN DRIVE,ChIJq6rqXecZ2jERPch_tZHD00s,90.0,3.3,0.0024696778442456,3.475685728290017,1.32003005040623,103.844782386419,8 SINARAN DRIVE 307470,clinic
453,453,Island Family Clinic & Endoscopy Centre 338 ANCHORVALE CRESCENT,ChIJq6pqH3UW2jERJ3dTf15mDrU,14.0,4.7,0.0003841721091048,3.4765908699511177,1.39922857033118,103.889653919266,338 ANCHORVALE CRESCENT 540338,clinic
454,454,Island Family Clinic (Bedok) 763 BEDOK RESERVOIR VIEW,ChIJVVUFzEc92jERGzfmnFkp_Ds,25.0,3.8,0.0006860216234015,3.476342877865441,1.33607209518397,103.93483060668,763 BEDOK RESERVOIR VIEW 470763,clinic
455,455,Island Family Clinic (Bukit Batok) 447 BUKIT BATOK WEST AVENUE 9,ChIJpZCAydcR2jERhXHEdKBKsy0,46.0,4.9,0.0012622797870588,3.4779180237278324,1.35269613886399,103.739809933345,447 BUKIT BATOK WEST AVENUE 9 650447,clinic
456,456,Island Family Clinic (Sengkang) 279 SENGKANG EAST AVENUE,ChIJU28HmhQW2jERCBzCwh8iU-E,32.0,4.1,0.000878107677954,3.4766685228677026,1.38621835450901,103.893038290272,279 SENGKANG EAST AVENUE 540279,clinic
457,457,Island Medical Clinic 55 Newton Road,ChIJoUhFqucZ2jER9mncM9iGETE,6.0,4.2,0.0001646451896163,3.476239872901484,1.3195180026839,103.842154838462,55 Newton Road 307987,clinic
458,458,JAPAN CLINIC AND SURGERY 802 FRENCH RD,ChIJpzesJ7YZ2jERneIBpEQEdDw,18.0,2.7,0.0004939355688491,3.475737336040832,1.30764582352943,103.860269172947,802 FRENCH RD 200802,clinic
459,459,JIREH FAMILY CLINIC 883 WOODLANDS ST 82,ChIJu74LIgkT2jERJyohIgY-juE,18.0,4.8,0.0004939355688491,3.4767746007354154,1.44275333234585,103.790548015767,883 WOODLANDS ST 82 730883,clinic
460,460,JJ CLINIC & SURGERY 107 ANG MO KIO AVENUE 4,ChIJr31XDtoW2jERzikIwjINlCA,23.0,4.2,0.0006311398935294,3.476577558766032,1.37138400101395,103.837381409799,107 ANG MO KIO AVENUE 4 560107,clinic
461,461,JO-LIN FAMILY CLINIC & SURGERY 533 CHOA CHU KANG ST 51,ChIJVUkk2O8R2jEROFO-shUdFGY,25.0,2.0,0.0006860216234015,3.4751080389433184,1.39207388757417,103.743099573448,533 CHOA CHU KANG ST 51 680533,clinic
462,462,JOY CLINIC AND SURGERY 844 YISHUN ST 81,ChIJzQV3iREU2jERIx2fnM-XPME,10.0,4.5,0.0002744086493606,3.476401650993832,1.41562517359593,103.835446503405,844 YISHUN ST 81 760844,clinic
463,463,JOY FAMILY CLINIC 703 BEDOK RESERVOIR ROAD,ChIJx561iFk92jERpY2mh5LOEl4,17.0,4.4,0.000466494703913,3.476551674460503,1.33716507465033,103.91989305506,703 BEDOK RESERVOIR ROAD 470703,clinic
464,464,JUBILEE FAMILY PHYSICIANS 258 PASIR RIS ST 21,ChIJAQAAcFQ82jERA8czuRlm91U,24.0,4.5,0.0006585807584655,3.476794996867957,1.36707357511654,103.964632224965,258 PASIR RIS ST 21 510258,clinic
465,465,JURONG EAST CLINIC 114 JURONG EAST ST 13,ChIJBQrBeBwQ2jER0386OXv8lpM,2.0,3.0,5.488172987212557e-05,3.476094559328096,1.33921386441237,103.734609974421,114 JURONG EAST ST 13 600114,clinic
466,466,JW Corporation Clinic Pte Ltd 507 Jurong West Street 52,ChIJD5oew9wP2jERN03Exg-kkMM,6.0,2.3,0.0001646451896163,3.475927047041212,1.34902708947199,103.71842993374,507 Jurong West Street 52 640507,clinic
467,467,Jade Medical Clinic Pte Ltd 8 EU TONG SEN STREET,ChIJ18C-mwoZ2jERZTnCR7U_TYw,20.0,5.0,0.0005488172987212,3.476957020981853,1.28895619965092,103.84679624319,8 EU TONG SEN STREET 059818,clinic
468,468,Jane & Lee Sembawang Family Clinic 483 Admiralty Link,ChIJCTQnKmcT2jERjB-4A_LoSpw,18.0,4.2,0.0004939355688491,3.4764782393941056,1.45603699743209,103.815580869089,483 Admiralty Link 750483,clinic
469,469,Jireh Heart centre 38 IRRAWADDY ROAD,ChIJoxOQ4YwZ2jERsuM19KB5cuk,8.0,5.0,0.0002195269194885,3.476455222185845,1.32214005414322,103.844212383776,38 IRRAWADDY ROAD 329563,clinic
470,470,Joash Family Clinic & Surgery 1030 UPPER SERANGOON ROAD,ChIJ6xNjJrUX2jER0LbIas4b700,44.0,3.5,0.0012073980571867,3.47614952148809,1.36298113879038,103.888536901518,1030 UPPER SERANGOON ROAD 534767,clinic
471,471,JoyHealth Medical Clinic & Surgery 825 Tampines Street 81,ChIJNduvCmw92jERc2cpamZvwc8,15.0,2.3,0.0004116129740409,3.475636583120272,1.34943750949191,103.932787707033,825 Tampines Street 81 520825,clinic
472,472,K L TAY CLINIC & SURGERY 632 BEDOK RESERVOIR RD,ChIJ8348i_0X2jERxookvbviM5w,17.0,4.3,0.000466494703913,3.476505024990112,1.3320509461928,103.914145075391,632 BEDOK RESERVOIR RD 470632,clinic
473,473,K N CHIN & ASSOCIATES PTE LTD 24 RAFFLES PLACE,ChIJRw4QyA4Z2jERqPe-Cwci_dw,25.0,2.3,0.0006860216234015,3.475313845430339,1.28385576222736,103.852130314179,24 RAFFLES PLACE 048621,clinic
474,474,K N CHIN & ASSOCIATES PTE LTD Medical Practice 3 TEMASEK BOULEVARD,ChIJUZ8cpagZ2jERlnC6gVEhaWg,30.0,2.4,0.0008232259480818,3.47523479918018,1.29593189474123,103.859014406987,3 TEMASEK BOULEVARD 038983,clinic
475,475,K. B. TAN CLINIC & LASER SURGERY 625 ELIAS RD,ChIJFSiGvb492jERjNMIj42G5fo,15.0,4.1,0.0004116129740409,3.476377486473546,1.37860239755804,103.941978174961,625 ELIAS RD 510625,clinic
476,476,K2 MEDICAL CLINIC 248 SIMEI STREET 3,ChIJ__8_ayI92jERvugYl8aM05U,37.0,4.5,0.0010153120026343,3.4771602466082148,1.34359376286677,103.953541142784,248 SIMEI STREET 3 520248,clinic
477,477,KALLANG BAHRU FAMILY CLINIC PTE. LTD. 66 KALLANG BAHRU,ChIJP-8W6CwY2jERRVpuxrwSUi0,21.0,2.7,0.0005762581636573,3.475673443771775,1.32066445659415,103.869914603946,66 KALLANG BAHRU 330066,clinic
478,478,KANG AN CLINIC PTE LTD 644 BT BATOK CENTRAL,ChIJsUajfD8Q2jERu4lJi9PXzbc,17.0,4.8,0.000466494703913,3.476738272342069,1.34866680951042,103.751790332685,644 BT BATOK CENTRAL 650644,clinic
479,479,KANG CLINIC 532 ANG MO KIO AVENUE 10,ChIJ_____3wW2jERjVw4yDYC6RY,3.0,2.3,8.232259480818836e-05,3.4760238683481925,1.37380851529933,103.854594160953,532 ANG MO KIO AVENUE 10 560532,clinic
480,480,KAO & TAN FAMILY MEDICAL CENTRE & SURGERY PTE LTD 18 JALAN MEMBINA,ChIJPb_VtX4Z2jER-bDRTULElIM,64.0,1.9,0.001756215355908,3.473352682297236,1.28569742860668,103.826785447839,18 JALAN MEMBINA 164018,clinic
481,481,KARRI FAMILY CLINIC 866A TAMPINES ST 83,ChIJn0T4XnI92jERRJe-3TvrPQA,54.0,3.8,0.0014818067065473,3.476600616189353,1.35536454222897,103.934477898456,866A TAMPINES ST 83 521866,clinic
482,482,KCS Medical Centre Pte Ltd 515 Bedok North Ave 2,ChIJV-9RkE492jEReJzOXJ8QLh4,15.0,4.5,0.0004116129740409,3.4765421316631624,1.33186656501132,103.92996022996,515 Bedok North Ave 2 460515,clinic
483,483,KEAT HONG FAMILY MEDICINE CLINIC 2 CHOA CHU KANG LOOP,ChIJgeN16ekR2jER_PxOHA9Wno0,22.0,4.2,0.0006036990285933,3.4765576948916466,1.3840958723943,103.74494935896,2 CHOA CHU KANG LOOP 689687,clinic
484,484,KENSINGTON FAMILY CLINIC 14D KENSINGTON PARK ROAD,ChIJS2vku_8W2jERfsJGzWRBzJ8,45.0,3.3,0.0012348389221228,3.475903208972595,1.36526817884598,103.866111068633,14D KENSINGTON PARK ROAD 557265,clinic
485,485,KEPPEL MEDICAL GROUP 9 TELOK BLANGAH CRESCENT,ChIJdyA7-Ngb2jERhChBGGNnAOU,5.0,4.2,0.0001372043246803,3.4762200090270983,1.27740785896679,103.819408460582,9 TELOK BLANGAH CRESCENT 090009,clinic
486,486,KHO CLINIC 537 BEDOK NORTH ST 3,ChIJe9mqvVE92jERMufRYTcENQQ,2.0,1.0,5.488172987212557e-05,3.475984795868352,1.33177300798251,103.924236461317,537 BEDOK NORTH ST 3 460537,clinic
487,487,KHOO CLINIC & SURGERY 998 UPPER SERANGOON RD,ChIJTZOB5rQX2jERnLc8Gp2-O10,3.0,3.7,8.232259480818836e-05,3.476139119980924,1.36228493590194,103.887787767312,998 UPPER SERANGOON RD 534737,clinic
488,488,KILLINEY MEDICAL CLINIC 61 KILLINEY ROAD,ChIJ54oTUJcZ2jERYwycLTPzibA,49.0,3.6,0.001344602381867,3.476287258070926,1.2989203432892,103.839550953076,61 KILLINEY ROAD 239522,clinic
489,489,KIM TIAN CLINIC 71 SENG POH ROAD,ChIJ0QQ2A3oZ2jERulONUYh83E8,8.0,3.0,0.0002195269194885,3.476016168346868,1.28424655163417,103.83250362737,71 SENG POH ROAD 160071,clinic
490,490,KING GEORGE'S MEDICAL CLINIC PTE LTD 803 KING GEORGE'S AVE,ChIJUR1R28kZ2jERWfTiXuRsyuM,10.0,3.6,0.0002744086493606,3.476154683209408,1.30836526388985,103.860912780811,803 KING GEORGE'S AVE 200803,clinic
491,491,KL NG MEDICAL CLINIC PTE LTD 1 JALAN BUKIT MERAH,ChIJyyzxpM0b2jERbdGbK1rEKG8,23.0,4.7,0.0006311398935294,3.4768931287127964,1.28645354013154,103.808242400061,1 JALAN BUKIT MERAH 150001,clinic
492,492,KO FAMILY CLINIC 18 UPPER BOON KENG ROAD,ChIJV-siSzIY2jERI3kC6tSMawU,8.0,4.4,0.0002195269194885,3.476323506034152,1.31480351435198,103.872301458327,18 UPPER BOON KENG ROAD 380018,clinic
493,493,KOH CLINIC & SURGERY 166 BUKIT BATOK WEST AVENUE 8,ChIJL-0GDT0Q2jER4IkXmP0FzP0,5.0,4.0,0.0001372043246803,3.4761925681621624,1.34715255026952,103.742824825687,166 BUKIT BATOK WEST AVENUE 8 650166,clinic
494,494,KOH'S T & T CLINIC AND SURGERY PTE. LTD. 237 SERANGOON AVE 3,ChIJn-tOxKcX2jERf33ElPqIVXA,9.0,2.9,0.0002469677844245,3.475978406404887,1.35381198304475,103.870134574381,237 SERANGOON AVE 3 550237,clinic
495,495,KONG KIAN CLINIC 187 UPPER PAYA LEBAR ROAD,ChIJ_aSXVpEX2jER110eZwQZNyg,11.0,4.5,0.0003018495142966,3.4764297471276984,1.34010827019145,103.885032593446,187 UPPER PAYA LEBAR ROAD 534869,clinic
496,496,Kai Clinic 223 EAST COAST ROAD,ChIJt5VyygwY2jERLx2AVZy_yMA,9.0,4.9,0.0002469677844245,3.476472341973736,1.30763657069386,103.907133515337,223 EAST COAST ROAD 428920,clinic
497,497,Kai Medical Clinic 5 Tampines Street 32,ChIJD2X0sQI92jERq42k1UuRc1Y,14.0,4.0,0.0003841721091048,3.476321949474744,1.35436493798362,103.960042188158,5 Tampines Street 32 529284,clinic
498,498,Katong Family Clinic Pte Ltd 263 TANJONG KATONG ROAD,ChIJ8ywayhQY2jERU2UlTEUnTS0,60.0,4.1,0.0016464518961637,3.4771478769286674,1.30780276675294,103.895551267298,263 TANJONG KATONG ROAD 437050,clinic
499,499,Kelinik Maju 414 Eunos Road 5,ChIJM0FxPxoY2jEREHxzU9ihYdo,12.0,2.8,0.0003292903792327,3.4758980496168688,1.31811559243751,103.89822067311,414 Eunos Road 5 400414,clinic
500,500,Kenneth Loo Family Clinic 152 Bishan St 11,ChIJUc3cyBIX2jER5GTnB_a6aR0,13.0,3.5,0.0003567312441688,3.476129208151262,1.34565720338064,103.854641447659,152 Bishan St 11 570152,clinic
501,501,Kenneth Tan Medical Clinic 658 PUNGGOL EAST,ChIJg7UVCoY92jER1kqRHJISddE,44.0,3.5,0.0012073980571867,3.47614952148809,1.39990420685096,103.919352747597,658 PUNGGOL EAST 820658,clinic
502,502,Ki Medical Clinic 416 ANG MO KIO AVENUE 10,ChIJy8-WM-YW2jERcIYfyQx_tjk,31.0,4.4,0.0008506668130179,3.476906603123717,1.36454170930926,103.855103690664,416 ANG MO KIO AVENUE 10 560416,clinic
503,503,Kin Mun Clinic 66 LORONG 4 TOA PAYOH,ChIJmcgi7GUX2jERhDx2FtgB2tc,60.0,4.5,0.0016464518961637,3.477806457687133,1.33501332560942,103.851778402295,66 LORONG 4 TOA PAYOH 310066,clinic
504,504,L & H POLYCLINIC AND SURGERY 59 LENGKOK BAHRU,ChIJma_qNdMb2jERs9jSzX6lFok,3.0,5.0,8.232259480818836e-05,3.4762461393541746,1.28879800624276,103.814352117212,59 LENGKOK BAHRU 150059,clinic
505,505,L & L FAMILY MEDICINE CLINIC 6 SIN MING ROAD,ChIJX4SYwzoX2jERLo2RKCCy1fc,15.0,4.9,0.0004116129740409,3.476706776852779,1.35286373397832,103.83640721143,6 SIN MING ROAD 575585,clinic
