,facility_name,facility_type,address,lat,long,modified_name,google_place_id,num_ratings,avg_rating,W,weighted_rating
0,CHEN FAMILY CLINIC,CHAS Clinic,153 SERANGOON NORTH AVE 1 550153,1.36995099695439,103.872312298307,CHEN FAMILY CLINIC 153 SERANGOON NORTH AVE 1,ChIJ87EQ6lYW2jERUySifNftWtI,18.0,4.1,0.012236573759347382,3.480859666190021
1,CHENG CLINIC,CHAS Clinic,447 ANG MO KIO AVE 10 560447,1.36747901395741,103.855967138976,CHENG CLINIC 447 ANG MO KIO AVE 10,ChIJm2EwyvwW2jERLwUt9mASBnQ,5.0,3.4,0.003399048266485384,3.4729408800018775
2,CHEONG FAMILY CLINIC PTE LTD,CHAS Clinic,45 OWEN RD 210045,1.31559567557441,103.850825476113,CHEONG FAMILY CLINIC PTE LTD 45 OWEN RD,ChIJvcJKnMQZ2jERQROXzDMoWL8,20.0,3.5,0.013596193065941536,3.4735541737968565
3,CHEONG MEDICAL CLINIC,CHAS Clinic,76 JLN JURONG KECHIL 598589,1.34054866770426,103.77332960556,CHEONG MEDICAL CLINIC 76 JLN JURONG KECHIL,ChIJ96j1JGIQ2jERi92-rqkkGEk,11.0,3.6,0.007477906186267845,3.4741379310344853
4,CHERN MEDICAL CLINIC,CHAS Clinic,138 TAMPINES ST 11 521138,1.34550450587014,103.945588355489,CHERN MEDICAL CLINIC 138 TAMPINES ST 11,ChIJp26ARxY92jERxKzsX3tSGvA,4.0,4.0,0.002719238613188307,3.474622178203899
5,CHESTMED pte ltd,CHAS Clinic,3 Mount Elizabeth 228510,1.30516521414744,103.83543933754,CHESTMED pte ltd 3 Mount Elizabeth,ChIJHacSR5IZ2jERWspT20XNvqo,2.0,5.0,0.0013596193065941536,3.475265535994752
6,CHIA & LEE MEDICAL & DENTAL CLINIC,CHAS Clinic,802 TAMPINES AVE 4 520802,1.34608442387087,103.93803402297,CHIA & LEE MEDICAL & DENTAL CLINIC 802 TAMPINES AVE 4,ChIJx3OZNhU92jERM12IAZD6PHI,14.0,3.0,0.009517335146159076,3.468686150636445
7,CHIA CLINIC AND SURGERY,CHAS Clinic,27 FOCH ROAD 209264,1.31270180835768,103.859968796046,CHIA CLINIC AND SURGERY 27 FOCH ROAD,ChIJ1R_r0c4Z2jERYqfCNOkgboU,4.0,3.0,0.002719238613188307,3.47190293959071
8,CHIEW CLINIC,CHAS Clinic,2 KOVAN ROAD 548008,1.36197602911345,103.88499280169,CHIEW CLINIC 2 KOVAN ROAD,ChIJBfo3e7MX2jER6E7DSFvphe8,23.0,3.5,0.01563562202583277,3.4736088515905226
9,CHIN CHOO CLINIC,CHAS Clinic,35 CIRCUIT ROAD 370035,1.32915899651205,103.886010316195,CHIN CHOO CLINIC 35 CIRCUIT ROAD,ChIJnfVu0IsX2jERI9BnoAwhXJQ,19.0,4.2,0.01291638341264446,3.4825774162544856
10,CHIN LEONG CLINIC,CHAS Clinic,517 WEST COAST ROAD 120517,1.30747684403086,103.7601572777,CHIN LEONG CLINIC 517 WEST COAST ROAD,ChIJH1nQ2-wa2jER1688KExBP44,8.0,3.6,0.005438477226376614,3.4738793103448304
11,CHINATOWN WELLNESS CLINIC,CHAS Clinic,531 UPPER CROSS STREET 050531,1.28439238197795,103.846101472114,CHINATOWN WELLNESS CLINIC 531 UPPER CROSS STREET,ChIJkao7m5EZ2jERFLq5ij8F_3s,5.0,4.2,0.003399048266485384,3.475660118615066
12,CHIRON MEDICAL CLINIC,CHAS Clinic,3 ST. GEORGE'S ROAD 320003,1.32258735163112,103.861107276896,CHIRON MEDICAL CLINIC 3 ST. GEORGE'S ROAD,ChIJm6PZvtYZ2jERuz5OmwHOjz0,14.0,4.0,0.009517335146159076,3.478203485782604
13,CHNG CLINIC AND SURGERY,CHAS Clinic,178 TOA PAYOH CENTRAL 310178,1.33358025833851,103.849264521174,CHNG CLINIC AND SURGERY 178 TOA PAYOH CENTRAL,ChIJj3DP92YX2jERusk-YMqbM_A,13.0,2.8,0.008837525492861998,3.467240324433299
14,CHONG & LIM FAMILY CLINIC,CHAS Clinic,103 GANGSA ROAD 670103,1.37867070866309,103.768538441068,CHONG & LIM FAMILY CLINIC 103 GANGSA ROAD,ChIJu0v59qMR2jERmqqOu4Bg870,10.0,2.8,0.006798096532970768,3.468613246911557
15,CHONG MEDICAL CLINIC,CHAS Clinic,703 BEDOK RESERVOIR ROAD 470703,1.33716507465033,103.91989305506,CHONG MEDICAL CLINIC 703 BEDOK RESERVOIR ROAD,ChIJx561iFk92jER8nplwgZgmDg,1.0,5.0,0.0006798096532970768,3.474227595583584
16,CHONG'S MEDICAL CENTRE,CHAS Clinic,190 CLEMENCEAU AVE 239924,1.29815265418204,103.844111318068,CHONG'S MEDICAL CENTRE 190 CLEMENCEAU AVE,ChIJU25fA5gZ2jERRUq9PpbdiUA,12.0,3.3,0.008157715839564922,3.4717768231791672
17,CHOONG'S CLINIC,CHAS Clinic,480 TAMPINES ST 44 520480,1.36189869571333,103.953613062624,CHOONG'S CLINIC 480 TAMPINES ST 44,ChIJQyDzPQc92jERs7JzNUXyHZU,14.0,3.0,0.009517335146159076,3.468686150636445
18,CHOONG'S CLINIC,CHAS Clinic,21 OLD AIRPORT RD 390021,1.3075861395776,103.88441304265,CHOONG'S CLINIC 21 OLD AIRPORT RD,ChIJXWuVXkcY2jEROQvQSIv3pD0,18.0,3.5,0.012236573759347382,3.473517721934413
19,CHUA CLINIC,CHAS Clinic,678 HOUGANG AVE 8 530678,1.37084076367772,103.884236382226,CHUA CLINIC 678 HOUGANG AVE 8,ChIJk1gSIE8W2jERo3iFNsbPi_I,9.0,3.3,0.006118286879673691,3.47213003117748
20,CHUA CLINIC & SURGERY,CHAS Clinic,769 YISHUN AVE 3 760769,1.42460205341205,103.83322239147,CHUA CLINIC & SURGERY 769 YISHUN AVE 3,ChIJV3dKKBIU2jERtNf0AdZBo4g,10.0,2.7,0.006798096532970768,3.4679334372582598
21,CHUA CLINIC & SURGERY,CHAS Clinic,844 YISHUN ST 81 760844,1.41562517359593,103.835446503405,CHUA CLINIC & SURGERY 844 YISHUN ST 81,ChIJV3dKKBIU2jERtNf0AdZBo4g,10.0,2.7,0.006798096532970768,3.4679334372582598
22,CHUA MEDICO CLINIC LLP,CHAS Clinic,529 ANG MO KIO AVE 10 560529,1.37234358213412,103.85545542764,CHUA MEDICO CLINIC LLP 529 ANG MO KIO AVE 10,ChIJTfn0ReUW2jERuU9OFNu9n4w,42.0,2.1,0.028552005438477225,3.4339823366698727
23,CHUAH CLINIC & SURGERY PTE LTD,CHAS Clinic,113 ALJUNIED AVE 2 380113,1.32052595944466,103.886159306963,CHUAH CLINIC & SURGERY PTE LTD 113 ALJUNIED AVE 2,ChIJz-oM7SMY2jER1UqkjmIrd64,15.0,2.9,0.010197144799456152,3.467344757261073
24,CHUNGKIAW CLINIC PTE LTD,CHAS Clinic,68 JALAN JURONG KECHIL 596180,1.34054847931538,103.773649129579,CHUNGKIAW CLINIC PTE LTD 68 JALAN JURONG KECHIL,ChIJyzfhHYoQ2jERdqHgZKyn_1M,10.0,4.0,0.006798096532970768,3.476770962751122
25,CITILIFE FAMILY CLINIC,CHAS Clinic,215 JURONG EAST ST 21 600215,1.33993327230313,103.738514477814,CITILIFE FAMILY CLINIC 215 JURONG EAST ST 21,ChIJbz-fRxoQ2jERVuxOOdKGTno,5.0,3.2,0.003399048266485384,3.472261070348581
26,CITIZEN FAMILY CLINIC AND SURGERY,CHAS Clinic,102 YISHUN AVE 5 760102,1.43061830395979,103.828762985206,CITIZEN FAMILY CLINIC AND SURGERY 102 YISHUN AVE 5,ChIJG0pyl3oU2jERjM5iJyJ43mo,51.0,4.7,0.03467029231815092,3.5157235284465203
27,CLARION MEDICAL,CHAS Clinic,202 ANG MO KIO AVENUE 3 560202,1.36844644023912,103.844516260553,CLARION MEDICAL 202 ANG MO KIO AVENUE 3,ChIJ__9vAd4W2jERhTtDlecjL7E,78.0,4.9,0.05302515295717199,3.5488464919477742
28,DA Clinic @ Bishan,CHAS Clinic,501 BISHAN STREET 11 570501,1.34841689766538,103.84907733333,DA Clinic @ Bishan 501 BISHAN STREET 11,ChIJpfXbtScX2jERw2Y4yudtEzY,42.0,2.8,0.028552005438477225,3.4539687404768067
29,1 Medical Teck Ghee,CHAS Clinic,410 ANG MO KIO AVENUE 10 560410,1.36271541943285,103.854644986918,1 Medical Teck Ghee 410 ANG MO KIO AVENUE 10,ChIJq6qaFB0X2jERVTzJfaiFLfw,45.0,4.4,0.030591434398368457,3.501542113035939
30,115 EASTPOINT CLINIC & SURGERY,CHAS Clinic,115 BEDOK NORTH RD 460115,1.33143367986449,103.936865404289,115 EASTPOINT CLINIC & SURGERY 115 BEDOK NORTH RD,ChIJjbl970k92jERbh5JJVoKOiw,2.0,3.0,0.0013596193065941536,3.4725462973815637
31,18 CLINIC,CHAS Clinic,101 TOWNER ROAD 322101,1.31942539044681,103.861087462865,18 CLINIC 101 TOWNER ROAD,ChIJqe-U-tAZ2jERwNJp4nC6404,30.0,4.5,0.020394289598912305,3.494130722707989
32,"1Aesthetics, Medical & Surgery",CHAS Clinic,8 EU TONG SEN STREET 059818,1.28895619965092,103.84679624319,"1Aesthetics, Medical & Surgery 8 EU TONG SEN STREET",ChIJZd4jpA8Q2jERT8WCj_4q9XA,123.0,4.9,0.08361658735554045,3.592494667010481
33,338 FAMILY CLINIC,CHAS Clinic,338 ANG MO KIO AVE 1 560338,1.3638957019431,103.848986957423,338 FAMILY CLINIC 338 ANG MO KIO AVE 1,ChIJB-1u2OEW2jER2xZn40-GUTs,17.0,3.9,0.011556764106050306,3.478122201645611
34,57 Medical Clinic (Geylang Bahru),CHAS Clinic,57 GEYLANG BAHRU 330057,1.3235378064709,103.869147756879,57 Medical Clinic (Geylang Bahru) 57 GEYLANG BAHRU,ChIJqx_qA_QZ2jERa0_o1ufgJhM,18.0,4.8,0.012236573759347382,3.4894252678215643
35,81 FAMILY CLINIC,CHAS Clinic,86 MARINE PARADE CENTRAL 440086,1.30173721640039,103.906754510622,81 FAMILY CLINIC 86 MARINE PARADE CENTRAL,ChIJayfd33MY2jER7S2OSspi-og,41.0,4.2,0.02787219578518015,3.493447455402145
36,888 PLAZA FAMILY CLINIC,CHAS Clinic,888 WOODLANDS DRIVE 50 730888,1.43712301469225,103.79531438351,888 PLAZA FAMILY CLINIC 888 WOODLANDS DRIVE 50,ChIJQSkW_qAT2jERMkEGlR_I3OM,61.0,2.3,0.04146838885112169,3.424539370355613
37,A & A Clinic,CHAS Clinic,570B WOODLANDS AVENUE 1 732570,1.43106395467045,103.79045407864,A & A Clinic 570B WOODLANDS AVENUE 1,ChIJS6iqxqQT2jERevi6xwNmkYs,30.0,1.9,0.020394289598912305,3.441105569750817
38,A LIFE CLINIC PTE LTD,CHAS Clinic,10 SINARAN DRIVE 307506,1.3207051098625,103.844160709873,A LIFE CLINIC PTE LTD 10 SINARAN DRIVE,ChIJv-s_XecZ2jERZhWQEVvShX8,5.0,4.2,0.003399048266485384,3.475660118615066
39,A MEDICAL CLINIC,CHAS Clinic,1 EVERTON PARK 081001,1.27742654256439,103.840001188467,A MEDICAL CLINIC 1 EVERTON PARK,ChIJhx9BYC0Z2jERGf6RH1XR96w,38.0,4.5,0.02583276682528892,3.499715007384142
40,A+FFORDABLE CLINIC (AMK AVE 10),CHAS Clinic,449 ANG MO KIO AVENUE 10 560449,1.36785888235033,103.856047008296,A+FFORDABLE CLINIC (AMK AVE 10) 449 ANG MO KIO AVENUE 10,ChIJ2c0oTuMW2jEROzyPNtwjOR4,133.0,4.7,0.09041468388851122,3.584111324691158
41,A+FFORDABLE CLINIC (HOUGANG),CHAS Clinic,681 HOUGANG AVENUE 8 530681,1.37297840263115,103.885679159796,A+FFORDABLE CLINIC (HOUGANG) 681 HOUGANG AVENUE 8,ChIJrwvUueYX2jERtiXiYCt8DW8,0.0,0.0,0.0,3.4731896551724164
42,A1 Medical Clinic,CHAS Clinic,418 BEDOK NORTH AVENUE 2 460418,1.32856421162809,103.930036524412,A1 Medical Clinic 418 BEDOK NORTH AVENUE 2,ChIJEX20Y3s92jERNK5KRZhRZiQ,43.0,5.0,0.029231815091774305,3.5178210928526243
43,ABLE MEDICAL,CHAS Clinic,201D TAMPINES STREET 21 524201,1.35226231434834,103.953586491461,ABLE MEDICAL 201D TAMPINES STREET 21,ChIJ____Pxs92jERCa9qVe2Vh_A,35.0,3.1,0.02379333786539769,3.4643102276190274
44,ACMS MEDICAL CLINIC,CHAS Clinic,1 GRANGE ROAD 239693,1.30139878843175,103.837359153263,ACMS MEDICAL CLINIC 1 GRANGE ROAD,ChIJNUA7F5EZ2jEReRcnEx5pq68,14.0,3.9,0.009517335146159076,3.477251752267988
45,ACUMED MEDICAL GROUP,CHAS Clinic,16 COLLYER QUAY 049318,1.28418785545188,103.852547365584,ACUMED MEDICAL GROUP 16 COLLYER QUAY,ChIJK5DQPWQZ2jERV9bB1KLc23s,12.0,3.3,0.008157715839564922,3.4717768231791672
46,ACUMED MEDICAL GROUP,CHAS Clinic,1 JURONG WEST CENTRAL 2 648886,1.33945271688955,103.706685012636,ACUMED MEDICAL GROUP 1 JURONG WEST CENTRAL 2,ChIJmRnrx-wP2jERwiEreLONpqU,28.0,3.1,0.019034670292318152,3.4660861131297054
47,ACUMED MEDICAL GROUP,CHAS Clinic,38 TEBAN GARDENS ROAD 600038,1.32113896653504,103.742787643586,ACUMED MEDICAL GROUP 38 TEBAN GARDENS ROAD,ChIJ7al2zKUa2jER23XNvaMbc1g,14.0,2.6,0.009517335146159076,3.4648792165779816
48,ACUMED MEDICAL GROUP,CHAS Clinic,111 WOODLANDS STREET 13 730111,1.43794381737826,103.782059433299,ACUMED MEDICAL GROUP 111 WOODLANDS STREET 13,ChIJGVn5vVIS2jERE8Uxk5gOO34,13.0,2.2,0.008837525492861998,3.461937809137582
49,ACUMED MEDICAL GROUP,CHAS Clinic,64 YUNG KUANG ROAD 610064,1.33237347600046,103.722451247982,ACUMED MEDICAL GROUP 64 YUNG KUANG ROAD,ChIJJxLa-vsP2jERNKhcxWlQjuQ,28.0,3.0,0.019034670292318152,3.464182646100473
50,ACUMED MEDICAL GROUP,CHAS Clinic,71 PIONEER ROAD 639591,1.31715448633568,103.652226413178,ACUMED MEDICAL GROUP 71 PIONEER ROAD,ChIJTcHyPMgF2jERHQXIRylpt1w,5.0,3.4,0.003399048266485384,3.4729408800018775
51,ACUMED MEDICAL GROUP,CHAS Clinic,14 TUAS AVENUE 1 639499,1.32148166492796,103.66095280564,ACUMED MEDICAL GROUP 14 TUAS AVENUE 1,ChIJgZoTymQF2jERLS3n0vVuLME,0.0,0.0,0.0,3.4731896551724164
52,ADIDAH FAMILY CLINIC & SURGERY,CHAS Clinic,821 TAMPINES ST 81 520821,1.34841976695403,103.934649103244,ADIDAH FAMILY CLINIC & SURGERY 821 TAMPINES ST 81,ChIJGyKGd2s92jERkONG-pVSU80,2.0,3.5,0.0013596193065941536,3.473226107034861
53,ADMIRALTY FAMILY MEDICAL CLINIC,CHAS Clinic,693 WOODLANDS AVENUE 6 730693,1.43808788035983,103.80376495913,ADMIRALTY FAMILY MEDICAL CLINIC 693 WOODLANDS AVENUE 6,ChIJg_ysn3UT2jERMC40IofSfkc,30.0,3.2,0.020394289598912305,3.467618146229403
54,ADVANCE CLINIC & SURGERY PTE LTD,CHAS Clinic,301 UBI AVE 1 400301,1.33068802483318,103.901953041118,ADVANCE CLINIC & SURGERY PTE LTD 301 UBI AVE 1,ChIJV3uiq_AX2jERfKRJBRcWfPM,29.0,1.9,0.01971447994561523,3.4421750392648702
55,AE Medical Clinic,CHAS Clinic,467B FERNVALE LINK 792467,1.39807105477126,103.877933381804,AE Medical Clinic 467B FERNVALE LINK,ChIJISx5uHkW2jERnskNoJPMos4,23.0,4.6,0.01563562202583277,3.490808035818939
56,AIDAN MEDICAL CLINIC,CHAS Clinic,539 BEDOK NORTH STREET 3 460539,1.33131386611754,103.925307290309,AIDAN MEDICAL CLINIC 539 BEDOK NORTH STREET 3,ChIJBWrIOb892jER_PRa6ViCneU,9.0,5.0,0.006118286879673691,3.4825311188729255
57,ALEXANDRA FAMILY CLINIC & SURGERY,CHAS Clinic,57 DAWSON ROAD 142057,1.29270339832463,103.810958956801,ALEXANDRA FAMILY CLINIC & SURGERY 57 DAWSON ROAD,ChIJiZI9ky0a2jERijIarTug2xQ,25.0,4.1,0.01699524133242692,3.4838424482524233
58,ALLIANCE CLINIC AND PARTNERS PTE LTD,CHAS Clinic,652 JALAN TENAGA 410652,1.33269651937702,103.907742997146,ALLIANCE CLINIC AND PARTNERS PTE LTD 652 JALAN TENAGA,ChIJUe4FkPsX2jERS3QgBmQFl30,14.0,2.2,0.009517335146159076,3.4610722825195177
59,AMDA International Peace Clinic,CHAS Clinic,9 TAMAN SERASI 257720,1.30847204130269,103.819135632329,AMDA International Peace Clinic 9 TAMAN SERASI,ChIJsw56sY0Z2jERqbzoUzA3Gko,28.0,3.7,0.019034670292318152,3.477506915305096
60,AMITY MEDICAL CLINIC & DENTAL SURGERY,CHAS Clinic,371 BT BATOK ST 31 650371,1.35925940880518,103.75069463099,AMITY MEDICAL CLINIC & DENTAL SURGERY 371 BT BATOK ST 31,ChIJIff4EjYQ2jERS8qhFrCZ69A,11.0,3.9,0.007477906186267845,3.4763813028903656
61,AMK FAMILY CLINIC PTE LTD,CHAS Clinic,51 ANG MO KIO AVE 3 569922,1.36929729659109,103.847159445411,AMK FAMILY CLINIC PTE LTD 51 ANG MO KIO AVE 3,ChIJFx0aKOcW2jERMjq2KwXy4Ew,36.0,3.2,0.024473147518694765,3.4665038444408003
62,AMPM FAMILY CLINIC & SURGERY PTE. LTD.,CHAS Clinic,123 TOA PAYOH LOR 1 310123,1.33864901778038,103.845703844549,AMPM FAMILY CLINIC & SURGERY PTE. LTD. 123 TOA PAYOH LOR 1,ChIJw6kAz2kX2jERB-DqHg6P0DA,13.0,3.9,0.008837525492861998,3.4769616024754475
63,ANG MO KIO MEDICAL CENTRE,CHAS Clinic,157 ANG MO KIO AVE 4 560157,1.37530562129984,103.839395071325,ANG MO KIO MEDICAL CENTRE 157 ANG MO KIO AVE 4,ChIJK7WoYsMW2jERMjz_9P49dwU,65.0,4.9,0.04418762746430999,3.536237019151881
64,ANSARI FAMILY CLINIC & SURGERY,CHAS Clinic,78 LORONG  25A GEYLANG ROAD 388259,1.31592240672591,103.883338697356,ANSARI FAMILY CLINIC & SURGERY 78 LORONG  25A GEYLANG ROAD,ChIJAQAAMDsY2jEReidYKQRLoU4,64.0,2.7,0.043507817811012914,3.4395498605218155
65,APEX CLINIC & SURGERY,CHAS Clinic,844 YISHUN ST 81 760844,1.41562517359593,103.835446503405,APEX CLINIC & SURGERY 844 YISHUN ST 81,ChIJXUTTjhEU2jERQha4BXoGirM,9.0,4.2,0.006118286879673691,3.4776364893691865
66,APEX CLINIC & SURGERY,CHAS Clinic,306 WOODLANDS ST 31 730306,1.42992991950792,103.774636554647,APEX CLINIC & SURGERY 306 WOODLANDS ST 31,ChIJ____p1IS2jERFTqHJaIA9AY,19.0,4.4,0.01291638341264446,3.4851606929370145
67,APEX MEDICAL CENTRE (JURONG) PTE LTD,CHAS Clinic,960 JURONG WEST ST 92 640960,1.34138531152671,103.691459639169,APEX MEDICAL CENTRE (JURONG) PTE LTD 960 JURONG WEST ST 92,ChIJRz0LZJkP2jERN4tYjdD88WQ,16.0,3.8,0.010876954452753228,3.4767443564077944
68,AR-Raudhah Medical Clinic and Surgery Pte Ltd,CHAS Clinic,372 BUKIT BATOK STREET 31 650372,1.35866916669751,103.751213742333,AR-Raudhah Medical Clinic and Surgery Pte Ltd 372 BUKIT BATOK STREET 31,ChIJWSwxFzYQ2jERcDY_nn7DVyo,23.0,4.4,0.01563562202583277,3.487680911413772
69,ARCADIA CLINIC,CHAS Clinic,2 PANDAN VALLEY 597626,1.32044171174532,103.778972458718,ARCADIA CLINIC 2 PANDAN VALLEY,ChIJabmqUXwa2jERBUii-vz1R3o,20.0,4.5,0.013596193065941536,3.487150366862798
70,ASIAMEDIC WELLNESS ASSESSMENT CENTRE,CHAS Clinic,350 ORCHARD ROAD 238868,1.30580981572661,103.831507365278,ASIAMEDIC WELLNESS ASSESSMENT CENTRE 350 ORCHARD ROAD,ChIJjWaJoI0Z2jER9M2tbuCAZWE,100.0,4.0,0.06798096532970768,3.509002730959472
71,ASPEN CLINIC,CHAS Clinic,283 BISHAN STREET 22 570283,1.35891907140489,103.844748631654,ASPEN CLINIC 283 BISHAN STREET 22,ChIJIUkbqhgX2jERuGi1fXJQeY0,35.0,2.3,0.02379333786539769,3.4452755573267093
72,ASSOCIATE DISPENSARIES,CHAS Clinic,94 TOA PAYOH LOR 4 310094,1.33889442806175,103.849538318462,ASSOCIATE DISPENSARIES 94 TOA PAYOH LOR 4,ChIJaRJhO2kX2jERd-V_K1jNask,1.0,2.0,0.0006798096532970768,3.472188166623693
73,ASSURANCE MEDICARE CLINIC AND SURGERY,CHAS Clinic,370 TANJONG KATONG ROAD 437127,1.30288819409101,103.896729088429,ASSURANCE MEDICARE CLINIC AND SURGERY 370 TANJONG KATONG ROAD,ChIJ1wNt_msY2jERAInNTyZp7tM,23.0,3.3,0.01563562202583277,3.4704817271853563
74,ATLAS PACIFIC MEDICAL,CHAS Clinic,428 RIVER VALLEY ROAD 248327,1.29446098576164,103.827620903348,ATLAS PACIFIC MEDICAL 428 RIVER VALLEY ROAD,ChIJRTjcHIQZ2jERIlUMIvhyh-s,30.0,4.6,0.020394289598912305,3.4961701516678803
75,ATRIO FAMILY CLINIC (AMK) PTE. LTD.,CHAS Clinic,532 ANG MO KIO AVENUE 10 560532,1.37380851529933,103.854594160953,ATRIO FAMILY CLINIC (AMK) PTE. LTD. 532 ANG MO KIO AVENUE 10,ChIJGTczjO8W2jERGYJW3OLmQyM,28.0,3.8,0.019034670292318152,3.479410382334328
76,Acacia Medical Clinic,CHAS Clinic,180 DEPOT ROAD 109684,1.28220135432784,103.803023755955,Acacia Medical Clinic 180 DEPOT ROAD,ChIJgQkh3Mgb2jER4JyUIHj648k,19.0,4.3,0.01291638341264446,3.48386905459575
77,AcuMed Medical Group,CHAS Clinic,301 BOON LAY WAY 649846,1.33845148863534,103.70592708661,AcuMed Medical Group 301 BOON LAY WAY,ChIJr-kR6OwP2jERrIaMsBlNn1c,18.0,3.0,0.012236573759347382,3.4673994350547392
78,AcuMed Medical Group,CHAS Clinic,214 Bedok North Street 1 460214,1.32587565153874,103.932493034946,AcuMed Medical Group 214 Bedok North Street 1,ChIJ0Q7xSks92jERemmbPKn_zg4,33.0,2.8,0.022433718558803536,3.4580875079115807
79,AcuMed Medical Group,CHAS Clinic,215C COMPASSVALE DRIVE 543215,1.38977026270373,103.892787161386,AcuMed Medical Group 215C COMPASSVALE DRIVE,ChIJD7Qe4RIW2jERd9xUCvcdy8s,20.0,4.6,0.013596193065941536,3.4885099861693925
80,Acumed Medical Group,CHAS Clinic,1 JOO KOON CIRCLE 629117,1.32561767794228,103.678409741881,Acumed Medical Group 1 JOO KOON CIRCLE,ChIJ9e3t90sF2jERFcR33s3hrac,8.0,2.5,0.005438477226376614,3.467896985395816
81,Acumed Medical Group,CHAS Clinic,128 TUAS SOUTH AVENUE 3 637370,1.28909462597839,103.626524577792,Acumed Medical Group 128 TUAS SOUTH AVENUE 3,ChIJq6rqvIcG2jERWygyIZVET-I,3.0,2.3,0.0020394289598912306,3.4707970182142134
82,Affinity Medical Clinic,CHAS Clinic,253 SERANGOON CENTRAL DRIVE 550253,1.35403939788243,103.870851534198,Affinity Medical Clinic 253 SERANGOON CENTRAL DRIVE,ChIJS-ujxkEX2jERgu9clfcvaKQ,21.0,3.1,0.014276002719238613,3.4678619986403834
83,"Allergy, Arthritis & Rheumatism Clinic",CHAS Clinic,1 FARRER PARK STATION ROAD 217562,1.31247324146379,103.853929522028,"Allergy, Arthritis & Rheumatism Clinic 1 FARRER PARK STATION ROAD",ChIJr57ad8YZ2jERAvlKobHmC5E,1.0,1.0,0.0006798096532970768,3.471508356970396
84,Allhealth Family Clinic,CHAS Clinic,872C TAMPINES STREET 86 523872,1.35524290247104,103.931623628634,Allhealth Family Clinic 872C TAMPINES STREET 86,ChIJM2cQ93E92jERJa1cc6yHujY,26.0,4.2,0.017675050985723997,3.4860360650741957
85,Ally Health,CHAS Clinic,46-2 COMMONWEALTH DRIVE 140462,1.29996199426431,103.798227586733,Ally Health 46-2 COMMONWEALTH DRIVE,ChIJYz9rMcsb2jERshO2J5ihWuc,0.0,0.0,0.0,3.4731896551724164
86,Ang Mo Kio Family Medicine Clinic,CHAS Clinic,4190 ANG MO KIO AVENUE 6 569841,1.37193728999032,103.845949440183,Ang Mo Kio Family Medicine Clinic 4190 ANG MO KIO AVENUE 6,ChIJ7VF9MeYW2jER6G15kLhhCfA,17.0,2.7,0.011556764106050306,3.4642540847183505
87,Anteh Dispensary Pte Ltd,CHAS Clinic,1 LORONG 22 GEYLANG 398664,1.31277604579897,103.882455638548,Anteh Dispensary Pte Ltd 1 LORONG 22 GEYLANG,ChIJMVM176MZ2jERIOwtili8GAc,1.0,5.0,0.0006798096532970768,3.474227595583584
88,Apollo Medical Centre,CHAS Clinic,668 CHANDER ROAD 210668,1.30758123998287,103.851478219833,Apollo Medical Centre 668 CHANDER ROAD,ChIJP3_cqbgZ2jERvqll4jbwJf8,46.0,1.7,0.03127124405166554,3.417739808715631
89,Asia HealthPartners,CHAS Clinic,304 ORCHARD ROAD 238863,1.30450610034739,103.833961913411,Asia HealthPartners 304 ORCHARD ROAD,ChIJVVWVbZIZ2jERRRwybi_KrEY,0.0,0.0,0.0,3.4731896551724164
90,Atrio Family Clinic,CHAS Clinic,291 YISHUN STREET 22 760291,1.43576080433402,103.836723874387,Atrio Family Clinic 291 YISHUN STREET 22,ChIJ6_kCo2MU2jERSyLbheJS4hU,100.0,3.3,0.06798096532970768,3.4614160552286766
91,B S CHEW CLINIC,CHAS Clinic,252 JURONG EAST ST 24 600252,1.34302644245795,103.738145286322,B S CHEW CLINIC 252 JURONG EAST ST 24,ChIJdz5jpRkQ2jERIZDw_lP2Ecg,14.0,3.0,0.009517335146159076,3.468686150636445
92,B T GOH FAMILY CLINIC & SURGERY,CHAS Clinic,194 KIM KEAT AVE 310194,1.33093933661869,103.858181908966,B T GOH FAMILY CLINIC & SURGERY 194 KIM KEAT AVE,ChIJQdg5jHwX2jERmDNvZy032Wo,8.0,5.0,0.005438477226376614,3.4814931784617578
93,BALKIS FAMILY CLINIC,CHAS Clinic,631 BEDOK RESERVOIR RD 470631,1.33295923548327,103.914941831149,BALKIS FAMILY CLINIC 631 BEDOK RESERVOIR RD,ChIJnV2g11c92jER5LOYZxRutvs,15.0,3.7,0.010197144799456152,3.475502473100638
94,BEDOK  CENTRAL CLINIC,CHAS Clinic,214 BEDOK NORTH STREET 1 460214,1.32587565153874,103.932493034946,BEDOK  CENTRAL CLINIC 214 BEDOK NORTH STREET 1,ChIJ16j1srQi2jERO6Q9Pix1mJo,15.0,2.5,0.010197144799456152,3.4632658993412906
95,BEDOK CLINIC & SURGERY(Family Medical Centre),CHAS Clinic,17 BEDOK SOUTH RD 460017,1.32014882956642,103.935563486314,BEDOK CLINIC & SURGERY(Family Medical Centre) 17 BEDOK SOUTH RD,ChIJEfeDQrYi2jERj5gDp7JpZFs,28.0,1.5,0.019034670292318152,3.435630640661996
96,BEDOK LIFE CLINIC,CHAS Clinic,123 BEDOK NORTH ST 2 460123,1.32919868633173,103.937343348132,BEDOK LIFE CLINIC 123 BEDOK NORTH ST 2,ChIJSxyidko92jERJEbi8VmLaIU,9.0,4.7,0.006118286879673691,3.4806956328090233
97,BEDOK MEDICAL CENTRE,CHAS Clinic,18 BEDOK SOUTH RD 460018,1.3206250489608,103.934734222327,BEDOK MEDICAL CENTRE 18 BEDOK SOUTH RD,ChIJSeYkiLYi2jERcub6M0_wmH0,10.0,4.0,0.006798096532970768,3.476770962751122
98,BISHAN GRACE CLINIC,CHAS Clinic,150 BISHAN STREET 11 570150,1.34452706925104,103.855213610026,BISHAN GRACE CLINIC 150 BISHAN STREET 11,ChIJRfBZSG0X2jER24iGo_Ng4yM,23.0,4.6,0.01563562202583277,3.490808035818939
99,BL MEDICAL ASSOCIATES,CHAS Clinic,2 SCIENCE PARK DRIVE 118222,1.29076149231466,103.784855036241,BL MEDICAL ASSOCIATES 2 SCIENCE PARK DRIVE,ChIJd8eLS00a2jERyyMOo3i9s1I,12.0,4.7,0.008157715839564922,3.4831976253545585
100,BOK FAMILY CLINIC  PTE LTD,CHAS Clinic,117 BEDOK RESERVOIR ROAD 470117,1.33141324887407,103.908688936297,BOK FAMILY CLINIC  PTE LTD 117 BEDOK RESERVOIR ROAD,ChIJs0ToB_wX2jERtYGETZwO9ro,23.0,3.2,0.01563562202583277,3.4689181649827727
101,BOON KENG CLINIC & SURGERY,CHAS Clinic,11 UPPER BOON KENG RD 380011,1.31423937057055,103.870914031071,BOON KENG CLINIC & SURGERY 11 UPPER BOON KENG RD,ChIJxbN--C0Y2jERFzppSWVfxsc,60.0,4.3,0.04078857919782461,3.506914074403997
102,BOON LAY CENTRAL CLINIC,CHAS Clinic,221 BOON LAY PLACE 640221,1.3463481965558,103.712429315355,BOON LAY CENTRAL CLINIC 221 BOON LAY PLACE,ChIJgV8MAw4P2jERerqQ3X8WwMU,695.0,4.3,0.4724677090414684,3.863830844604891
103,BOON LAY CLINIC & SURGERY,CHAS Clinic,221 BOON LAY PLACE 640221,1.3463481965558,103.712429315355,BOON LAY CLINIC & SURGERY 221 BOON LAY PLACE,ChIJPSMAG8IP2jERoLYYiWdY54o,28.0,2.4,0.019034670292318152,3.4527618439250825
104,BOON LAY CORPORATION CLINIC,CHAS Clinic,350 JURONG EAST AVENUE 1 600350,1.34404941870857,103.731255559658,BOON LAY CORPORATION CLINIC 350 JURONG EAST AVENUE 1,ChIJYcu2rh8Q2jERnILUbM8iI0s,40.0,3.9,0.027192386131883073,3.4847956468740504
105,BOSTON MEDICAL,CHAS Clinic,119 ALJUNIED AVENUE 2 380119,1.32012887334325,103.886058091098,BOSTON MEDICAL 119 ALJUNIED AVENUE 2,ChIJV29mdiMY2jER93r9W8TufwQ,22.0,2.6,0.01495581237253569,3.4601303945240183
106,BUKIT BATOK MEDICAL CLINIC,CHAS Clinic,207 BUKIT BATOK ST 21 650207,1.3462486617594,103.749382188619,BUKIT BATOK MEDICAL CLINIC 207 BUKIT BATOK ST 21,ChIJd1fgWrgP2jERlap_6Q_lUZI,10.0,1.8,0.006798096532970768,3.461815150378586
107,BUKIT TIMAH CLINIC,CHAS Clinic,621A BUKIT TIMAH ROAD 269731,1.3245755173538,103.809058595403,BUKIT TIMAH CLINIC 621A BUKIT TIMAH ROAD,ChIJrUJNYgga2jER6gUTkMIozOI,23.0,2.3,0.01563562202583277,3.454846105159523
108,BUKIT TIMAH NAM SANG  CLINIC,CHAS Clinic,80 JLN JURONG KECHIL 598591,1.34055525010784,103.773237589356,BUKIT TIMAH NAM SANG  CLINIC 80 JLN JURONG KECHIL,ChIJA7waJWIQ2jERnFzqfDqnc8E,16.0,4.5,0.010876954452753228,3.4843582245247218
109,Banyan Clinic Pte Ltd.,CHAS Clinic,768 Woodlands Avenue 6 730768,1.44562290748789,103.798140993881,Banyan Clinic Pte Ltd. 768 Woodlands Avenue 6,ChIJgxzhp9wP2jERmgXuBkjyTEs,31.0,3.2,0.02107409925220938,3.467432429264636
110,Beo Crescent Clinic & Surgery,CHAS Clinic,40 Beo Crescent 160040,1.28905789113721,103.827513018591,Beo Crescent Clinic & Surgery 40 Beo Crescent,ChIJtXrCqngZ2jERAyEqSpY-QLk,12.0,4.3,0.008157715839564922,3.4799345390187324
111,Bethesda Medical Centre,CHAS Clinic,3 TEMASEK BOULEVARD 038983,1.29593189474123,103.859014406987,Bethesda Medical Centre 3 TEMASEK BOULEVARD,ChIJ20X__K4Z2jERUiVVBmiKTtY,76.0,3.2,0.05166553365057784,3.459075165850116
112,Bless Medical Centre Pte Ltd,CHAS Clinic,221 BOON LAY PLACE 640221,1.3463481965558,103.712429315355,Bless Medical Centre Pte Ltd 221 BOON LAY PLACE,ChIJE6IhD8IP2jERAiMiDYC3a84,27.0,2.9,0.018354860639021073,3.462668838931998
113,Braddell Family Clinic,CHAS Clinic,124 LORONG 1 TOA PAYOH 310124,1.33864876707252,103.844627301844,Braddell Family Clinic 124 LORONG 1 TOA PAYOH,ChIJI0IR8asX2jERbDRs90SsbXg,28.0,3.9,0.019034670292318152,3.4813138493635596
114,C & K FAMILY CLINIC PTE LTD,CHAS Clinic,108 UPPER EAST COAST ROAD 455297,1.31316934216382,103.92930519829,C & K FAMILY CLINIC PTE LTD 108 UPPER EAST COAST ROAD,ChIJNwhUn7si2jERM32UoBYD7Hk,52.0,2.3,0.03535010197144799,3.431717281230224
115,C H TAN MEDICAL CLINIC & DENTAL SURGERY,CHAS Clinic,177 BT BATOK WEST AVE 8 650177,1.34634407478636,103.741742087355,C H TAN MEDICAL CLINIC & DENTAL SURGERY 177 BT BATOK WEST AVE 8,ChIJ2X_mXD0Q2jERuQ5PDO6gVkw,7.0,3.9,0.004758667573079538,3.4752207037202023
116,C K TAN FAMILY CLINIC & SURGERY PTE LTD,CHAS Clinic,125 TOA PAYOH LOR 1 310125,1.33833133425818,103.845737117486,C K TAN FAMILY CLINIC & SURGERY PTE LTD 125 TOA PAYOH LOR 1,ChIJ-82F0mkX2jER9G5fzoJbi54,9.0,4.1,0.006118286879673691,3.477024660681219
117,C Y KOK CLINIC & SURGERY,CHAS Clinic,157 ANG MO KIO AVE 4 560157,1.37530562129984,103.839395071325,C Y KOK CLINIC & SURGERY 157 ANG MO KIO AVE 4,ChIJyWk5cMMW2jERRHngLdnc1nM,5.0,3.4,0.003399048266485384,3.4729408800018775
118,C.M.C. WONG BINJAI CLINIC,CHAS Clinic,15 BINJAI PARK 589824,1.33622384171884,103.786854059334,C.M.C. WONG BINJAI CLINIC 15 BINJAI PARK,ChIJ_0ajAZAQ2jERllB71XTa6xg,8.0,4.5,0.005438477226376614,3.478773939848569
119,C3 Family Clinic @Aljunied Crescent,CHAS Clinic,95 ALJUNIED CRESCENT 380095,1.32170328990751,103.886195689055,C3 Family Clinic @Aljunied Crescent 95 ALJUNIED CRESCENT,ChIJSQXO3yMY2jERtqShKe4-fVE,32.0,2.5,0.021753908905506457,3.4520189760660145
120,CARE MEDICAL PTE LTD,CHAS Clinic,683 HOUGANG AVE 8 530683,1.37331270083797,103.886367847372,CARE MEDICAL PTE LTD 683 HOUGANG AVE 8,ChIJ-2X3HEYW2jERoMErWUKMWn8,16.0,3.6,0.010876954452753228,3.474568965517244
121,CARITAS CLINIC,CHAS Clinic,304 UBI AVE 1 400304,1.32955256814021,103.901228610039,CARITAS CLINIC 304 UBI AVE 1,ChIJjVbAa_cX2jERr5pYjDnNC-M,16.0,3.7,0.010876954452753228,3.4756566609625192
122,CASHEW MEDICAL & SURGERY,CHAS Clinic,445 FAJAR RD 670445,1.38358044593591,103.77076830515,CASHEW MEDICAL & SURGERY 445 FAJAR RD,ChIJY4ZiXJ8R2jERMKVZ8peyTAs,54.0,1.7,0.036709721278042146,3.4080963571579295
123,CASSIA CLINIC & SURGERY,CHAS Clinic,34 CASSIA CRESCENT 390034,1.30964078460585,103.884471780069,CASSIA CLINIC & SURGERY 34 CASSIA CRESCENT,ChIJGQC12zgY2jERDbgb_KT33yQ,14.0,4.2,0.009517335146159076,3.480106952811836
124,CCK FAMILY CLINIC,CHAS Clinic,304 CHOA CHU KANG AVE 4 680304,1.38449608058333,103.743145847094,CCK FAMILY CLINIC 304 CHOA CHU KANG AVE 4,ChIJn0X2M-gR2jERiNAg08R15TM,65.0,2.3,0.04418762746430999,3.421349187744675
125,CECILIA FAMILY CLINIC & SURGERY,CHAS Clinic,484 TAMPINES ST 43 520484,1.36189785903603,103.952639447158,CECILIA FAMILY CLINIC & SURGERY 484 TAMPINES ST 43,ChIJ8aqNDgc92jER64eJ7Mlf5Bs,14.0,2.0,0.009517335146159076,3.459168815490286
126,CENTRAL 24-HR CLINIC (BEDOK),CHAS Clinic,219 BEDOK CENTRAL 460219,1.32496457671995,103.932948087726,CENTRAL 24-HR CLINIC (BEDOK) 219 BEDOK CENTRAL,ChIJR3VqvrQi2jERPJKJUjZmKFY,213.0,1.4,0.14479945615227735,3.172992920602923
127,CENTRAL 24-HR CLINIC (CLEMENTI),CHAS Clinic,450 Clementi Ave 3 120450,1.31353886094619,103.765476305113,CENTRAL 24-HR CLINIC (CLEMENTI) 450 Clementi Ave 3,ChIJLRgm1I0a2jER056txf2zC6o,159.0,1.4,0.10808973487423522,3.2490991350008227
128,CENTRAL 24-HR CLINIC (HOUGANG),CHAS Clinic,681 HOUGANG AVE 8 530681,1.37297840263115,103.885679159796,CENTRAL 24-HR CLINIC (HOUGANG) 681 HOUGANG AVE 8,ChIJQ0p_ukgW2jER1q8Ez8G1izo,197.0,1.5,0.13392250169952413,3.208935160224105
129,CENTRAL 24-HR CLINIC (MARSILING),CHAS Clinic,303 WOODLANDS STREET 31 730303,1.43079961597954,103.774011078502,CENTRAL 24-HR CLINIC (MARSILING) 303 WOODLANDS STREET 31,ChIJhWwGI6sT2jERYstIFBYYQGk,31.0,2.2,0.02107409925220938,3.4463583300124268
130,CENTRAL 24-HR CLINIC (PASIR RIS),CHAS Clinic,446 PASIR RIS DRIVE 6 510446,1.37030619330386,103.957726864829,CENTRAL 24-HR CLINIC (PASIR RIS) 446 PASIR RIS DRIVE 6,ChIJ_68zTaw92jER1Lb0MkEeiFg,162.0,1.3,0.11012916383412645,3.233858095595305
131,CENTRAL 24-HR CLINIC (TAMPINES),CHAS Clinic,201D TAMPINES STREET 21 524201,1.35226231434834,103.953586491461,CENTRAL 24-HR CLINIC (TAMPINES) 201D TAMPINES STREET 21,ChIJke0HpbM92jER7VTM5zGqOpg,63.0,1.4,0.04282800815771584,3.3843990717082004
132,CENTRAL 24-HR CLINIC (WOODLANDS),CHAS Clinic,768 WOODLANDS AVENUE 6 730768,1.44562290748789,103.798140993881,CENTRAL 24-HR CLINIC (WOODLANDS) 768 WOODLANDS AVENUE 6,ChIJRws40gwT2jER3cH0xLGxgnM,133.0,1.4,0.09041468388851122,3.2857428678590708
133,CENTRAL 24-HR CLINIC (YISHUN),CHAS Clinic,701A YISHUN AVE 5 761701,1.4298784547931,103.827943218947,CENTRAL 24-HR CLINIC (YISHUN) 701A YISHUN AVE 5,ChIJcxcJBnoU2jEROypHKYD1l54,191.0,1.3,0.12984364377974167,3.1910147917203897
134,CENTRAL MEDICAL GROUP PTE LTD,CHAS Clinic,11 JALAN BUKIT MERAH 150011,1.28662190371744,103.808963346658,CENTRAL MEDICAL GROUP PTE LTD 11 JALAN BUKIT MERAH,ChIJx06ons0b2jERIY-nOpik78s,10.0,4.6,0.006798096532970768,3.480849820670904
135,CHAI CHEE CLINIC & SURGERY,CHAS Clinic,25A CHAI CHEE RD 461025,1.32328959901597,103.924149637094,CHAI CHEE CLINIC & SURGERY 25A CHAI CHEE RD,ChIJbUKMpK0i2jERbQxO_YMzlRk,11.0,4.4,0.007477906186267845,3.4801202559834996
136,CHAN FAMILY CLINIC,CHAS Clinic,865 MOUNTBATTEN ROAD 437844,1.30409731167599,103.901515916912,CHAN FAMILY CLINIC 865 MOUNTBATTEN ROAD,ChIJeeTQwG0Y2jERqwgkGUOlJ4g,30.0,5.0,0.020394289598912305,3.5043278675074454
137,CHANG CLINIC,CHAS Clinic,1 JLN ANAK BUKIT 588996,1.3387593077272,103.77860007818,CHANG CLINIC 1 JLN ANAK BUKIT,ChIJf05zA4kQ2jEREDmCJdXa5tQ,13.0,3.2,0.008837525492861998,3.470775334630444
138,CHANG CLINIC & SURGERY,CHAS Clinic,7 EVERTON PARK 080007,1.27692435181046,103.838679504053,CHANG CLINIC & SURGERY 7 EVERTON PARK,ChIJtwBAKWwZ2jERWddJ0m-zkV8,8.0,4.4,0.005438477226376614,3.4782300921259317
139,CHARIS CLINIC & SURGERY,CHAS Clinic,164 TAMPINES ST 12 521164,1.3496215147162,103.9460006915,CHARIS CLINIC & SURGERY 164 TAMPINES ST 12,ChIJIRHhKxE92jERKeN_-mVXd4k,33.0,2.6,0.022433718558803536,3.45360076419982
140,GOH CLINIC + SURGERY,CHAS Clinic,283 BT BATOK EAST AVE 3 650283,1.34694365739119,103.757539380941,GOH CLINIC + SURGERY 283 BT BATOK EAST AVE 3,ChIJH1-UjkEQ2jERi3lUpAYxgyA,8.0,4.4,0.005438477226376614,3.4782300921259317
141,GOODDOCTORS MEDICAL CLINIC,CHAS Clinic,18 YISHUN AVENUE 9 768897,1.43312284024159,103.841660985807,GOODDOCTORS MEDICAL CLINIC 18 YISHUN AVENUE 9,ChIJf36Oz18U2jERi0DZxsUs3zY,61.0,3.0,0.04146838885112169,3.4535672425513986
142,GRACE CLINIC & SURGERY,CHAS Clinic,607 ANG MO KIO AVE 4 560607,1.38046758627437,103.838816721495,GRACE CLINIC & SURGERY 607 ANG MO KIO AVE 4,ChIJJa1wKscW2jER-st3PZkn8rs,3.0,3.3,0.0020394289598912306,3.4728364471741044
143,GREAT HEALTH MEDICAL CLINIC,CHAS Clinic,407 ANG MO KIO AVENUE 10 560407,1.36191347168144,103.855247666969,GREAT HEALTH MEDICAL CLINIC 407 ANG MO KIO AVENUE 10,ChIJQyFYIR0X2jERuZxoGhFBQnk,2.0,2.5,0.0013596193065941536,3.4718664877282666
144,GREEN CROSS MEDICAL CENTRE,CHAS Clinic,824 TAMPINES ST 81 520824,1.34903743492173,103.932714940567,GREEN CROSS MEDICAL CENTRE 824 TAMPINES ST 81,ChIJk4_P8Gs92jERfGEfxIh3xEU,41.0,2.9,0.02787219578518015,3.4572136008814107
145,GREENLIFE CLINIC & SURGERY,CHAS Clinic,11 CANBERRA RD 759775,1.44902668521597,103.820139486431,GREENLIFE CLINIC & SURGERY 11 CANBERRA RD,ChIJDQGkyWIT2jEREKKK8nD13ZY,30.0,1.8,0.020394289598912305,3.439066140790926
146,GREENLIFE CLINIC & SURGERY,CHAS Clinic,624 CHOA CHU KANG STREET 62 680624,1.3980473611046,103.747084778715,GREENLIFE CLINIC & SURGERY 624 CHOA CHU KANG STREET 62,ChIJc4d59vMR2jEReE-z3Zk92Uc,32.0,2.6,0.021753908905506457,3.4541943669565653
147,GREENLINK MEDICAL CLINIC,CHAS Clinic,807 YISHUN RING ROAD 760807,1.41649875780089,103.831578419639,GREENLINK MEDICAL CLINIC 807 YISHUN RING ROAD,ChIJVVVVxQ0U2jER1q6BiTBnLRM,32.0,4.1,0.021753908905506457,3.486825230314825
148,GSH CLINIC & SURGERY PTE. LTD.,CHAS Clinic,9 YIO CHU KANG ROAD 545523,1.35466521856974,103.876883622707,GSH CLINIC & SURGERY PTE. LTD. 9 YIO CHU KANG ROAD,ChIJme01uXM92jERwQWje3FIh5g,33.0,4.5,0.022433718558803536,3.496224829461547
149,Gerrard Teoh Hematology & Medical Clinic,CHAS Clinic,10 SINARAN DRIVE 307506,1.3207051098625,103.844160709873,Gerrard Teoh Hematology & Medical Clinic 10 SINARAN DRIVE,ChIJBQ8UXecZ2jER6gOnWC-8bxI,1.0,5.0,0.0006798096532970768,3.474227595583584
150,GreenForest Family Clinic,CHAS Clinic,878C TAMPINES AVENUE 8 523878,1.35126411242426,103.929363834353,GreenForest Family Clinic 878C TAMPINES AVENUE 8,ChIJ-wW75m492jERt1pErqs2CnM,17.0,3.9,0.011556764106050306,3.478122201645611
151,H S LEE CLINIC & SURGERY,CHAS Clinic,173 YISHUN AVE 7 760173,1.43706628201915,103.831120689791,H S LEE CLINIC & SURGERY 173 YISHUN AVE 7,ChIJAatkBX0U2jERqc74-cTfG4E,29.0,2.1,0.01971447994561523,3.4461179352539935
152,HARMONY FAMILY CLINIC,CHAS Clinic,235 CHOA CHU KANG CENTRAL 680235,1.3797566438487,103.748749195678,HARMONY FAMILY CLINIC 235 CHOA CHU KANG CENTRAL,ChIJyYdlIsER2jERl8vViHlgtCo,28.0,4.4,0.019034670292318152,3.4908311845097186
153,HAVELOCK FAMILY CLINIC,CHAS Clinic,22 HAVELOCK RD 160022,1.28874603715013,103.828824191963,HAVELOCK FAMILY CLINIC 22 HAVELOCK RD,ChIJK4tkpngZ2jERDvG_hgoRiD8,13.0,4.1,0.008837525492861998,3.47872910757402
154,HEAL MEDICAL CENTRE,CHAS Clinic,262 BALESTIER ROAD 329714,1.32213342793662,103.85319966194,HEAL MEDICAL CENTRE 262 BALESTIER ROAD,ChIJq7Xme9kZ2jER6GgADMwc5Ro,0.0,0.0,0.0,3.4731896551724164
155,HEALTH PARTNERS FAMILY CLINIC,CHAS Clinic,1 BT BATOK CENTRAL LINK 658713,1.35001920966652,103.749244800522,HEALTH PARTNERS FAMILY CLINIC 1 BT BATOK CENTRAL LINK,ChIJLYx42D4Q2jERRhaDW13d9_g,37.0,2.9,0.02515295717199184,3.4587722403244356
156,HEALTH PARTNERS MEDICAL CLINIC,CHAS Clinic,100 Cecil Street 069532,1.28113563498683,103.848958253576,HEALTH PARTNERS MEDICAL CLINIC 100 Cecil Street,ChIJP5oL1g0Z2jERhyBQDar1KFA,53.0,4.8,0.03602991162474507,3.5209945146393515
157,HEALTH PARTNERS MEDICAL CLINIC (SIGLAP),CHAS Clinic,23 UPPER EAST COAST ROAD 455289,1.31312677933466,103.926329604059,HEALTH PARTNERS MEDICAL CLINIC (SIGLAP) 23 UPPER EAST COAST ROAD,ChIJ42lgSrsi2jERpRQg0MzCeo8,25.0,4.2,0.01699524133242692,3.4855419723856658
158,HEALTH PARTNERSHIP MEDICAL CENTRE,CHAS Clinic,109 BUKIT PURMEI RD 090109,1.27392939913176,103.825310761058,HEALTH PARTNERSHIP MEDICAL CENTRE 109 BUKIT PURMEI RD,ChIJvTWlEmEZ2jERSDFiv30DTCo,10.0,3.2,0.006798096532970768,3.471332485524745
159,HEALTHBRIDGE FAMILY CLINIC,CHAS Clinic,615A EDGEFIELD PLAINS 821615,1.40386056418231,103.909541012266,HEALTHBRIDGE FAMILY CLINIC 615A EDGEFIELD PLAINS,ChIJMZ-JLQUW2jERi2DbJ-2qBxM,29.0,4.1,0.01971447994561523,3.485546895145224
160,HEALTHCARE FAMILY CLINIC & SURGERY,CHAS Clinic,403 SIN MING AVE 570403,1.36287032246814,103.833604034065,HEALTHCARE FAMILY CLINIC & SURGERY 403 SIN MING AVE,ChIJfVXDNCkX2jEReqJKcSibVj4,19.0,2.2,0.01291638341264446,3.4567446494291967
161,HEALTHCARE MEDICAL @ Kovan,CHAS Clinic,208 HOUGANG STREET 21 530208,1.35869679921108,103.886636110951,HEALTHCARE MEDICAL @ Kovan 208 HOUGANG STREET 21,ChIJkcdBszsX2jERZuQKfJLqths,72.0,4.8,0.04894629503738953,3.538132105769008
162,HEALTHCARE MEDICAL @ RAILMALL,CHAS Clinic,"446 UPPER BUKIT TIMAH ROAD, 678067",1.35960982893863,103.767604074877,"HEALTHCARE MEDICAL @ RAILMALL 446 UPPER BUKIT TIMAH ROAD,",ChIJAS7MY1EQ2jERczZBT9VLEbU,29.0,3.0,0.01971447994561523,3.463860967205047
163,HEALTHIFY MEDICAL FAMILY CLINIC,CHAS Clinic,262 BALESTIER ROAD 329714,1.32213342793662,103.85319966194,HEALTHIFY MEDICAL FAMILY CLINIC 262 BALESTIER ROAD,ChIJiw7rQ0cZ2jERaJjgKYvkFvM,61.0,4.8,0.04146838885112169,3.5282103424834173
164,HEALTHLINE FAMILY CLINIC & SURGERY PTE. LTD.,CHAS Clinic,25A CHAI CHEE ROAD 461025,1.32328959901597,103.924149637094,HEALTHLINE FAMILY CLINIC & SURGERY PTE. LTD. 25A CHAI CHEE ROAD,ChIJA6IDpK0i2jERpN5rqGB2Xbw,28.0,2.7,0.019034670292318152,3.458472245012778
165,HEALTHLINK (AMK) MEDICAL CENTRE,CHAS Clinic,108 ANG MO KIO AVE 4 560108,1.37096635229769,103.838201939907,HEALTHLINK (AMK) MEDICAL CENTRE 108 ANG MO KIO AVE 4,ChIJ-xEEg9sW2jERUSS5iWPq4yE,21.0,4.1,0.014276002719238613,3.482138001359622
166,HEALTHLINK FAMILY CLINIC & SURGERY,CHAS Clinic,21 GHIM MOH ROAD 270021,1.31010302628844,103.788545950367,HEALTHLINK FAMILY CLINIC & SURGERY 21 GHIM MOH ROAD,ChIJ69fT8Gga2jER3kUMC5lAEDw,11.0,4.6,0.007477906186267845,3.4816158372207533
167,EVERHEALTH MEDICAL CENTRE,CHAS Clinic,540 HOUGANG AVENUE 8 530540,1.37781568096983,103.891282466742,EVERHEALTH MEDICAL CENTRE 540 HOUGANG AVENUE 8,ChIJ6cRSVT8W2jER4YI85huuCEY,3.0,3.7,0.0020394289598912306,3.473652218758061
168,EVERTON CLINIC,CHAS Clinic,7 EVERTON PARK 080007,1.27692435181046,103.838679504053,EVERTON CLINIC 7 EVERTON PARK,ChIJtwBAKWwZ2jERKcGs1sxhUP0,18.0,3.9,0.012236573759347382,3.478412351438152
169,EVERWELL CLINIC & SURGERY,CHAS Clinic,45 OWEN RD 210045,1.31559567557441,103.850825476113,EVERWELL CLINIC & SURGERY 45 OWEN RD,ChIJvcJKnMQZ2jERlZZcYP_IBrc,21.0,4.9,0.014276002719238613,3.493558803535013
170,EXCEL FAMILY CLINIC,CHAS Clinic,21 HOUGANG ST 51 538719,1.37924529078289,103.88783201701,EXCEL FAMILY CLINIC 21 HOUGANG ST 51,ChIJi19V_UAW2jERyv3C6taqb9M,184.0,4.9,0.12508497620666215,3.6516621932065942
171,EXCELSIOR CLINIC & SURGERY,CHAS Clinic,283 BT BATOK EAST AVE 3 650283,1.34694365739119,103.757539380941,EXCELSIOR CLINIC & SURGERY 283 BT BATOK EAST AVE 3,ChIJH1-UjkEQ2jERVZ-ysCPy-yE,15.0,4.1,0.010197144799456152,3.4795813310204204
172,Edgedale Medical Clinic (Cambridge),CHAS Clinic,40 CAMBRIDGE ROAD 210040,1.3159930169211,103.848243054151,Edgedale Medical Clinic (Cambridge) 40 CAMBRIDGE ROAD,ChIJSSqZdcIZ2jER4KmIConCICI,5.0,5.0,0.003399048266485384,3.4783793572282544
173,Elissa Medical Clinic,CHAS Clinic,1 HOUGANG STREET 91 538692,1.37571530662888,103.879472338027,Elissa Medical Clinic 1 HOUGANG STREET 91,ChIJ-Zf4444X2jERRHI5-B5we8g,33.0,3.2,0.022433718558803536,3.4670609953351024
174,Elyon Family Clinic And Surgery,CHAS Clinic,78B TELOK BLANGAH STREET 32 102078,1.27363296004244,103.808335234688,Elyon Family Clinic And Surgery 78B TELOK BLANGAH STREET 32,ChIJWXDXEMMb2jERE15zq5Ma0L0,62.0,4.2,0.04214819850441876,3.5038234018612746
175,Etern Medical Clinic,CHAS Clinic,70 PUNGGOL CENTRAL 828868,1.40454653696814,103.902072622227,Etern Medical Clinic 70 PUNGGOL CENTRAL,ChIJL0ieReMV2jERFEQYCN1VTnM,56.0,2.8,0.038069340584636305,3.447561768911604
176,Etern Medical Clinic (Fernvale Palm),CHAS Clinic,432A SENGKANG WEST WAY 791432,1.39475047621055,103.877202311346,Etern Medical Clinic (Fernvale Palm) 432A SENGKANG WEST WAY,ChIJmeOMUXoW2jERzTUXvMohN9A,18.0,3.8,0.012236573759347382,3.477188694062217
177,Etern Medical Clinic (Sengkang),CHAS Clinic,33 SENGKANG WEST AVENUE 797653,1.39147015412078,103.876125506847,Etern Medical Clinic (Sengkang) 33 SENGKANG WEST AVENUE,ChIJib0vKmUW2jERKha6nIU7XRE,44.0,3.1,0.02991162474507138,3.4620269462481565
178,Eterna Medical Clinic,CHAS Clinic,629 ANG MO KIO AVENUE 4 560629,1.38010475022238,103.840408652686,Eterna Medical Clinic 629 ANG MO KIO AVENUE 4,ChIJA1ToJcEW2jERFYjsPXY3hSA,17.0,4.6,0.011556764106050306,3.486211936519846
179,F K LIM FAMILY CLINIC,CHAS Clinic,267 TAMPINES ST 21 520267,1.3507727878183,103.949259231371,F K LIM FAMILY CLINIC 267 TAMPINES ST 21,ChIJPx0Hdho92jERqr98lSeo65o,20.0,3.8,0.013596193065941536,3.477633031716639
180,FAITH CLINIC (BEDOK),CHAS Clinic,746 BEDOK RESERVOIR ROAD 470746,1.33728644810221,103.921215743798,FAITH CLINIC (BEDOK) 746 BEDOK RESERVOIR ROAD,ChIJw6fAMFo92jERRZq48r8wiG0,50.0,4.7,0.03399048266485384,3.5148895309313417
181,FAITH CLINIC (SIMEI),CHAS Clinic,139 SIMEI ST 1 520139,1.34668351018352,103.956561347989,FAITH CLINIC (SIMEI) 139 SIMEI ST 1,ChIJ6cVJHx892jERN_cMerYPHwQ,68.0,2.7,0.046227056424201225,3.4374473733561524
182,FAITH CLINIC (TOA PAYOH),CHAS Clinic,211 TOA PAYOH LOR 8 310211,1.34042178823098,103.853768900177,FAITH CLINIC (TOA PAYOH) 211 TOA PAYOH LOR 8,ChIJwXwXf24X2jEREsLg508uQlQ,34.0,2.9,0.023113528212100613,3.4599412199067046
183,FAITH CLINIC (YISHUN),CHAS Clinic,598 YISHUN RING ROAD 768698,1.41795288509924,103.841268831273,FAITH CLINIC (YISHUN) 598 YISHUN RING ROAD,ChIJM2bsi-4V2jERhiL9o4uJ9ns,31.0,2.5,0.02107409925220938,3.4526805597880896
184,FAITH FAMILY CLINIC,CHAS Clinic,57 MARINE TERRACE 440057,1.30651257339373,103.91548479998,FAITH FAMILY CLINIC 57 MARINE TERRACE,ChIJW8VV6Z8i2jERu092uTd8Oys,25.0,3.8,0.01699524133242692,3.478743875852695
185,FAITH HEALTHCARE (RIVERVALE),CHAS Clinic,11 RIVERVALE CRESCENT 545082,1.39250411008759,103.904483668484,FAITH HEALTHCARE (RIVERVALE) 11 RIVERVALE CRESCENT,ChIJoQIrNAUW2jERjdBl4yODIkQ,53.0,2.8,0.03602991162474507,3.4489346913898613
186,FAITH HEALTHCARE (TAMPINES),CHAS Clinic,11 TAMPINES STREET 32 529287,1.3545494425702,103.959900188924,FAITH HEALTHCARE (TAMPINES) 11 TAMPINES STREET 32,ChIJMb1frgI92jEROsCONd6Ej2A,48.0,3.8,0.03263086335825969,3.483853758878551
187,FAITH MEDICAL CLINIC & SURGERY,CHAS Clinic,487C TAMPINES ST 45 522487,1.36075820419992,103.957884241959,FAITH MEDICAL CLINIC & SURGERY 487C TAMPINES ST 45,ChIJC7GoAAE92jER5f88pn_CfuQ,33.0,4.8,0.022433718558803536,3.5029549450291877
188,FAJAR FAMILY CLINIC & SURGERY,CHAS Clinic,445 FAJAR ROAD 670445,1.38358044593591,103.77076830515,FAJAR FAMILY CLINIC & SURGERY 445 FAJAR ROAD,ChIJY4ZiXJ8R2jERvJmvsJOZ8Rk,8.0,2.9,0.005438477226376614,3.4700723762863666
189,FAMILY CARE CLINIC & SURGERY,CHAS Clinic,608 ANG MO KIO AVE 5 560608,1.37858210019768,103.836760311656,FAMILY CARE CLINIC & SURGERY 608 ANG MO KIO AVE 5,ChIJQbEJkMYW2jER26WjiE1rQ0Q,11.0,3.2,0.007477906186267845,3.4711467685599784
190,FAMILY CARE CLINIC PTE LTD,CHAS Clinic,415 BT BATOK WEST AVE 4 650415,1.36326877933412,103.746610701854,FAMILY CARE CLINIC PTE LTD 415 BT BATOK WEST AVE 4,ChIJmYLanjQQ2jERf4FTEW9PliA,58.0,4.1,0.03942895989123046,3.4979041351180316
191,FAMILY CARE MEDICAL CENTRE PTE LTD,CHAS Clinic,916 Hougang Ave 9 530916,1.37491294218702,103.884293734337,FAMILY CARE MEDICAL CENTRE PTE LTD 916 Hougang Ave 9,ChIJ31GoyEUW2jERlOShaKPEp3A,16.0,3.6,0.010876954452753228,3.474568965517244
192,FAMILY HEALTH CLINIC,CHAS Clinic,43 Holland Drive 270043,1.3074341112717,103.792897574707,FAMILY HEALTH CLINIC 43 Holland Drive,ChIJrZds90Ea2jERVX7BX7JeWec,18.0,3.9,0.012236573759347382,3.478412351438152
193,FAMILY HEALTH CLINIC & SURGERY,CHAS Clinic,2 BALESTIER ROAD 320002,1.32589620222,103.842935479988,FAMILY HEALTH CLINIC & SURGERY 2 BALESTIER ROAD,ChIJ7yMWNOAZ2jERnlImnvc-oL4,7.0,3.6,0.004758667573079538,3.4737931034482785
194,FAMILY HEALTH MEDICAL CENTRE,CHAS Clinic,226G ANG MO KIO AVE 1 567226,1.36682590272899,103.839861074062,FAMILY HEALTH MEDICAL CENTRE 226G ANG MO KIO AVE 1,ChIJsYg2xd4W2jEREQFJjX7_VWA,18.0,3.2,0.012236573759347382,3.469846749806609
195,CLIFFORD DISPENSARY PTE LTD,CHAS Clinic,50 AIRPORT BOULEVARD 819658,1.34821194016273,103.985459981704,CLIFFORD DISPENSARY PTE LTD 50 AIRPORT BOULEVARD,ChIJ-d-ImpQ82jERkNR8ctf7zVk,1.0,4.0,0.0006798096532970768,3.473547785930287
196,CLIFFORD DISPENSARY PTE LTD,CHAS Clinic,350 ORCHARD ROAD 238868,1.30580981572661,103.831507365278,CLIFFORD DISPENSARY PTE LTD 350 ORCHARD ROAD,ChIJI19dBY0Z2jERpRNWqSXUm_8,14.0,4.4,0.009517335146159076,3.482010419841068
197,CLINIC @ THE SAIL,CHAS Clinic,2 MARINA BOULEVARD 018987,1.28076943496046,103.85265856205,CLINIC @ THE SAIL 2 MARINA BOULEVARD,ChIJlcF4Rw4Z2jERTrQHaJ98jZ8,16.0,3.3,0.010876954452753228,3.471305879181418
198,CLINIC FARIDAH,CHAS Clinic,59 NEW UPPER CHANGI ROAD 461059,1.32405898637368,103.940695612374,CLINIC FARIDAH 59 NEW UPPER CHANGI ROAD,ChIJhQlGBLMi2jERAItattPTvgo,9.0,3.2,0.006118286879673691,3.471518202489513
199,CLINICAL ASSOCIATES MEDICAL CENTRE,CHAS Clinic,137 TECK WHYE LANE 680137,1.38004753002611,103.752483840899,CLINICAL ASSOCIATES MEDICAL CENTRE 137 TECK WHYE LANE,ChIJrUSyZr8R2jER7LajGQbHyaY,22.0,2.3,0.01495581237253569,3.4556436508122577
200,CMY Medical,CHAS Clinic,37 CHAI CHEE AVENUE 461037,1.32544200316618,103.926207634385,CMY Medical 37 CHAI CHEE AVENUE,ChIJ48kvprIi2jERz7gn7-F8yOI,1.0,5.0,0.0006798096532970768,3.474227595583584
201,COMFORT CLINIC & SURGERY,CHAS Clinic,214 SERANGOON AVE 4 550214,1.35732435179355,103.873633486993,COMFORT CLINIC & SURGERY 214 SERANGOON AVE 4,ChIJ0aSxLakX2jERxmblV-vNxSQ,16.0,4.0,0.010876954452753228,3.4789197472983453
202,COMPASSVALE 297A MEDICAL CLINIC,CHAS Clinic,297A COMPASSVALE ST 541297,1.39483596046538,103.900697317522,COMPASSVALE 297A MEDICAL CLINIC 297A COMPASSVALE ST,ChIJP_rjHw8W2jERM9Zp1SHFeag,37.0,2.7,0.02515295717199184,3.4537416488900377
203,COUNTRYSIDE CLINIC AND SURGERY,CHAS Clinic,106 YISHUN RING RD 760106,1.43147861410692,103.827452004281,COUNTRYSIDE CLINIC AND SURGERY 106 YISHUN RING RD,ChIJseMgiHkU2jER7K9q_9JIYb0,26.0,4.2,0.017675050985723997,3.4860360650741957
204,CRAWFURD MEDICAL,CHAS Clinic,3 TEMASEK BOULEVARD 038983,1.29593189474123,103.859014406987,CRAWFURD MEDICAL 3 TEMASEK BOULEVARD,ChIJfbpQ-a4Z2jER2j6zGeCu-rg,50.0,3.9,0.03399048266485384,3.4876971447994585
205,CRESCENT CLINIC &  SURGERY,CHAS Clinic,1A EUNOS CRESCENT 401001,1.32129030506821,103.902727807655,CRESCENT CLINIC &  SURGERY 1A EUNOS CRESCENT,ChIJZTK_VBsY2jERcAkVfO9Z2M8,23.0,4.3,0.01563562202583277,3.486117349211189
206,CREST FAMILY CLINIC PTE. LTD.,CHAS Clinic,724 WOODLANDS AVE 6 730724,1.44466656455938,103.79871304314,CREST FAMILY CLINIC PTE. LTD. 724 WOODLANDS AVE 6,ChIJ9wrOU3MT2jERrEkT4pbTwXs,14.0,3.4,0.009517335146159076,3.472493084694909
207,CROSS STREET MEDICAL CLINIC,CHAS Clinic,531 UPPER CROSS STREET 050531,1.28439238197795,103.846101472114,CROSS STREET MEDICAL CLINIC 531 UPPER CROSS STREET,ChIJ___bVwsZ2jERESA6zWsxa5U,20.0,4.8,0.013596193065941536,3.4912292247825807
208,Calrose Medical Family Clinic,CHAS Clinic,231A SUMANG LANE 821231,1.40205917712603,103.891879097963,Calrose Medical Family Clinic 231A SUMANG LANE,ChIJ6YkDyO8V2jERZJ-DbpUBf4Q,37.0,4.9,0.02515295717199184,3.5090781546684195
209,Camry Medical Centre,CHAS Clinic,95 Toa Payoh Lorong 4 310095,1.33889072192265,103.848993317286,Camry Medical Centre 95 Toa Payoh Lorong 4,ChIJRcsJF2kX2jERxP1yrjhmLn0,11.0,4.2,0.007477906186267845,3.4786246747462464
210,Canberra Care Medical Clinic,CHAS Clinic,120 CANBERRA CRESCENT 750120,1.4456745291262,103.831508132382,Canberra Care Medical Clinic 120 CANBERRA CRESCENT,ChIJEbC2s4UU2jER5mYoIKvF70w,44.0,4.4,0.02991162474507138,3.5009120584167492
211,Care Family Clinic,CHAS Clinic,663 BUFFALO ROAD 210663,1.30568031682027,103.850857725358,Care Family Clinic 663 BUFFALO ROAD,ChIJaUtRzrgZ2jERjx-UYvX9vwM,40.0,4.2,0.027192386131883073,3.4929533627136156
212,Caring Family Clinic,CHAS Clinic,501 JURONG WEST STREET 51 640501,1.34981225393483,103.719222201398,Caring Family Clinic 501 JURONG WEST STREET 51,ChIJDTJhntwP2jERdAfoyqnRwWE,42.0,3.6,0.028552005438477225,3.4768103448275887
213,Central 24-HR Clinic ( Pioneer North ),CHAS Clinic,959 JURONG WEST STREET 92 640959,1.34148123560942,103.690721731343,Central 24-HR Clinic ( Pioneer North ) 959 JURONG WEST STREET 92,ChIJIau6YpkP2jERy16nvniRhjE,60.0,1.4,0.04078857919782461,3.3886271947303053
214,Central 24HR Clinic (Jurong West),CHAS Clinic,492 JURONG WEST STREET 41 640492,1.34994543580238,103.725180466271,Central 24HR Clinic (Jurong West) 492 JURONG WEST STREET 41,ChIJn-CSNZgP2jERB94kuD2Tzss,134.0,1.6,0.09109449354180829,3.3025523922267306
215,Changi Clinic,CHAS Clinic,848 Sims Avenue 400848,1.31720886041624,103.901431784397,Changi Clinic 848 Sims Avenue,ChIJ2w5JohoY2jERu8ZUhmkdJLY,17.0,4.3,0.011556764106050306,3.4827449072880308
216,Chin Medical Clinic,CHAS Clinic,524A JELAPANG ROAD 671524,1.38540569301034,103.766228468168,Chin Medical Clinic 524A JELAPANG ROAD,ChIJ45jIVZgR2jER1czY64AbCRg,25.0,4.8,0.01699524133242692,3.495739117185122
217,Chua & Partners Family Clinic,CHAS Clinic,18 Jalan Membina 164018,1.28569742860668,103.826785447839,Chua & Partners Family Clinic 18 Jalan Membina,ChIJPb_VtX4Z2jERyPAmO63pyQA,82.0,3.4,0.0557443915703603,3.4691097423755854
218,Chua Medical Centre Pte Ltd,CHAS Clinic,248 Simei St 3 520248,1.34359376286677,103.953541142784,Chua Medical Centre Pte Ltd 248 Simei St 3,ChIJ82lKFSI92jER8_ChWAjVT3g,25.0,3.6,0.01699524133242692,3.4753448275862096
219,Chua Medical Clinic And Surgery Pte. Ltd.,CHAS Clinic,642 BUKIT BATOK CENTRAL 650642,1.34900647929724,103.751706683251,Chua Medical Clinic And Surgery Pte. Ltd. 642 BUKIT BATOK CENTRAL,ChIJQTK6suQR2jERFi1_7N79-Zw,12.0,4.3,0.008157715839564922,3.4799345390187324
220,Chung & Ee Medical Clinic,CHAS Clinic,10 TELOK BLANGAH CRESCENT 090010,1.27773153221637,103.819769431776,Chung & Ee Medical Clinic 10 TELOK BLANGAH CRESCENT,ChIJNUdVdVQb2jERhJequCHl5Kg,26.0,4.9,0.017675050985723997,3.498408600764203
221,Circuit Medical Clinic,CHAS Clinic,36 CIRCUIT ROAD 370036,1.32902607935956,103.886930797614,Circuit Medical Clinic 36 CIRCUIT ROAD,ChIJcT9GeJYX2jERam31CfbsfAA,19.0,5.0,0.01291638341264446,3.492910522984601
222,CityGP Family Clinic,CHAS Clinic,122 BEDOK NORTH STREET 2 460122,1.32861719819575,103.937787149156,CityGP Family Clinic 122 BEDOK NORTH STREET 2,ChIJU7W1J_s92jERdTfVw2Is9F8,24.0,4.0,0.016315431679129844,3.4817847933613097
223,CityHealth Clinic & Surgery,CHAS Clinic,152 Beach Road 189721,1.29884087991136,103.859351023904,CityHealth Clinic & Surgery 152 Beach Road,ChIJWbuRMrAZ2jERn-cmE2qH8GY,21.0,2.5,0.014276002719238613,3.45929639700884
224,Clinic@Costa,CHAS Clinic,84 BAYSHORE ROAD 469994,1.31218816522514,103.940116990924,Clinic@Costa 84 BAYSHORE ROAD,ChIJRfgLLMci2jEREBHVdxmI6B0,14.0,4.4,0.009517335146159076,3.482010419841068
225,Clover Medical Clinic Pte Ltd,CHAS Clinic,21 CHOA CHU KANG NORTH 6 689578,1.39706712804272,103.746637430571,Clover Medical Clinic Pte Ltd 21 CHOA CHU KANG NORTH 6,ChIJLUrc7fMR2jERfSqwcIdHeoo,29.0,2.7,0.01971447994561523,3.4579466232213623
226,Cornerstone Medical,CHAS Clinic,29A GHIM MOH LINK 271029,1.30849288053919,103.784598100789,Cornerstone Medical 29A GHIM MOH LINK,ChIJh_XRl-Mb2jERF2z4YfZUimg,15.0,4.7,0.010197144799456152,3.485699617900094
227,Cornerstone Medical Bidadari,CHAS Clinic,106A BIDADARI PARK DRIVE 341106,1.33413900018418,103.871259715426,Cornerstone Medical Bidadari 106A BIDADARI PARK DRIVE,ChIJMfZq0ZYX2jERW4j7vPr7fmY,5.0,5.0,0.003399048266485384,3.4783793572282544
228,Corporation Clinic (Choa Chu Kang),CHAS Clinic,253 Choa Chu Kang Ave 1 680253,1.37736607411235,103.744393648371,Corporation Clinic (Choa Chu Kang) 253 Choa Chu Kang Ave 1,ChIJE2pmQcQR2jER95l78KhGs6Q,2.0,5.0,0.0013596193065941536,3.475265535994752
229,Crossroads Family Clinic,CHAS Clinic,601B TAMPINES AVENUE 9 522601,1.36088277451527,103.937510784032,Crossroads Family Clinic 601B TAMPINES AVENUE 9,ChIJBWxt6rU92jER97GrcnNyatk,19.0,4.4,0.01291638341264446,3.4851606929370145
230,DA CLINIC @ POTONG PASIR,CHAS Clinic,51 UPPER SERANGOON ROAD 347697,1.33149708060439,103.868214025397,DA CLINIC @ POTONG PASIR 51 UPPER SERANGOON ROAD,ChIJY5TPYFcX2jERW_yYO0f2tQk,45.0,3.0,0.030591434398368457,3.458714104878223
231,DA Clinic @ Anson,CHAS Clinic,10 ANSON ROAD 079903,1.27588674304532,103.84592379296,DA Clinic @ Anson 10 ANSON ROAD,ChIJYTliDhQZ2jERE62gbJ-Qj2g,39.0,3.9,0.026512576478585997,3.4845054970815097
232,DA clinic @ Anchorvale,CHAS Clinic,351 ANCHORVALE ROAD 540351,1.39332786576656,103.886617624917,DA clinic @ Anchorvale 351 ANCHORVALE ROAD,ChIJO35ZN88X2jER6_V_9RVBJHA,22.0,3.1,0.01495581237253569,3.4676083007102863
233,DA clinic @ Bukit Batok,CHAS Clinic,451 BUKIT BATOK WEST AVENUE 6 650451,1.35303824914482,103.743948447105,DA clinic @ Bukit Batok 451 BUKIT BATOK WEST AVENUE 6,ChIJJySm8akR2jERGUACxV0waUo,27.0,3.7,0.018354860639021073,3.4773527274432148
234,DA clinic @ Sembawang,CHAS Clinic,604 SEMBAWANG ROAD 758459,1.44182470635163,103.824845207379,DA clinic @ Sembawang 604 SEMBAWANG ROAD,ChIJPz3OKOYV2jERyz4ncgJwMrA,30.0,5.0,0.020394289598912305,3.5043278675074454
235,DA clinic @ Taman Jurong,CHAS Clinic,140 Corporation Drive 610410,1.01626425482099,103.581751807954,DA clinic @ Taman Jurong 140 Corporation Drive,ChIJdWn9gQsP2jERy-zAhfOKDP4,38.0,3.8,0.02583276682528892,3.4816320706064396
236,DAILY MEDICAL CENTRE,CHAS Clinic,159 HOUGANG STREET 11 530159,1.35144832553092,103.879517231861,DAILY MEDICAL CENTRE 159 HOUGANG STREET 11,ChIJozp2zaQX2jERs42e3ykfZV0,29.0,3.6,0.01971447994561523,3.4756896551724163
237,DAVITA MEDICAL & DIALYSIS CENTRE (JURONG EAST),CHAS Clinic,2 VENTURE DRIVE 608526,1.33015172116219,103.744574632224,DAVITA MEDICAL & DIALYSIS CENTRE (JURONG EAST) 2 VENTURE DRIVE,ChIJ8T7veNoR2jERB9RmCzNbcTI,0.0,0.0,0.0,3.4731896551724164
238,DAYSPRING MEDICAL CLINIC (TAMPINES),CHAS Clinic,2 TAMPINES CENTRAL 5 529509,1.35236829560034,103.943812302435,DAYSPRING MEDICAL CLINIC (TAMPINES) 2 TAMPINES CENTRAL 5,ChIJVVVVVRA92jERTEyeQgh-oHg,33.0,4.3,0.022433718558803536,3.491738085749786
239,DOCTORS FOR LIFE MEDICAL,CHAS Clinic,3 PICKERING STREET 048660,1.28428813152396,103.847429981968,DOCTORS FOR LIFE MEDICAL 3 PICKERING STREET,ChIJgdG5ewsZ2jERbbRPmbZi6fo,10.0,1.9,0.006798096532970768,3.4624949600318833
240,DOCTORS INC MEDICAL GROUP,CHAS Clinic,178 TOA PAYOH CENTRAL 310178,1.33358025833851,103.849264521174,DOCTORS INC MEDICAL GROUP 178 TOA PAYOH CENTRAL,ChIJoypljWYX2jERRiKWWX1AipE,49.0,4.4,0.03331067301155676,3.504062331512696
241,"DOCTORS KOO, LOH & ASSOCIATES (PTE) LTD",CHAS Clinic,152 YUNG HO RD 610152,1.32707670705423,103.720708632127,"DOCTORS KOO, LOH & ASSOCIATES (PTE) LTD 152 YUNG HO RD",ChIJc1I0KlYF2jERcwbN_Wgaqmo,2.0,5.0,0.0013596193065941536,3.475265535994752
242,DOVER MEDICAL CENTRE,CHAS Clinic,1 FUSIONOPOLIS WAY 138632,1.29915016462316,103.787581248398,DOVER MEDICAL CENTRE 1 FUSIONOPOLIS WAY,ChIJcQ8uKk4a2jERQQUZTPCkBPQ,5.0,4.8,0.003399048266485384,3.4776995475749573
243,DR CHUA'S FAMILY CLINIC PTE. LTD.,CHAS Clinic,638 JURONG WEST STREET 61 640638,1.34169239237791,103.697174842354,DR CHUA'S FAMILY CLINIC PTE. LTD. 638 JURONG WEST STREET 61,ChIJQUb825YP2jERQw4IM0M3axE,51.0,4.4,0.03467029231815092,3.5053224407510752
244,DR JOYCE & PARTNERS FAMILY CLINIC,CHAS Clinic,224A SUMANG LANE 821224,1.40195621611022,103.892811293348,DR JOYCE & PARTNERS FAMILY CLINIC 224A SUMANG LANE,ChIJ-aAbLYkV2jER66lYpW03kRo,54.0,4.3,0.036709721278042146,3.503541632480839
245,DR LIM LEAN HUAT & ASSOCIATES PTE LTD,CHAS Clinic,101 IRRAWADDY ROAD 329565,1.32047597480701,103.843252763122,DR LIM LEAN HUAT & ASSOCIATES PTE LTD 101 IRRAWADDY ROAD,ChIJP5oL1g0Z2jER4u9y0psdUzA,15.0,4.7,0.010197144799456152,3.485699617900094
246,DR SOH FAMILY CLINIC,CHAS Clinic,966 JURONG WEST STREET 93 640966,1.34170245992124,103.692916978325,DR SOH FAMILY CLINIC 966 JURONG WEST STREET 93,ChIJ_zXeqpoP2jERZaV8QgMLqXg,16.0,3.6,0.010876954452753228,3.474568965517244
247,DRS CHUA & PARTNERS PTE LTD,CHAS Clinic,1 TANJONG PAGAR PLAZA 082001,1.27568702794453,103.842433596845,DRS CHUA & PARTNERS PTE LTD 1 TANJONG PAGAR PLAZA,ChIJ56SZZGsZ2jERX3Hkx3X3kgM,24.0,2.2,0.016315431679129844,3.452417016338876
248,"DRS KOO, KOH & ASSOCIATES P.L.",CHAS Clinic,163 BUKIT MERAH CENTRAL 150163,1.2836613928251,103.817072709118,"DRS KOO, KOH & ASSOCIATES P.L. 163 BUKIT MERAH CENTRAL",ChIJZ5k3aNEb2jERJhJ5pSjClq0,17.0,3.1,0.011556764106050306,3.4688767903607705
249,DRS LIM & CHAN CLINIC,CHAS Clinic,2 LOR LEW LIAN 531002,1.35060795579762,103.875680063619,DRS LIM & CHAN CLINIC 2 LOR LEW LIAN,ChIJv8vBaKQX2jERL68C-TvWWN4,22.0,3.0,0.01495581237253569,3.4661127194730326
250,DRS LIM & CHAN CLINIC,CHAS Clinic,106 HOUGANG AVE 1 530106,1.35370297114613,103.890680792157,DRS LIM & CHAN CLINIC 106 HOUGANG AVE 1,ChIJv4KgD7gX2jERuGk_m5zgmp8,16.0,3.6,0.010876954452753228,3.474568965517244
251,"DRS OH, LIM, WONG & PARTNERS",CHAS Clinic,959 JURONG WEST ST 92 640959,1.34148123560942,103.690721731343,"DRS OH, LIM, WONG & PARTNERS 959 JURONG WEST ST 92",ChIJ6a9wfZkP2jERyZk1gx6s2_g,12.0,4.1,0.008157715839564922,3.4783029958508194
252,"DRS SINGH & PARTNERS, RAFFLES CITY MEDICAL CENTRE",CHAS Clinic,252 NORTH BRIDGE RD 179103,1.29376028146733,103.8527683243,"DRS SINGH & PARTNERS, RAFFLES CITY MEDICAL CENTRE 252 NORTH BRIDGE RD",ChIJkxbIK6QZ2jERyYOzMiKKf5c,21.0,2.8,0.014276002719238613,3.4635791978246115
253,DRS TANG & PARTNERS PTE. LTD.,CHAS Clinic,64 YUNG KUANG ROAD 610064,1.33237347600046,103.722451247982,DRS TANG & PARTNERS PTE. LTD. 64 YUNG KUANG ROAD,ChIJHwvQ-vsP2jERdA3tNoqz-9k,25.0,4.3,0.01699524133242692,3.4872414965189087
254,DTAP @ Robertson,CHAS Clinic,11 UNITY STREET 237995,1.29189934215369,103.841475100183,DTAP @ Robertson 11 UNITY STREET,ChIJJ1rP4p4Z2jERM0rOQOqXQok,89.0,4.6,0.060503059143439834,3.5413651281089598
255,DTAP @ SIGLAP,CHAS Clinic,914 EAST COAST ROAD 459108,1.31205928217535,103.92444984956,DTAP @ SIGLAP 914 EAST COAST ROAD,ChIJa1ZSJXMY2jERA3gQD3KrEuE,30.0,4.7,0.020394289598912305,3.4982095806277718
256,DTAP @ Somerset,CHAS Clinic,1 GRANGE ROAD 239693,1.30139878843175,103.837359153263,DTAP @ Somerset 1 GRANGE ROAD,ChIJy1_9GZEZ2jERw8P5uy9baVk,51.0,4.7,0.03467029231815092,3.5157235284465203
257,DUXTON MEDICAL CLINIC CANBERRA,CHAS Clinic,361 SEMBAWANG CRESCENT 750361,1.44631506786133,103.813936814037,DUXTON MEDICAL CLINIC CANBERRA 361 SEMBAWANG CRESCENT,ChIJaZK4I4oT2jERJu2jhvlw__8,13.0,4.5,0.008837525492861998,3.4822641177711646
258,DaVita Medical & Dialysis Centre (Farrer Park),CHAS Clinic,1 FARRER PARK STATION ROAD 217562,1.31247324146379,103.853929522028,DaVita Medical & Dialysis Centre (Farrer Park) 1 FARRER PARK STATION ROAD,ChIJWcfmwNUZ2jERWurIHwAJdnw,0.0,0.0,0.0,3.4731896551724164
259,DaVita Medical & Dialysis Centre (Novena),CHAS Clinic,101 IRRAWADDY ROAD 329565,1.32047597480701,103.843252763122,DaVita Medical & Dialysis Centre (Novena) 101 IRRAWADDY ROAD,ChIJV2hXWZ0Z2jERxPjxJjNuAyo,0.0,0.0,0.0,3.4731896551724164
260,Dawson Medical Clinic,CHAS Clinic,85 DAWSON ROAD 141085,1.29531966312279,103.809758591462,Dawson Medical Clinic 85 DAWSON ROAD,ChIJn66lIy4a2jERwK7rSmV5pqI,10.0,4.7,0.006798096532970768,3.4815296303242014
261,Doctors Clinic & Surgery,CHAS Clinic,305 Woodlands Street 31 730305,1.43036145793777,103.774102413755,Doctors Clinic & Surgery 305 Woodlands Street 31,ChIJA5FeoFIS2jERL0iRurXtFNg,58.0,2.9,0.03942895989123046,3.450589383248555
262,Dover Clinic and Surgery Pte Ltd,CHAS Clinic,28 DOVER CRESCENT 130028,1.30446092684555,103.781779696786,Dover Clinic and Surgery Pte Ltd 28 DOVER CRESCENT,ChIJp_zYIlwa2jER3xNn6e6XUUQ,32.0,2.8,0.021753908905506457,3.4585451487376666
263,Dr Chen and Partners Medical Clinic,CHAS Clinic,9 SIN MING ROAD 575630,1.35319495294524,103.835564729732,Dr Chen and Partners Medical Clinic 9 SIN MING ROAD,ChIJCwLN5ToX2jERQbTf8h1Relc,0.0,0.0,0.0,3.4731896551724164
264,Dr Chua & Lee Family Clinic,CHAS Clinic,213 BISHAN STREET 23 570213,1.35717822107249,103.848152968836,Dr Chua & Lee Family Clinic 213 BISHAN STREET 23,ChIJnTr7GBkX2jERp9XuNwW9eq0,2.0,4.5,0.0013596193065941536,3.474585726341455
265,Dr Gary's Family Clinic,CHAS Clinic,77 INDUS ROAD 160077,1.29113483647707,103.826764453903,Dr Gary's Family Clinic 77 INDUS ROAD,ChIJV9CSg4EZ2jERyWmbqh-Fyec,33.0,4.9,0.022433718558803536,3.505198316885068
266,Dr Jeremy Chan Medical Clinic,CHAS Clinic,123 LORONG 1 TOA PAYOH 310123,1.33864901778038,103.845703844549,Dr Jeremy Chan Medical Clinic 123 LORONG 1 TOA PAYOH,ChIJKXaL0WkX2jERSPGB58Lt6is,19.0,4.6,0.01291638341264446,3.4877439696195434
267,Dr Joyce & Partners Family Clinic (Toa Payoh Branch),CHAS Clinic,177 TOA PAYOH CENTRAL 310177,1.33390034089973,103.848854818027,Dr Joyce & Partners Family Clinic (Toa Payoh Branch) 177 TOA PAYOH CENTRAL,ChIJmxUcDhIX2jERYZNLsRxQsGA,13.0,4.7,0.008837525492861998,3.484031622869737
268,Dr Nah & Lee Family Clinic,CHAS Clinic,780 WOODLANDS CRESCENT 730780,1.4483415501858,103.801057143564,Dr Nah & Lee Family Clinic 780 WOODLANDS CRESCENT,ChIJ3zaUhXIT2jERnTCNSwEuw4o,52.0,4.6,0.03535010197144799,3.513022515764554
269,Dr Stanley Peck Family Clinic,CHAS Clinic,636 BUKIT BATOK CENTRAL 650636,1.34963274148521,103.751825709259,Dr Stanley Peck Family Clinic 636 BUKIT BATOK CENTRAL,ChIJxxhElicR2jERVOd1ObH1IG0,21.0,4.8,0.014276002719238613,3.492131203263089
270,Dr Steven Ang Aesthetic & Family Clinic,CHAS Clinic,75D Redhill Road 154075,1.28846476848129,103.815711568942,Dr Steven Ang Aesthetic & Family Clinic 75D Redhill Road,ChIJQccxqtQb2jERd4P-rJHBHhU,30.0,3.9,0.020394289598912305,3.4818941489486415
271,Dr W.K. Koo & Associates P.L.,CHAS Clinic,1 JURONG WEST CENTRAL 2 648886,1.33945271688955,103.706685012636,Dr W.K. Koo & Associates P.L. 1 JURONG WEST CENTRAL 2,ChIJAQAAAO0P2jERYwkifSIibEA,42.0,1.9,0.028552005438477225,3.428271935582177
272,Dr.W Family Clinic,CHAS Clinic,8 EMPRESS ROAD 260008,1.31641190070436,103.805373812286,Dr.W Family Clinic 8 EMPRESS ROAD,ChIJ65ydwREa2jER8xweqge5Urc,43.0,4.1,0.029231815091774305,3.4915124592700275
273,Drs Chan & Tang Family Clinic,CHAS Clinic,125 LORONG 1 TOA PAYOH 310125,1.33833133425818,103.845737117486,Drs Chan & Tang Family Clinic 125 LORONG 1 TOA PAYOH,ChIJ-82F0mkX2jERqg6vFcDx6iY,24.0,4.8,0.016315431679129844,3.4948371387046135
274,"Drs Koo, Fok & Associates Pte Ltd",CHAS Clinic,55 BENOI ROAD 629907,1.32561764091444,103.678410551478,"Drs Koo, Fok & Associates Pte Ltd 55 BENOI ROAD",ChIJVVVVxZEP2jERAuT9El-eQGM,11.0,1.6,0.007477906186267845,3.45918211866195
275,"Drs Koo, Fok & Associates( Pioneer )",CHAS Clinic,31 JURONG WEST STREET 63 648310,1.3375870106289,103.697321608176,"Drs Koo, Fok & Associates( Pioneer ) 31 JURONG WEST STREET 63",ChIJVVVVxZEP2jERAuT9El-eQGM,11.0,1.6,0.007477906186267845,3.45918211866195
276,Duxton Medical Clinic,CHAS Clinic,7 TANJONG PAGAR PLAZA 081007,1.27712012192209,103.84311774345,Duxton Medical Clinic 7 TANJONG PAGAR PLAZA,ChIJOYip4WwZ2jERZ8kCYmgwcrc,32.0,4.3,0.021753908905506457,3.4911760120959263
277,E MEDICAL CLINIC & SURGERY,CHAS Clinic,126 LORONG 1 TOA PAYOH 310126,1.33781465664298,103.845130852041,E MEDICAL CLINIC & SURGERY 126 LORONG 1 TOA PAYOH,ChIJafbGLmgX2jERP4NgfurMphM,24.0,4.7,0.016315431679129844,3.4932055955367005
278,E. L. CHIN FAMILY CLINIC & SURGERY PTE. LTD.,CHAS Clinic,432 CLEMENTI AVE 3 120432,1.31402057647513,103.762740587674,E. L. CHIN FAMILY CLINIC & SURGERY PTE. LTD. 432 CLEMENTI AVE 3,ChIJGe0I_pEa2jERbCHPOEh1MUA,17.0,4.4,0.011556764106050306,3.483900583698636
279,E.J. TAN CLINIC & SURGERY,CHAS Clinic,104 JURONG EAST STREET 13 600104,1.33658465341547,103.737623303578,E.J. TAN CLINIC & SURGERY 104 JURONG EAST STREET 13,ChIJtwti1RoQ2jERBcf88-tFZwo,29.0,3.2,0.01971447994561523,3.46780386319417
280,EAST COAST FAMILY CLINIC,CHAS Clinic,121 MEYER ROAD 437932,1.29769266267746,103.894446070261,EAST COAST FAMILY CLINIC 121 MEYER ROAD,ChIJdVRkLmYY2jERP-DBd0ojjo4,14.0,3.6,0.009517335146159076,3.4743965517241406
281,EAST COAST MEDICAL CENTRE PTE LTD,CHAS Clinic,57A NEW UPPER CHANGI RD 462057,1.32371678656959,103.941288714677,EAST COAST MEDICAL CENTRE PTE LTD 57A NEW UPPER CHANGI RD,ChIJYbYVCMsi2jERqXorTAuvDWQ,10.0,3.5,0.006798096532970768,3.4733719144846367
282,EASTERN CLINIC & SURGERY PTE LTD,CHAS Clinic,235 JURONG EAST STREET 21 600235,1.33997597903837,103.742159955431,EASTERN CLINIC & SURGERY PTE LTD 235 JURONG EAST STREET 21,ChIJLYlg6hAQ2jERrOTzeZKlA0c,9.0,4.3,0.006118286879673691,3.4782483180571537
283,EASTERN CLINIC & SURGERY PTE LTD,CHAS Clinic,318 JURONG EAST STREET 31 600318,1.34750822879295,103.73056069188,EASTERN CLINIC & SURGERY PTE LTD 318 JURONG EAST STREET 31,ChIJZ1cNQSAQ2jERq-lLcC8yDpI,4.0,4.0,0.002719238613188307,3.474622178203899
284,EASTERN CLINIC AND DENTAL SURGERY,CHAS Clinic,303 JURONG EAST ST 32 600303,1.34485611221062,103.735622181592,EASTERN CLINIC AND DENTAL SURGERY 303 JURONG EAST ST 32,ChIJAQAA0BgQ2jERm31QpIE6PHo,10.0,3.9,0.006798096532970768,3.476091153097825
285,EASTERN MEDICAL CENTRE,CHAS Clinic,631 BEDOK RESERVOIR RD 470631,1.33295923548327,103.914941831149,EASTERN MEDICAL CENTRE 631 BEDOK RESERVOIR RD,ChIJnV2g11c92jER6bmKZkRTiUA,10.0,2.2,0.006798096532970768,3.4645343889917743
286,EC Family Clinic,CHAS Clinic,30 EUNOS CRESCENT 409423,1.31976065842876,103.903047958629,EC Family Clinic 30 EUNOS CRESCENT,ChIJLZYR0gQY2jERBeHX3CYn-Ak,92.0,2.6,0.06254248810333107,3.4185782015518438
287,EDGEDALE MEDICAL CLINIC,CHAS Clinic,122A EDGEDALE PLAINS 821122,1.39350981246858,103.90910656253,EDGEDALE MEDICAL CLINIC 122A EDGEDALE PLAINS,ChIJZwDReQMW2jERv7aOsvJ_GgQ,54.0,4.6,0.036709721278042146,3.5145545488642513
288,EE CLINIC,CHAS Clinic,128 ANG MO KIO AVE 3 560128,1.3708320282205,103.843546990564,EE CLINIC 128 ANG MO KIO AVE 3,ChIJ45oen90W2jER0nFHXd2weBM,21.0,4.2,0.014276002719238613,3.483565601631546
289,EH MEDICAL FAMILY CLINIC (BUKIT BATOK),CHAS Clinic,292 BUKIT BATOK EAST AVENUE 6 650292,1.34449810534059,103.755375174448,EH MEDICAL FAMILY CLINIC (BUKIT BATOK) 292 BUKIT BATOK EAST AVENUE 6,ChIJ0UmXucwR2jERhUqbLcZmCcQ,22.0,3.6,0.01495581237253569,3.4750862068965542
290,EH Medical,CHAS Clinic,785E WOODLANDS RISE 735785,1.44680413878616,103.805487571931,EH Medical 785E WOODLANDS RISE,ChIJYbgLj3ET2jERTBiZS1TRPTw,42.0,4.4,0.028552005438477225,3.49965194917837
291,EHA CLINIC @ Jurong,CHAS Clinic,492 JURONG WEST STREET 41 640492,1.34994543580238,103.725180466271,EHA CLINIC @ Jurong 492 JURONG WEST STREET 41,ChIJsbl63N4P2jERWd67xD042Jo,83.0,4.3,0.05642420122365738,3.51984176844277
292,EJ FAMILY CLINIC & SURGERY,CHAS Clinic,109 TOA PAYOH LOR 1 310109,1.34123727109327,103.846202461177,EJ FAMILY CLINIC & SURGERY 109 TOA PAYOH LOR 1,ChIJp4T8PGoX2jERp_qP_1n0alk,31.0,3.2,0.02107409925220938,3.467432429264636
293,EL SHADDAI ARTHRITIS + RHEUMATISM SPECIALIST MEDICAL CENTRE,CHAS Clinic,102 TOWNER ROAD 322102,1.32058609482407,103.862002015014,EL SHADDAI ARTHRITIS + RHEUMATISM SPECIALIST MEDICAL CENTRE 102 TOWNER ROAD,ChIJoeApXtEZ2jERsXX2LBQO8To,22.0,2.6,0.01495581237253569,3.4601303945240183
294,ELIAS FAMILY CLINIC & SURGERY,CHAS Clinic,625 ELIAS RD 510625,1.37860239755804,103.941978174961,ELIAS FAMILY CLINIC & SURGERY 625 ELIAS RD,ChIJl8tJvr492jERLA5wpp01SmU,14.0,3.6,0.009517335146159076,3.4743965517241406
295,EMMANUEL MEDICAL CLINIC,CHAS Clinic,272 TAMPINES ST 22 520272,1.34915941815592,103.95028148718,EMMANUEL MEDICAL CLINIC 272 TAMPINES ST 22,ChIJT5XH9hk92jERNlX7apL00zA,7.0,3.1,0.004758667573079538,3.471413769661739
296,EON MEDICAL CLINIC,CHAS Clinic,475 UPPER SERANGOON CRESCENT 530475,1.37571547934496,103.900675272909,EON MEDICAL CLINIC 475 UPPER SERANGOON CRESCENT,ChIJ0ZjVoDsW2jER5YaLL4h8PBs,11.0,4.2,0.007477906186267845,3.4786246747462464
297,ESSENTIAL FAMILY CLINIC & SURGERY,CHAS Clinic,626A WOODLANDS DR 52 731626,1.43409799393499,103.800131263153,ESSENTIAL FAMILY CLINIC & SURGERY 626A WOODLANDS DR 52,ChIJqbSFyJgT2jERQeUqNfgcHOQ,20.0,1.8,0.013596193065941536,3.450440645584756
298,ESTEEMED MEDICAL CLINIC,CHAS Clinic,260 ANG MO KIO STREET 21 560260,1.36891592440303,103.834501165254,ESTEEMED MEDICAL CLINIC 260 ANG MO KIO STREET 21,ChIJNcGFH9oW2jER_a5lJ7lbeik,12.0,5.0,0.008157715839564922,3.4856449401064276
299,ESTHER YEO CLINIC,CHAS Clinic,256 JURONG EAST ST 24 600256,1.34416527281328,103.738263366894,ESTHER YEO CLINIC 256 JURONG EAST ST 24,ChIJl7u_WhgQ2jEReOd8Ak8je_4,22.0,3.7,0.01495581237253569,3.4765817881338075
300,ETERN MEDICAL CLINIC (PUNGGOL SUMANG LRT),CHAS Clinic,308C PUNGGOL WALK 823308,1.40800694968972,103.899074358389,ETERN MEDICAL CLINIC (PUNGGOL SUMANG LRT) 308C PUNGGOL WALK,ChIJWWz5hDoV2jER5cbSpwbG1So,5.0,4.2,0.003399048266485384,3.475660118615066
301,EVANGEL MEDICAL CLINIC,CHAS Clinic,10 CHAI CHEE RD 467010,1.32727572409468,103.924803599547,EVANGEL MEDICAL CLINIC 10 CHAI CHEE RD,ChIJ89_ilFI92jER0iDVhShGoCU,2.0,5.0,0.0013596193065941536,3.475265535994752
302,EVERCARE MEDICAL CLINIC,CHAS Clinic,253 CHOA CHU KANG AVE 1 680253,1.37736607411235,103.744393648371,EVERCARE MEDICAL CLINIC 253 CHOA CHU KANG AVE 1,ChIJoWPmacQR2jERRiJAXyODfh0,30.0,3.5,0.020394289598912305,3.4737364331090768
303,EVERCARE MEDICAL CLINIC (475) PTE LTD,CHAS Clinic,475 CHOA CHU KANG AVE 3 680475,1.37789727696934,103.739015486131,EVERCARE MEDICAL CLINIC (475) PTE LTD 475 CHOA CHU KANG AVE 3,ChIJq378adsR2jERnZHLd3gLAo0,20.0,4.6,0.013596193065941536,3.4885099861693925
304,EVERHEALTH FAMILY CLINIC & SURGERY,CHAS Clinic,762 JURONG WEST ST 75 640762,1.34874357156987,103.697732090659,EVERHEALTH FAMILY CLINIC & SURGERY 762 JURONG WEST ST 75,ChIJvQnCTbwP2jER4WU_0_i4nOI,3.0,3.7,0.0020394289598912306,3.473652218758061
305,FAMILY HEALTHCARE CLINIC & SURGERY PTE LTD,CHAS Clinic,523 HOUGANG AVE 6 530523,1.37372091211225,103.890706990241,FAMILY HEALTHCARE CLINIC & SURGERY PTE LTD 523 HOUGANG AVE 6,ChIJZw518EcW2jERVkweTU_SVqY,19.0,1.6,0.01291638341264446,3.44899481938161
306,FAMILY LIFE CLINIC,CHAS Clinic,727 CLEMENTI WEST ST 2 120727,1.3046248764802,103.763817745262,FAMILY LIFE CLINIC 727 CLEMENTI WEST ST 2,ChIJjZiHC_Ia2jER_DFH77r4wyE,17.0,3.6,0.011556764106050306,3.4746551724137955
307,FAMILY MEDICAL CLINIC PTE LTD,CHAS Clinic,280 BT BATOK EAST AVE 3 650280,1.3477014777938,103.757044584459,FAMILY MEDICAL CLINIC PTE LTD 280 BT BATOK EAST AVE 3,ChIJGQpKhUEQ2jEROkYa-_E8Qy8,28.0,2.6,0.019034670292318152,3.4565687779835463
308,FAMILY MEDICARE CLINIC & SURGERY,CHAS Clinic,721 ANG MO KIO AVE 8 560721,1.37234984800157,103.847899479496,FAMILY MEDICARE CLINIC & SURGERY 721 ANG MO KIO AVE 8,ChIJ9zs6LOYW2jERAfTH61mSf8Q,11.0,3.7,0.007477906186267845,3.4748857216531124
309,FAMILY MEDICINE CLINIC,CHAS Clinic,58 MARINE TERRACE 440058,1.30611781278668,103.914026029639,FAMILY MEDICINE CLINIC 58 MARINE TERRACE,ChIJ50AEZ3UY2jERnu6eifodXaw,7.0,3.9,0.004758667573079538,3.4752207037202023
310,FAMILYCARE CLINIC & SURGERY,CHAS Clinic,85C TOA PAYOH LOR 4 313085,1.33628570923804,103.847479439025,FAMILYCARE CLINIC & SURGERY 85C TOA PAYOH LOR 4,ChIJT14Le2gX2jERhxAOsCPgdSk,18.0,4.4,0.012236573759347382,3.4845306383178256
311,FEMA CLINIC & SURGERY,CHAS Clinic,10 SINARAN DRIVE 307506,1.3207051098625,103.844160709873,FEMA CLINIC & SURGERY 10 SINARAN DRIVE,ChIJv-s_XecZ2jERDI9I4i53sFI,6.0,3.0,0.004078857919782461,3.471259581799857
312,FINEST HEALTH MEDICAL CENTRE,CHAS Clinic,19 LORONG 7 TOA PAYOH 310019,1.33528228586453,103.856504185567,FINEST HEALTH MEDICAL CENTRE 19 LORONG 7 TOA PAYOH,ChIJIw2ZeUsX2jERr8nzRsplioc,3.0,3.7,0.0020394289598912306,3.473652218758061
313,FIRST CARE FAMILY CLINIC & SURGERY,CHAS Clinic,253 JURONG EAST ST 24 600253,1.34318835753237,103.736785753592,FIRST CARE FAMILY CLINIC & SURGERY 253 JURONG EAST ST 24,ChIJWU93AxkQ2jERqcaemhXRmY0,37.0,3.2,0.02515295717199184,3.4663181274760335
314,FIRST MEDICAL CENTRE PTE LTD,CHAS Clinic,169 STIRLING ROAD 140169,1.29043486494243,103.803105949038,FIRST MEDICAL CENTRE PTE LTD 169 STIRLING ROAD,ChIJl-5TNjEa2jERc6J99GQMQg8,17.0,3.9,0.011556764106050306,3.478122201645611
315,FIRST MEDICAL CLINIC & SURGERY,CHAS Clinic,167 WOODLANDS ST 11 730167,1.43359370625977,103.775884057974,FIRST MEDICAL CLINIC & SURGERY 167 WOODLANDS ST 11,ChIJN-ANt6wT2jERt1y-wpfzWJs,18.0,3.5,0.012236573759347382,3.473517721934413
316,FIRSTHEALTH CLINIC & SURGERY,CHAS Clinic,126 KIM TIAN ROAD 160126,1.28253466924079,103.829470015099,FIRSTHEALTH CLINIC & SURGERY 126 KIM TIAN ROAD,ChIJSTS-pXsZ2jERBX2LjfICNcw,21.0,3.6,0.014276002719238613,3.4750000000000028
317,FOCUS MEDICAL CENTRE,CHAS Clinic,137 TECK WHYE LANE 680137,1.38004753002611,103.752483840899,FOCUS MEDICAL CENTRE 137 TECK WHYE LANE,ChIJrUSyZr8R2jERdPF61Pthgzs,6.0,2.8,0.004078857919782461,3.4704438102159005
318,FONG CLINIC,CHAS Clinic,162 MEI LING ST 140162,1.2922546717017,103.802856952292,FONG CLINIC 162 MEI LING ST,ChIJMXMEaDQa2jERl58k7OAFWx8,6.0,4.3,0.004078857919782461,3.476562097095574
319,FOO CLINIC,CHAS Clinic,962 JURONG WEST ST 91 640962,1.34201784065971,103.69148311528,FOO CLINIC 962 JURONG WEST ST 91,ChIJtVvShJkP2jERmVyE1Nvlf_E,0.0,0.0,0.0,3.4731896551724164
320,FRASER MEDICAL CENTRE,CHAS Clinic,78A TELOK BLANGAH ST 32 101078,1.27338751529297,103.808980553653,FRASER MEDICAL CENTRE 78A TELOK BLANGAH ST 32,ChIJf_oJJMMb2jERs5C21xnGAes,32.0,2.1,0.021753908905506457,3.443317412503812
321,FRIENDSHIP CLINIC & SURGERY,CHAS Clinic,1 JALAN BUKIT MERAH 150001,1.28645354013154,103.808242400061,FRIENDSHIP CLINIC & SURGERY 1 JALAN BUKIT MERAH,ChIJGRhhpM0b2jERwD8pFdLM330,11.0,3.8,0.007477906186267845,3.475633512271739
322,FRONTIER MEDICAL ASSOCIATES,CHAS Clinic,982 BUANGKOK CRESCENT 530982,1.38085035421403,103.879309094037,FRONTIER MEDICAL ASSOCIATES 982 BUANGKOK CRESCENT,ChIJpTXxLkMW2jERjZqRu3n1uTc,10.0,2.5,0.006798096532970768,3.466573817951666
323,FRONTIER MEDICAL ASSOCIATES,CHAS Clinic,163 ANG MO KIO AVE 4 560163,1.37354853932334,103.838176471518,FRONTIER MEDICAL ASSOCIATES 163 ANG MO KIO AVE 4,ChIJqzXdtsQW2jERHcGSCjGKzW4,11.0,3.5,0.007477906186267845,3.4733901404158587
324,FRONTIER MEDICAL ASSOCIATES,CHAS Clinic,304 UBI AVENUE 1 400304,1.32955256814021,103.901228610039,FRONTIER MEDICAL ASSOCIATES 304 UBI AVENUE 1,ChIJH4SfFPcX2jERn1qvhmRTEWM,6.0,4.2,0.004078857919782461,3.476154211303596
325,FRONTIER MEDICAL ASSOCIATES,CHAS Clinic,899C WOODLANDS DR 50 732899,1.43656985620916,103.795261266782,FRONTIER MEDICAL ASSOCIATES 899C WOODLANDS DR 50,ChIJg-XCBqET2jEREqKQE7cw-iQ,14.0,4.4,0.009517335146159076,3.482010419841068
326,FRONTIER MEDICAL ASSOCIATES,CHAS Clinic,654 YISHUN AVE 4 760654,1.42305346406148,103.840410312781,FRONTIER MEDICAL ASSOCIATES 654 YISHUN AVE 4,ChIJaRmgmGsU2jERMK08nWOI1oA,9.0,3.6,0.006118286879673691,3.4739655172413824
327,FRONTIER MEDICAL ASSOCIATES,CHAS Clinic,105 CANBERRA STREET 750105,1.44885888645002,103.8324062093,FRONTIER MEDICAL ASSOCIATES 105 CANBERRA STREET,ChIJz3oUt5oU2jERAQpVJdJ1ClI,11.0,4.6,0.007477906186267845,3.4816158372207533
328,FRONTIER MEDICAL ASSOCIATES,CHAS Clinic,440 BUKIT BATOK WEST AVENUE 8 650440,1.35572308150266,103.739303105448,FRONTIER MEDICAL ASSOCIATES 440 BUKIT BATOK WEST AVENUE 8,ChIJH5obfm8R2jERwZpI6FSsaJA,3.0,3.3,0.0020394289598912306,3.4728364471741044
329,FRONTIER MEDICAL ASSOCIATES,CHAS Clinic,451 BUKIT BATOK WEST AVE 6 650451,1.35303824914482,103.743948447105,FRONTIER MEDICAL ASSOCIATES 451 BUKIT BATOK WEST AVE 6,ChIJQSU1uCYR2jERHUNNFfBYvZ8,7.0,4.9,0.004758667573079538,3.479979371293282
330,FRONTIER MEDICAL ASSOCIATES,CHAS Clinic,691 WOODLANDS DRIVE 73 730691,1.44062992413871,103.806198056521,FRONTIER MEDICAL ASSOCIATES 691 WOODLANDS DRIVE 73,ChIJAQBAR3YT2jERUFxh1c4NqWk,15.0,4.8,0.010197144799456152,3.48671933238004
331,FULLERTON HEALTH @ DRS TRYTHALL HOY DAVIES,CHAS Clinic,391B ORCHARD ROAD 238874,1.30242417185937,103.834676124776,FULLERTON HEALTH @ DRS TRYTHALL HOY DAVIES 391B ORCHARD ROAD,ChIJWw4PRBMZ2jERUBBwLz0tQJc,1.0,5.0,0.0006798096532970768,3.474227595583584
332,FULLERTON HEALTHCARE @ ARC,CHAS Clinic,460 ALEXANDRA ROAD 119963,1.27398640019417,103.801264139133,FULLERTON HEALTHCARE @ ARC 460 ALEXANDRA ROAD,ChIJwz3yHMEb2jERg-UIOGwwdEg,101.0,4.4,0.06866077498300475,3.5368251717105443
333,FUSION MEDICAL HEALTH SCREENING & AESTHETIC,CHAS Clinic,501 ORCHARD ROAD 238880,1.30467628686208,103.830642027915,FUSION MEDICAL HEALTH SCREENING & AESTHETIC 501 ORCHARD ROAD,ChIJrY2Id0Ua2jERYwDFYQrwvIs,233.0,4.8,0.1583956492182189,3.68335064113083
334,Faith Clinic (Jurong West),CHAS Clinic,762 JURONG WEST ST 75 640762,1.34874357156987,103.697732090659,Faith Clinic (Jurong West) 762 JURONG WEST ST 75,ChIJvQnCTbwP2jERUQLqcKJSGmM,48.0,2.5,0.03263086335825969,3.4414336365128135
335,Famicare Bedok Clinic Pte Ltd,CHAS Clinic,158 Bedok South Avenue 3 460158,1.31873582672514,103.945086743402,Famicare Bedok Clinic Pte Ltd 158 Bedok South Avenue 3,ChIJT2_lHs8i2jERUwiaMz_b_qU,61.0,3.7,0.04146838885112169,3.4825951147471836
336,Family Doctors at 365,CHAS Clinic,365 CORPORATION DRIVE 610365,1.33772592748385,103.720184719407,Family Doctors at 365 365 CORPORATION DRIVE,ChIJmb1cIOUP2jERdDhCPvwPdIA,29.0,4.3,0.01971447994561523,3.4894897911343468
337,Family Medicine Clinic Chinatown,CHAS Clinic,133 NEW BRIDGE ROAD 059413,1.28499882861736,103.844697080902,Family Medicine Clinic Chinatown 133 NEW BRIDGE ROAD,ChIJCZiifQoZ2jER0ltRvDSkZsw,29.0,3.8,0.01971447994561523,3.479632551161539
338,Fernvale Family Clinic,CHAS Clinic,405C FERNVALE LANE 793405,1.38919466650292,103.873437403062,Fernvale Family Clinic 405C FERNVALE LANE,ChIJhb9JgmMW2jERF0thRbZrTww,25.0,2.4,0.01699524133242692,3.454950537987297
339,First Light Family Clinic & Surgery,CHAS Clinic,272 Bukit Batok East Avenue 4 650272,1.34879030670709,103.757864718234,First Light Family Clinic & Surgery 272 Bukit Batok East Avenue 4,ChIJBY8A2EMQ2jERKyoNzy8_-bc,16.0,3.4,0.010876954452753228,3.472393574626693
340,Foo And Ong Family Clinic Pte. Ltd.,CHAS Clinic,151 BUKIT BATOK ST 11 650151,1.34874703498808,103.744211484368,Foo And Ong Family Clinic Pte. Ltd. 151 BUKIT BATOK ST 11,ChIJta5STTwQ2jERkRzxbzwpnMU,10.0,4.6,0.006798096532970768,3.480849820670904
341,Frontier Family Medicine Clinic,CHAS Clinic,3151 COMMONWEALTH AVENUE WEST 129581,1.3142704390532,103.76514748726,Frontier Family Medicine Clinic 3151 COMMONWEALTH AVENUE WEST,ChIJ5dl5QI4a2jERL1m3EVwmN0w,6.0,2.7,0.004078857919782461,3.4700359244239225
342,Frontier Medical Associates,CHAS Clinic,678D JURONG WEST STREET 64 644678,1.34486489516062,103.703395356357,Frontier Medical Associates 678D JURONG WEST STREET 64,ChIJme76DZUP2jERAAG3pzxZjOM,29.0,4.6,0.01971447994561523,3.495404135118031
343,Frontier People's Clinic,CHAS Clinic,123 BEDOK NORTH STREET 2 460123,1.32919868633173,103.937343348132,Frontier People's Clinic 123 BEDOK NORTH STREET 2,ChIJSxyidko92jERqw-Byu33hr4,12.0,2.3,0.008157715839564922,3.4636191073396025
344,Fullerton Health @ NTU,CHAS Clinic,36 NANYANG AVENUE 639801,1.34536991705032,103.682668844091,Fullerton Health @ NTU 36 NANYANG AVENUE,ChIJqyjq5Z8P2jERRwB6YLBu2Ec,777.0,4.2,0.5282121006118287,3.857099674160202
345,Fullerton Health @ OFC,CHAS Clinic,10 COLLYER QUAY 049315,1.28320475137081,103.851909612057,Fullerton Health @ OFC 10 COLLYER QUAY,ChIJsX-DJwwZ2jER3IFrd9Xh9YU,540.0,4.1,0.36709721278042146,3.703289985700557
346,Fullerton Health @ Watsons (Changi City Point),CHAS Clinic,5 CHANGI BUSINESS PARK CENTRAL 1 486038,1.33408360486513,103.962946072076,Fullerton Health @ Watsons (Changi City Point) 5 CHANGI BUSINESS PARK CENTRAL 1,ChIJPfUMG9U92jER9qgBvlsXFwg,42.0,4.8,0.028552005438477225,3.511072751353761
347,Fullerton Healthcare @ Drs Trythall Hoy Davies,CHAS Clinic,1 JURONG WEST CENTRAL 2 648886,1.33945271688955,103.706685012636,Fullerton Healthcare @ Drs Trythall Hoy Davies 1 JURONG WEST CENTRAL 2,ChIJNUsxtuwP2jEREbvShaoZieE,93.0,3.8,0.06322229775662815,3.493851356103052
348,Fullerton Healthcare @ Gethin-Jones,CHAS Clinic,78 SHENTON WAY 079120,1.2732000622671,103.84529056569,Fullerton Healthcare @ Gethin-Jones 78 SHENTON WAY,ChIJl62_0hQZ2jEReiiULD80VCc,188.0,4.6,0.12780421481985044,3.6172007665439905
349,Fullerton Healthcare @ MBFC,CHAS Clinic,10 MARINA BOULEVARD 018981,1.27946938564498,103.85374955327,Fullerton Healthcare @ MBFC 10 MARINA BOULEVARD,ChIJJcy4yA8Z2jERGQgohizgfEI,84.0,4.3,0.05710401087695445,3.520403842096629
350,Fullerton Healthcare @ Metropolis,CHAS Clinic,9 NORTH BUONA VISTA DRIVE 138588,1.30624556797731,103.791237458059,Fullerton Healthcare @ Metropolis 9 NORTH BUONA VISTA DRIVE,ChIJEecHSEIa2jER_mrmeFfB2F0,79.0,4.2,0.053704962610469066,3.512222977566284
351,Fullerton Healthcare Screening Centre,CHAS Clinic,391B ORCHARD ROAD 238874,1.30242417185937,103.834676124776,Fullerton Healthcare Screening Centre 391B ORCHARD ROAD,ChIJj6KI8ZEZ2jERPFC59l8Cvmw,1471.0,4.4,1.0,4.4
352,Fusion Medical & Health Screening Centre,CHAS Clinic,1 FUSIONOPOLIS LINK 138542,1.29925468196734,103.789607732973,Fusion Medical & Health Screening Centre 1 FUSIONOPOLIS LINK,ChIJW1xqo5gb2jERWIJFdZNBOhE,70.0,4.8,0.04758667573079538,3.536328148807992
353,G & H MEDICAL CLINIC PTE LTD,CHAS Clinic,106 YISHUN RING ROAD 760106,1.43147861410692,103.827452004281,G & H MEDICAL CLINIC PTE LTD 106 YISHUN RING ROAD,ChIJseMgiHkU2jERCKeHHEL01iA,12.0,3.2,0.008157715839564922,3.4709610515952107
354,G S CLINIC & SURGERY,CHAS Clinic,632 ANG MO KIO AVE 4 560632,1.37992681961038,103.841432372506,G S CLINIC & SURGERY 632 ANG MO KIO AVE 4,ChIJU5O5GsEW2jER2ugbC2CE9Ds,8.0,4.0,0.005438477226376614,3.476054701235381
355,G.I.F.T MEDICAL CENTRE,CHAS Clinic,389 UPPER ALJUNIED RD 367874,1.33317933421739,103.878829907545,G.I.F.T MEDICAL CENTRE 389 UPPER ALJUNIED RD,ChIJTernnIUX2jER784I2CNdToM,7.0,3.7,0.004758667573079538,3.4742689702055864
356,GARDEN CLINIC,CHAS Clinic,304 SERANGOON AVE 2 550304,1.35381345318208,103.867773013652,GARDEN CLINIC 304 SERANGOON AVE 2,ChIJzcG9HAgX2jERSaFeN_ACDjM,18.0,4.3,0.012236573759347382,3.4833069809418906
357,GEYLANG BAHRU CLINIC,CHAS Clinic,16 UPPER BOON KENG RD 380016,1.31543175845042,103.871651573599,GEYLANG BAHRU CLINIC 16 UPPER BOON KENG RD,ChIJ9e3v2S0Y2jER3-GjBP27QJQ,11.0,3.5,0.007477906186267845,3.4733901404158587
358,GLOBAL CARE MEDICAL,CHAS Clinic,77 JALAN MALU-MALU 769687,1.44381831615093,103.825776599298,GLOBAL CARE MEDICAL 77 JALAN MALU-MALU,ChIJ-2X3HEYW2jERoMErWUKMWn8,16.0,3.6,0.010876954452753228,3.474568965517244
359,GOH CLINIC & SURGERY,CHAS Clinic,204 HOUGANG ST 21 530204,1.3588191151875,103.884988426823,GOH CLINIC & SURGERY 204 HOUGANG ST 21,ChIJdb_FVrEX2jERCVz3OGpvENw,45.0,3.5,0.030591434398368457,3.474009822077407
360,"HUA MEI CLINIC, WHAMPOA",CHAS Clinic,300 WHAMPOA DRIVE 327737,1.32486749271072,103.857201210738,"HUA MEI CLINIC, WHAMPOA 300 WHAMPOA DRIVE",ChIJjduj0a0Z2jERZKvCM51Oyuc,0.0,0.0,0.0,3.4731896551724164
361,HUAN CLINIC,CHAS Clinic,51 CHIN SWEE ROAD 160051,1.2874030082089,103.842029779252,HUAN CLINIC 51 CHIN SWEE ROAD,ChIJ20c6BHUZ2jER9UNuSSFBy84,6.0,4.2,0.004078857919782461,3.476154211303596
362,HUI CLINIC + SURGERY,CHAS Clinic,157 ANG MO KIO AVE 4 560157,1.37530562129984,103.839395071325,HUI CLINIC + SURGERY 157 ANG MO KIO AVE 4,ChIJ6fSAfMMW2jER_89D-XnK8AM,11.0,4.6,0.007477906186267845,3.4816158372207533
363,HWANG & LIANG FAMILY CLINIC & SURGERY,CHAS Clinic,476 TAMPINES ST 44 520476,1.36092283905723,103.95335936462,HWANG & LIANG FAMILY CLINIC & SURGERY 476 TAMPINES ST 44,ChIJpUWPHwc92jERTHkDxiAvrLY,57.0,4.1,0.03874915023793338,3.497478023394831
364,Hamid Family Clinic & Surgery,CHAS Clinic,156 Pasir Ris St 13 510156,1.36408364491692,103.962895349626,Hamid Family Clinic & Surgery 156 Pasir Ris St 13,ChIJR-lucFU82jER2yLNhuii0LA,30.0,4.3,0.020394289598912305,3.4900518647882066
365,Health First Family Clinic,CHAS Clinic,26 JALAN MEMBINA 161026,1.28263437658533,103.825595753279,Health First Family Clinic 26 JALAN MEMBINA,ChIJZafMXXwZ2jEROyA7Gq03bMc,25.0,3.2,0.01699524133242692,3.4685467310532387
366,HealthMatters - The Family Practice,CHAS Clinic,"1 Pasir Ris Close, 519599",1.37912717895311,103.955444757708,"HealthMatters - The Family Practice 1 Pasir Ris Close,",ChIJHeeu2LU92jERRykBZHp-LSg,14.0,3.2,0.009517335146159076,3.4705896176656768
367,HealthMed Family Clinic (Bukit Panjang),CHAS Clinic,416 Saujana Road 670416,1.38319686720506,103.768454110363,HealthMed Family Clinic (Bukit Panjang) 416 Saujana Road,ChIJu2JHCaIR2jERpS-3S6l4KRQ,15.0,4.9,0.010197144799456152,3.4877390468599856
368,Healthcare AMK Medical Clinic,CHAS Clinic,157 ANG MO KIO AVENUE 4 560157,1.37530562129984,103.839395071325,Healthcare AMK Medical Clinic 157 ANG MO KIO AVENUE 4,ChIJK7WoYsMW2jERMjz_9P49dwU,65.0,4.9,0.04418762746430999,3.536237019151881
369,Healthcare Hougang Medical Clinic,CHAS Clinic,311 HOUGANG AVENUE 5 530311,1.36566733051337,103.894853675365,Healthcare Hougang Medical Clinic 311 HOUGANG AVENUE 5,ChIJO2Ia8TQW2jER1U4E6Ov4RQQ,40.0,4.3,0.027192386131883073,3.495672601326804
370,Healthlife Family Clinic,CHAS Clinic,296A BUKIT BATOK STREET 22 651296,1.34409358188013,103.746409176593,Healthlife Family Clinic 296A BUKIT BATOK STREET 22,ChIJj9bkVw4R2jER5g8Y1G1sVpA,21.0,4.8,0.014276002719238613,3.492131203263089
371,Healthmark Family Clinic (Compassvale),CHAS Clinic,263 Compassvale Street 540263,1.39484816497783,103.896042267939,Healthmark Family Clinic (Compassvale) 263 Compassvale Street,ChIJA-ZBOAwW2jERDXSzvfcTFcI,28.0,3.0,0.019034670292318152,3.464182646100473
372,Healthmark Family Medicine Clinic,CHAS Clinic,601 Choa Chu Kang St 62 680601,1.39693363037626,103.744921736282,Healthmark Family Medicine Clinic 601 Choa Chu Kang St 62,ChIJBwDQNvER2jEReqqYzirzISw,15.0,3.7,0.010197144799456152,3.475502473100638
373,Healthmark Medical Clinic,CHAS Clinic,639 Punggol Drive 820639,1.39944615058909,103.916054652799,Healthmark Medical Clinic 639 Punggol Drive,ChIJUZqPvv892jER4wcf955fzdU,12.0,3.3,0.008157715839564922,3.4717768231791672
374,Healthmark Pioneer Mall Clinic,CHAS Clinic,638 Jurong West Street 61 640638,1.34169239237791,103.697174842354,Healthmark Pioneer Mall Clinic 638 Jurong West Street 61,ChIJO6aM0JYP2jERF5E_4Tn06BE,30.0,3.1,0.020394289598912305,3.465578717269512
375,Healthpath Medical Clinic and Surgery,CHAS Clinic,338 ANG MO KIO AVENUE 1 560338,1.3638957019431,103.848986957423,Healthpath Medical Clinic and Surgery 338 ANG MO KIO AVENUE 1,ChIJtzENJB4X2jERlH5XqZGA0xI,27.0,3.8,0.018354860639021073,3.479188213507117
376,Healthsprings Medical & Laser Clinic,CHAS Clinic,105A BIDADARI PARK DRIVE 341105,1.33400699198631,103.870430572629,Healthsprings Medical & Laser Clinic 105A BIDADARI PARK DRIVE,ChIJcYR6UO8X2jERCe565p8BMU8,21.0,4.6,0.014276002719238613,3.489276002719241
377,Healthsprings Medical Clinic,CHAS Clinic,524A JELAPANG ROAD 671524,1.38540569301034,103.766228468168,Healthsprings Medical Clinic 524A JELAPANG ROAD,ChIJF9AEVJgR2jERLjQgyHepE7I,45.0,4.0,0.030591434398368457,3.4893055392765913
378,Healthway Medical,CHAS Clinic,218 BEDOK NORTH ST 1 460218,1.32749295502142,103.934249434387,Healthway Medical 218 BEDOK NORTH ST 1,ChIJOUls4Eo92jERBYhMOiqqviw,76.0,2.7,0.05166553365057784,3.4332423990248273
379,Healthway Medical,CHAS Clinic,90 Hougang Avenue 10 538766,1.37249493836098,103.893775562591,Healthway Medical 90 Hougang Avenue 10,ChIJKzajnDcW2jERYkwrENym4p4,23.0,3.3,0.01563562202583277,3.4704817271853563
380,Healthway Medical,CHAS Clinic,690 JURONG WEST CENTRAL 1 640690,1.34118688532867,103.706710011276,Healthway Medical 690 JURONG WEST CENTRAL 1,ChIJybFmp-wP2jERhgvJ7q88Xmo,68.0,3.0,0.046227056424201225,3.4513154902834127
381,Healthway Medical,CHAS Clinic,168 Punggol Field 820168,1.39423719749383,103.913047323352,Healthway Medical 168 Punggol Field,ChIJg8xbYAIW2jERZ_2JwGdei1U,39.0,3.2,0.026512576478585997,3.4659466935464995
382,Healthway Medical,CHAS Clinic,503 Tampines Central 1 520503,1.35580335647499,103.945102946946,Healthway Medical 503 Tampines Central 1,ChIJAQAAUA492jER3JlHizQcvuE,24.0,4.2,0.016315431679129844,3.485047879697136
383,Healthway Medical,CHAS Clinic,177 Toa Payoh Central 310177,1.33390034089973,103.848854818027,Healthway Medical 177 Toa Payoh Central,ChIJ0x_lT2YX2jERZN6Q_ME2QwY,31.0,3.3,0.02107409925220938,3.469539839189857
384,Healthway Medical,CHAS Clinic,108 HOUGANG AVE 1 530108,1.3527739328609,103.890093177136,Healthway Medical 108 HOUGANG AVE 1,ChIJMUl7FrgX2jERiGA3f8thIKE,19.0,2.5,0.01291638341264446,3.46061956445299
385,Healthway Medical,CHAS Clinic,6A SHENTON WAY 068815,1.27796672374231,103.849007895658,Healthway Medical 6A SHENTON WAY,ChIJq6Hy1CAZ2jERbZk3um8O6Lo,18.0,3.4,0.012236573759347382,3.472294064558478
386,Healthway Medical,CHAS Clinic,118 RIVERVALE DRIVE 540118,1.38533736141014,103.901841043722,Healthway Medical 118 RIVERVALE DRIVE,ChIJDaggbhcW2jERJQNIFgsOvOg,46.0,2.7,0.03127124405166554,3.4490110527672964
387,FAMILY HEALTHCARE CLINIC & SURGERY,CHAS Clinic,151 SERANGOON NORTH AVE 2 550151,1.36934534973621,103.873778334173,FAMILY HEALTHCARE CLINIC & SURGERY 151 SERANGOON NORTH AVE 2,ChIJ0x9DUlEW2jERQNtThQjfyLs,5.0,4.2,0.003399048266485384,3.475660118615066
388,Healthway Medical,CHAS Clinic,888 WOODLANDS DR 50 730888,1.43712301469225,103.79531438351,Healthway Medical 888 WOODLANDS DR 50,ChIJPxWg86AT2jERiqogi3jhmX8,81.0,2.3,0.055064581917063225,3.4085884573009237
389,Healthway Medical,CHAS Clinic,201D TAMPINES STREET 21 524201,1.35226231434834,103.953586491461,Healthway Medical 201D TAMPINES STREET 21,ChIJ____Pxs92jERCa9qVe2Vh_A,35.0,3.1,0.02379333786539769,3.4643102276190274
390,Healthway Medical,CHAS Clinic,101 YISHUN AVENUE 5 760101,1.43053575388582,103.827667722133,Healthway Medical 101 YISHUN AVENUE 5,ChIJVVVVBXoU2jEROOvJjF2jxC4,36.0,3.5,0.024473147518694765,3.473845788696409
391,Healthway Medical,CHAS Clinic,446 BUKIT BATOK WEST AVENUE 8 650446,1.35017085094578,103.739084635311,Healthway Medical 446 BUKIT BATOK WEST AVENUE 8,ChIJbZ4t5G0R2jERNBB_O17nKj8,20.0,2.9,0.013596193065941536,3.465396457957292
392,Healthway Medical,CHAS Clinic,705 SERANGOON ROAD 328127,1.31799485295601,103.859085390214,Healthway Medical 705 SERANGOON ROAD,ChIJE_7nDikZ2jERaYdXHZuB49c,4.0,4.0,0.002719238613188307,3.474622178203899
393,Healthway Medical,CHAS Clinic,461 YISHUN AVENUE 6 760461,1.42841471934027,103.849972823964,Healthway Medical 461 YISHUN AVENUE 6,ChIJF66BazYV2jERHOyeVz6_nU8,11.0,3.0,0.007477906186267845,3.4696511873227247
394,Healthway Medical,CHAS Clinic,267 Compassvale Link 540267,1.38374441791265,103.89704655689,Healthway Medical 267 Compassvale Link,ChIJFVxfdRYW2jERXppRuknP3-U,56.0,4.1,0.038069340584636305,3.4970519116716314
395,Healthway Medical,CHAS Clinic,10 SINARAN DRIVE 307506,1.3207051098625,103.844160709873,Healthway Medical 10 SINARAN DRIVE,ChIJhYFOg-cZ2jER8r3xSiexzyc,30.0,3.2,0.020394289598912305,3.467618146229403
396,Healthway Medical,CHAS Clinic,727 Clementi West  Street 2 120727,1.3046248764802,103.763817745262,Healthway Medical 727 Clementi West  Street 2,ChIJxZZDhO0a2jERy2mfLi-OyDA,22.0,2.4,0.01495581237253569,3.4571392320495113
397,Healthway Medical,CHAS Clinic,308 ANCHORVALE ROAD 540308,1.38955848478423,103.886426650155,Healthway Medical 308 ANCHORVALE ROAD,ChIJi4frM2wW2jERQ8XPlbq1KnY,27.0,3.2,0.018354860639021073,3.4681752971237043
398,Healthway Medical,CHAS Clinic,960 JURONG WEST ST 92 640960,1.34138531152671,103.691459639169,Healthway Medical 960 JURONG WEST ST 92,ChIJJauQgJkP2jERioFCqnMfrIA,22.0,4.4,0.01495581237253569,3.487050856794583
399,Healthway Medical,CHAS Clinic,475 CHOA CHU KANG AVE 3 680475,1.37789727696934,103.739015486131,Healthway Medical 475 CHOA CHU KANG AVE 3,ChIJJURpbNsR2jER4dCYTh7fKrk,108.0,4.0,0.07341944255608429,3.5118677770224362
400,Healthway Medical,CHAS Clinic,721 Ang Mo Kio Ave 8 560721,1.37234984800157,103.847899479496,Healthway Medical 721 Ang Mo Kio Ave 8,ChIJY9hwM-YW2jERV79mhc3YFFM,34.0,3.3,0.023113528212100613,3.469186631191545
401,Healthway Medical,CHAS Clinic,445 FAJAR ROAD 670445,1.38358044593591,103.77076830515,Healthway Medical 445 FAJAR ROAD,ChIJCy5OXJ8R2jERQWA0fpIBg4c,16.0,4.6,0.010876954452753228,3.485445919969997
402,Healthway Medical,CHAS Clinic,710 TAMPINES ST 71 520710,1.35860238778915,103.937730608185,Healthway Medical 710 TAMPINES ST 71,ChIJfxC8qgw92jERJC9EjQNcq8M,23.0,4.5,0.01563562202583277,3.4892444736163553
403,Healthway Medical,CHAS Clinic,443 CLEMENTI AVENUE 3 120443,1.31421051604588,103.764010395269,Healthway Medical 443 CLEMENTI AVENUE 3,ChIJdXaLIY4a2jERWM00RgHyUB4,25.0,3.1,0.01699524133242692,3.4668472069199963
404,Healthway Medical,CHAS Clinic,30 SEMBAWANG DRIVE 757713,1.44819535415187,103.819502127479,Healthway Medical 30 SEMBAWANG DRIVE,ChIJW6IeMH0T2jERV3CBp-JTadU,94.0,2.3,0.06390210740992522,3.398220363815376
405,Healthway Medical,CHAS Clinic,153 BUKIT BATOK ST 11 650153,1.34747947809009,103.744276460475,Healthway Medical 153 BUKIT BATOK ST 11,ChIJye83sz0Q2jERSS6ozx318lU,55.0,2.2,0.037389530931339225,3.4255856911788864
406,Healthway Medical,CHAS Clinic,717 WOODLANDS DRIVE 70 730717,1.44087378957359,103.799494171179,Healthway Medical 717 WOODLANDS DRIVE 70,ChIJWalxOXUT2jERRDiBk62vWVo,52.0,2.5,0.03535010197144799,3.4387873016245134
407,Healthway Medical,CHAS Clinic,452 ANG MO KIO AVE 10 560452,1.36889751154086,103.856200835268,Healthway Medical 452 ANG MO KIO AVE 10,ChIJnXp0q-QW2jERmkIDPt0lKt4,45.0,3.5,0.030591434398368457,3.474009822077407
408,Healthwerkz Medical Centre (CCK),CHAS Clinic,225 CHOA CHU KANG CENTRAL 680225,1.38109065346169,103.744889593655,Healthwerkz Medical Centre (CCK) 225 CHOA CHU KANG CENTRAL,ChIJR20cNcIR2jERtGk-7lP7Y0A,16.0,3.9,0.010876954452753228,3.4778320518530697
409,Healthwerkz medical centre @ orchard,CHAS Clinic,9 SCOTTS ROAD 228210,1.3065470470191,103.832128173794,Healthwerkz medical centre @ orchard 9 SCOTTS ROAD,ChIJ162TXI0Z2jERsbEUiy3TGdY,2.0,5.0,0.0013596193065941536,3.475265535994752
410,Heartland Family Clinic,CHAS Clinic,333C YISHUN STREET 31 763333,1.43188998725882,103.845790190573,Heartland Family Clinic 333C YISHUN STREET 31,ChIJKdo4cV0U2jERcHcVzeDreb0,106.0,5.0,0.07205982324949015,3.5832113387561852
411,HeartlandHealth,CHAS Clinic,87 WHAMPOA DRIVE 320087,1.32328917056723,103.855735558254,HeartlandHealth 87 WHAMPOA DRIVE,ChIJcYaAFIUZ2jERVm2TBLTXjvA,9.0,2.0,0.006118286879673691,3.464176258233904
412,Hill Spring Medical,CHAS Clinic,12 JALAN LEBAN 577552,1.37154719878388,103.829175553654,Hill Spring Medical 12 JALAN LEBAN,ChIJV4Rro9EW2jERvjXvCnoHvLM,45.0,3.9,0.030591434398368457,3.4862463958367544
413,Hisemainn Medical Clinic (Bukit Batok),CHAS Clinic,289E BUKIT BATOK ST 25 654289,1.34417029371853,103.759431387572,Hisemainn Medical Clinic (Bukit Batok) 289E BUKIT BATOK ST 25,ChIJpTOU-3cj2jERPaUrSiDCOMw,0.0,0.0,0.0,3.4731896551724164
414,Hisemainn Medical Clinic (Jurong West),CHAS Clinic,276 JURONG WEST ST 25 640276,1.35361178019917,103.703725312401,Hisemainn Medical Clinic (Jurong West) 276 JURONG WEST ST 25,ChIJ_WYxW7gP2jERt550sFossFE,19.0,2.4,0.01291638341264446,3.4593279261117256
415,Horizon Medical Centre,CHAS Clinic,200 Upper Thomson Road 574424,1.35184499139998,103.836053648693,Horizon Medical Centre 200 Upper Thomson Road,ChIJP0JYTToX2jERYYiPv9yKaUA,92.0,4.0,0.06254248810333107,3.5061376848965073
416,LIFELINE BISHAN MEDICAL CLINIC,CHAS Clinic,501 BISHAN ST 11 570501,1.34841689766538,103.84907733333,LIFELINE BISHAN MEDICAL CLINIC 501 BISHAN ST 11,ChIJzxbFaRQX2jERsVf-XS-qYiI,37.0,2.5,0.02515295717199184,3.448711057455639
417,LIFELINE BUKIT PANJANG MEDICAL CLINIC,CHAS Clinic,103 GANGSA ROAD 670103,1.37867070866309,103.768538441068,LIFELINE BUKIT PANJANG MEDICAL CLINIC 103 GANGSA ROAD,ChIJ2_vCEqUR2jERT1luHk4yQnk,26.0,1.7,0.017675050985723997,3.441848437609886
418,LIFELINE MEDICAL CENTRE,CHAS Clinic,710 CLEMENTI WEST ST 2 120710,1.30628911897632,103.761518107763,LIFELINE MEDICAL CENTRE 710 CLEMENTI WEST ST 2,ChIJi4SrB-0a2jERiZM09MTlibs,12.0,4.8,0.008157715839564922,3.484013396938515
419,LIFELINE MEDICAL GROUP,CHAS Clinic,118 RIVERVALE DRIVE 540118,1.38533736141014,103.901841043722,LIFELINE MEDICAL GROUP 118 RIVERVALE DRIVE,ChIJ-TfVcRcW2jERPxMERrxrAcE,49.0,1.4,0.03331067301155676,3.404130312478026
420,LIFELINE NEIGHBOURHOOD MEDICAL CLINIC,CHAS Clinic,280 BUKIT BATOK EAST AVE 3 650280,1.3477014777938,103.757044584459,LIFELINE NEIGHBOURHOOD MEDICAL CLINIC 280 BUKIT BATOK EAST AVE 3,ChIJafgzm0EQ2jERZRsHWwglDl4,16.0,1.9,0.010876954452753228,3.4560781429475633
421,LIFELINE PUNGGOL MEDICAL CLINIC PTE LTD,CHAS Clinic,198 PUNGGOL FIELD 820198,1.39946295696544,103.906402433947,LIFELINE PUNGGOL MEDICAL CLINIC PTE LTD 198 PUNGGOL FIELD,ChIJA8nyawcW2jERhL30dwi8UpU,32.0,2.5,0.021753908905506457,3.4520189760660145
422,LIFELINE YISHUN RING MEDICAL CLINIC,CHAS Clinic,846 YISHUN RING ROAD 760846,1.41678634673088,103.834641578841,LIFELINE YISHUN RING MEDICAL CLINIC 846 YISHUN RING ROAD,ChIJIbGU73sU2jER3zK9UCpo5LM,15.0,4.7,0.010197144799456152,3.485699617900094
423,LIFELINK SN CLINIC & SURGERY,CHAS Clinic,153 Serangoon North Avenue 1 550153,1.36995099695439,103.872312298307,LIFELINK SN CLINIC & SURGERY 153 Serangoon North Avenue 1,ChIJ87EQ6lYW2jERtzbk2Fa-su8,35.0,2.3,0.02379333786539769,3.4452755573267093
424,LILY AW PASIR RIS FAMILY CLINIC & SURGERY,CHAS Clinic,446 PASIR RIS DR 6 510446,1.37030619330386,103.957726864829,LILY AW PASIR RIS FAMILY CLINIC & SURGERY 446 PASIR RIS DR 6,ChIJqU_nVKw92jER4OOKm3_pHu8,54.0,2.2,0.036709721278042146,3.4264512177969504
425,LIM CLINIC & SURGERY,CHAS Clinic,20 CHAI CHEE ROAD 461020,1.32627271273425,103.922885287164,LIM CLINIC & SURGERY 20 CHAI CHEE ROAD,ChIJAWKkK1M92jERIgEnPXgcjU0,13.0,4.0,0.008837525492861998,3.4778453550247335
426,LIM CLINIC & SURGERY,CHAS Clinic,109 TOA PAYOH LOR 1 310109,1.34123727109327,103.846202461177,LIM CLINIC & SURGERY 109 TOA PAYOH LOR 1,ChIJp4T8PGoX2jERl6ixZs5ZKos,28.0,3.7,0.019034670292318152,3.477506915305096
427,LIM COUNTRY CLINIC,CHAS Clinic,208 HOUGANG ST 21 530208,1.35869679921108,103.886636110951,LIM COUNTRY CLINIC 208 HOUGANG ST 21,ChIJL2u2o7YX2jERCZh13fjDTYU,13.0,3.1,0.008837525492861998,3.4698915820811576
428,LIN & SONS CLINIC & SURGERY PTE LTD,CHAS Clinic,18 TECK WHYE LANE 680018,1.37829768774576,103.754071399254,LIN & SONS CLINIC & SURGERY PTE LTD 18 TECK WHYE LANE,ChIJAQCwzrgR2jER5Ejfzm_TNfk,38.0,1.7,0.02583276682528892,3.427383260273333
429,LIVEWELL MEDICAL FAMILY CLINIC,CHAS Clinic,20 AH HOOD ROAD 329984,1.3269450448725,103.846554377717,LIVEWELL MEDICAL FAMILY CLINIC 20 AH HOOD ROAD,ChIJNawPIWAX2jERCzFlmhmDIgk,21.0,4.0,0.014276002719238613,3.480710401087698
430,LO & LEE CLINIC & SURGERY,CHAS Clinic,134 LORONG AH SOO 530134,1.35046468301438,103.886509353222,LO & LEE CLINIC & SURGERY 134 LORONG AH SOO,ChIJd89VT7kX2jERTHW3TtRX6hc,17.0,1.8,0.011556764106050306,3.453852997022905
431,LOH CLINIC,CHAS Clinic,45 SIMS DR 380045,1.31733721507169,103.878442674599,LOH CLINIC 45 SIMS DR,ChIJPw_A5i8Y2jERXkLckXMaxvs,7.0,1.6,0.004758667573079538,3.4642757683021195
432,LOI+WONG CLINIC & SURGERY,CHAS Clinic,492 JURONG WEST ST 41 640492,1.34994543580238,103.725180466271,LOI+WONG CLINIC & SURGERY 492 JURONG WEST ST 41,ChIJsbl63N4P2jERXbli4Rktobw,17.0,2.9,0.011556764106050306,3.4665654375395603
433,LONDON (MH) CLINIC & SURGERY,CHAS Clinic,104 HOUGANG AVE 1 530104,1.35478438650586,103.890318475998,LONDON (MH) CLINIC & SURGERY 104 HOUGANG AVE 1,ChIJsxAO8bcX2jERP9qv_H8Gzho,20.0,2.7,0.013596193065941536,3.4626772193441036
434,LOW & LEE CLINIC & SURGERY,CHAS Clinic,55 CHAI CHEE DR 460055,1.32684846987483,103.919015572902,LOW & LEE CLINIC & SURGERY 55 CHAI CHEE DR,ChIJ6bhRsFQ92jERl84eF0FVTzs,24.0,4.7,0.016315431679129844,3.4932055955367005
435,LOW MEDICAL CLINIC,CHAS Clinic,67 KALLANG BAHRU 330067,1.3213944644766,103.869336175072,LOW MEDICAL CLINIC 67 KALLANG BAHRU,ChIJew7aoywY2jER-wtHSUSXfoU,10.0,3.8,0.006798096532970768,3.4754113434445277
436,LUM CLINIC & SURGERY,CHAS Clinic,109 BUKIT PURMEI RD 090109,1.27392939913176,103.825310761058,LUM CLINIC & SURGERY 109 BUKIT PURMEI RD,ChIJSyRda2EZ2jERpHfLdC0y_sE,13.0,1.3,0.008837525492861998,3.453984036194006
437,LUSUMU Family Clinic,CHAS Clinic,530 Bedok North St 3 460530,1.33371332045971,103.927020293721,LUSUMU Family Clinic 530 Bedok North St 3,ChIJ3RKTxU892jERumIQbmafqlg,7.0,4.9,0.004758667573079538,3.479979371293282
438,Lakeside Family Medicine Clinic,CHAS Clinic,518A JURONG WEST STREET 52 641518,1.34513828527898,103.71885762802,Lakeside Family Medicine Clinic 518A JURONG WEST STREET 52,ChIJy7BikucP2jER8ZEiJsbb_bk,9.0,4.7,0.006118286879673691,3.4806956328090233
439,Lee Respiratory and Sleep Clinic,CHAS Clinic,820 THOMSON ROAD 574623,1.34182282585918,103.837601167324,Lee Respiratory and Sleep Clinic 820 THOMSON ROAD,ChIJnZIxx0YX2jER_8BXfLu8etI,1.0,5.0,0.0006798096532970768,3.474227595583584
440,Lian Clinic,CHAS Clinic,18 Marsiling Lane 730018,1.44341700675837,103.777861242043,Lian Clinic 18 Marsiling Lane,ChIJLxMNnAET2jERbqlYhlla9Hg,77.0,4.4,0.052345343303874914,3.521703860849999
