,ID,Category,Name,long,lat,avg_rating,num_ratings,W,weighted_rating
0,1,Malls,100 AM,103.8435656,1.2750063,4.1,3396,0.004079455688173903,4.064641874166443
1,2,Malls,313@somerset,103.838361,1.300898,4.3,13668,0.016418728017067404,4.068363700444254
2,3,Malls,Aperia Mall,103.8641481,1.3103708,3.8,2518,0.003024755424859213,4.0636970025592225
3,4,Malls,Balestier Hill Shopping Centre,103.8428618,1.3258546,3.8,17,2.042130350381518e-05,4.064491640045759
4,5,Malls,Bugis Cube,103.8556572,1.2981918,3.9,880,0.0010571027696092564,4.06432315114204
5,6,Malls,Bugis Junction,103.8555261,1.2993754,4.4,11217,0.01347445655307617,4.06901776145893
6,7,Malls,Bugis+,103.8542191,1.2995955,4.3,9993,0.012004122700801477,4.067324047831312
7,8,Malls,Capitol Singapore,103.8511619,1.2929876,4.1,3064,0.003680639643275865,4.06462771501692
8,9,Malls,Cineleisure Orchard,103.8365735,1.3016866,4.1,4780,0.0057419900440139155,4.064700899054817
9,10,Malls,Clarke Quay Central,103.8466098,1.2890252,4.2,9129,0.010966239981548751,4.065982999382114
10,11,Malls,The Centrepoint,103.8401372,1.3015383,4.0,4223,0.005072892040977148,4.064169854892031
11,12,Malls,City Square Mall,103.8561608,1.3114516,4.3,17990,0.021610544119625593,4.06958638849681
12,13,Malls,City Gate Mall,103.8625132,1.3022509,3.9,423,0.0005081300813008131,4.064413455525087
13,14,Malls,CityLink,103.8551976,1.2913005,4.3,1374,0.0016505218243671798,4.0648857441929565
14,15,Malls,DUO Galleria,103.8579913,1.2992641,4.2,533,0.00064026792750197,4.064583799618578
15,16,Malls,Far East Plaza,103.8336949,1.307547,3.9,4983,0.005985844432912414,4.063512387720502
16,17,Malls,Funan,103.8501932,1.2912647,4.4,4670,0.005609852197812759,4.066379163429679
17,18,Malls,Great World,103.8319293,1.2936417,4.2,5433,0.006526408349189875,4.065381389060333
18,19,Malls,Housing & Development Board,103.8479611,1.3323583,4.1,557,0.0006690980030367679,4.064520796378805
19,20,Malls,Holland Road Shopping Centre,103.7953005,1.3102049,4.0,461,0.0005537777008975764,4.064461324396804
20,21,Malls,ION Orchard,103.8319512,1.3039288,4.5,23217,0.02788949432047512,4.076642998709981
21,22,Malls,Junction 8,103.8487631,1.3506808,4.2,10525,0.012643189375156162,4.066210230986337
22,23,Malls,Knightsbridge,103.8361853,1.3030644,4.3,85,0.0001021065175190759,4.064521087807083
23,24,Malls,Liat Towers,103.8305905,1.3051925,4.1,69,8.288646716254397e-05,4.064499984134928
24,25,Malls,Lucky Plaza,103.8339449,1.3045456,4.0,13554,0.016281785158277114,4.06344691444837
25,26,Malls,Marina Bay Sands Singapore,103.8609937,1.2846547,4.6,8202,0.009852678314017182,4.06977317980721
26,27,Malls,The Shoppes at Marina Bay Sands,103.8600338,1.2842759,4.5,16389,0.019687337830825116,4.073070935292003
27,28,Malls,MBFC Tower 3,103.8544967,1.2790221,4.3,976,0.001172423071748448,4.064773150522221
28,29,Malls,Marina Bay Link Mall,103.8543391,1.2795303,4.3,2913,0.003499250418036095,4.065321125246377
29,30,Malls,Marina Square,103.8576778,1.2911534,4.3,14348,0.01723558015722001,4.068556071539984
30,31,Malls,Millenia Walk,103.8598344,1.2928181,4.2,5040,0.006054315862307559,4.065317419131637
31,32,Malls,Mustafa Centre,103.8558162,1.309637,4.3,782,0.0009393799611754983,4.064718268180204
32,33,Malls,Ngee Ann City,103.834568,1.3025572,4.4,14027,0.01684997789694209,4.070150258856547
33,34,Malls,Orchard Central,103.8398742,1.3006295,4.3,9932,0.011930846258817199,4.067306791012431
34,35,Malls,Orchardgateway,103.8393516,1.300459,4.3,3624,0.004353341405754483,4.0655222662008805
35,36,Malls,Midpoint Orchard,103.8386169,1.3015954,3.8,659,0.0007916258240596591,4.064287658731741
36,37,Malls,Palais Renaissance,103.829583,1.3067391,4.1,343,0.00041202982951815334,4.0645116696980885
37,38,Malls,Oscar Enterprise CCTV Services & Mobile Phone Repair & Service Centre,103.8440022,1.2857964,3.8,1267,0.0015219877376078726,4.0640944801664425
38,39,Malls,People's Park Complex,103.842484,1.2841947,4.0,1568,0.0018835649349401296,4.0643755570544915
39,40,Malls,Plaza Singapura,103.8452356,1.3005317,4.4,17702,0.021264583213208017,4.071631372001117
40,41,Malls,GR.ID,103.8492265,1.3001949,3.8,1317,0.0015820503949720349,4.06407859377127
41,42,Malls,Raffles City Singapore,103.8531473,1.29401,4.5,653,0.0007844183051759595,4.064838657912786
42,43,Malls,Scotts Square,103.8329554,1.3058788,4.2,1511,0.0018150935055449846,4.064742991960218
43,44,Malls,Centrium Square,103.8547913,1.3107908,3.9,11,1.3213784620115704e-05,4.064494867791641
44,45,Malls,Shaw Centre,103.8318472,1.3062932,4.1,2471,0.0029682965269369004,4.064602424728766
45,46,Malls,Sim Lim Square,103.8529208,1.3030433,4.0,11020,0.01323780968306137,4.063643241860678
46,47,Malls,Singapore Shopping Centre,103.8440979,1.2980833,3.8,298,0.0003579734378904073,4.064402358504888
47,48,Malls,JW Marriott Hotel Singapore South Beach,103.8557929,1.2944688,4.5,2743,0.0032950373829979435,4.065932039949044
48,49,Malls,Square 2,103.8441474,1.3208322,4.0,3283,0.003943714082530896,4.064242683529587
49,50,Malls,Sunshine plaza,103.8511253,1.3004038,3.9,928,0.0011147629206788522,4.064313666217781
50,51,Malls,Suntec City,103.8583026,1.29503,4.4,21420,0.025730842414807126,4.073129815177038
51,52,Malls,Tanglin Mall,103.8238278,1.3048437,4.1,2473,0.002970699033231467,4.064602510024847
52,53,Malls,TANGS at Tang Plaza,103.8329225,1.3047955,4.3,4445,0.005339570239674028,4.065754526009106
53,54,Malls,Guoco Tower,103.8456194,1.2769313,4.2,2600,0.0031232581829364393,4.064920252144314
54,55,Malls,Tekka Centre,103.850654,1.306251,4.1,17113,0.020557045109458185,4.065226877341163
55,56,Malls,The Adelphi,103.8512167,1.2911845,3.8,941,0.0011303792115935343,4.064198059462968
56,57,Malls,Paragon Shopping Centre,103.8360565,1.3039633,4.4,11208,0.01346364527475062,4.069014134243067
57,58,Malls,Tiong Bahru Plaza,103.8277527,1.2865081,4.1,7170,0.008612985066020873,4.064802827872166
58,59,Malls,The Poiz Centre,103.8684274,1.331429,4.0,60,7.207518883699475e-05,4.064492392783678
59,60,Malls,Thomson Plaza,103.8308,1.3548,4.0,2215,0.0026607757212323896,4.064325429258216
60,61,Malls,United Square Shopping Mall,103.8436045,1.3171849,4.0,4234,0.005086105825597263,4.064169002642017
61,62,Malls,Novela (Velocity),103.8439076,1.3199572,4.1,8046,0.009665282823040997,4.064840187555847
62,63,Malls,Wheelock Place,103.8305375,1.3047145,4.1,3041,0.0036530108208883507,4.064626734111983
63,64,Malls,Wisma Atria,103.8332642,1.3037148,4.2,6618,0.00794989332872052,4.065574275486553
64,65,Malls,Zhongshan Mall,103.8464431,1.3270618,4.0,2409,0.0028938188318053393,4.06431039866706
65,66,Malls,Century Square,103.9438567,1.3523888,4.2,4950,0.005946203079052067,4.065302769529646
66,67,Malls,Tampines 1,103.9453692,1.3540351,4.2,7518,0.009031021161275443,4.065720771506468
67,68,Malls,Tampines Mall,103.9447179,1.3524936,4.3,12101,0.014536364335274558,4.067920398228069
68,69,Malls,Our Tampines Hub,103.9403839,1.3536067,4.5,7777,0.009342145726421803,4.0685655735234585
69,70,Malls,Changi City Point,103.9627387,1.3342732,4.3,9179,0.011026302638912914,4.067093768313779
70,71,Malls,Downtown East,103.9546233,1.3776279,4.3,7691,0.009238837955755443,4.066672815092538
71,72,Malls,Djitsun Mall Bedok,103.9294351,1.3260768,4.0,738,0.0008865248226950354,4.064439863191908
72,73,Malls,Eastpoint Mall,103.9530415,1.3427145,4.0,6118,0.007349266755078898,4.064023035457808
73,74,Malls,Bedok Mall,103.9293061,1.3243963,4.2,11998,0.014412635261104385,4.066449996138929
74,75,Malls,Bedok Point,103.9323811,1.3249305,4.0,2392,0.0028733975283015242,4.064311715780718
75,76,Malls,Paya Lebar Square,103.8925321,1.3191484,4.2,3182,0.0038223875146552884,4.065014986237193
76,77,Malls,SingPost Centre,103.894049,1.318903,4.2,5643,0.0067786715101193565,4.06541557146498
77,78,Malls,Paya Lebar Quarter - PLQ 2,103.894003,1.3175281,4.3,34,4.084260700763036e-05,4.064506659974904
78,79,Malls,KINEX,103.8947554,1.3147221,3.9,4333,0.005205029887178305,4.063640829403173
79,80,Malls,Katong Shopping Centre,103.9011732,1.303903,3.6,1495,0.0017958734551884526,4.063662863513417
80,81,Malls,Roxy Square 1,103.9043811,1.3039864,3.8,470,0.0005645889792231255,4.064347709305494
81,82,Malls,I12 Katong,103.9051599,1.3052934,3.9,3564,0.004281266216917488,4.063792785793902
82,83,Malls,Parkway Parade,103.9052333,1.3013366,4.3,7242,0.008699475292625266,4.066545793589623
83,84,Malls,White Sands,103.9496584,1.3724166,4.1,5444,0.006539622133809991,4.064729217353863
84,85,Malls,City Plaza,103.8934127,1.3147665,3.8,2263,0.0027184358723019854,4.063778023174603
85,86,Malls,Katong Square,103.9046894,1.3047255,4.0,768,0.0009225624171135329,4.064437538873689
86,87,Malls,Katong V,103.9029701,1.3036199,4.0,1350,0.001621691748832382,4.0643924471002215
87,88,Malls,Kallang Wave Mall,103.8728714,1.3032243,4.2,7655,0.009195592842453247,4.065743071456166
88,89,Malls,Leisure Park Kallang,103.8765402,1.3023423,3.9,2855,0.003429577735493667,4.063932886029308
89,90,Malls,Elias Mall,103.9418722,1.3783052,3.8,1916,0.002301601030194699,4.063888274757101
90,91,Malls,Loyang Point,103.9645538,1.3669795,4.1,1380,0.0016577293432508793,4.064555895716327
91,92,Malls,Jewel Changi Airport,103.9897593,1.3602082,4.7,32253,0.03874401775932653,4.089118979333441
92,93,Malls,888 Plaza,103.7955224,1.438178,4.1,2463,0.0029586865017586345,4.06460208354444
93,94,Malls,Admiralty Place,103.8015029,1.4403583,5.0,2,2.402506294566492e-06,4.064499288971864
94,95,Malls,AMK Hub,103.8484398,1.36953,4.1,12091,0.014524351803801726,4.065012698880607
95,96,Malls,Canberra Plaza,103.8305883,1.443306,4.0,608,0.0007303619135482135,4.064449935237527
96,97,Malls,Causeway Point,103.7859471,1.4360933,4.3,10518,0.01263478060312518,4.067472569633161
97,98,Malls,Woodlands Civic Centre,103.78678,1.4349053,3.8,287,0.0003447596532702916,4.0644058535118255
98,99,Malls,Broadway Plaza,103.8459981,1.3719487,3.7,273,0.00032794210920832615,4.064377507491554
99,100,Malls,Djitsun Mall,103.8477202,1.3728774,3.5,1001,0.0012024544004305292,4.063818259468631
100,101,Malls,Jubilee Square,103.8476215,1.3717025,3.6,1521,0.001827106037017817,4.063648356071562
101,102,Malls,Junction Nine,103.8418547,1.4330624,4.0,1042,0.001251705779469142,4.064416310100613
102,103,Malls,Marsiling Mall,103.7797206,1.4334272,4.2,722,0.0008673047723385035,4.064614563782759
103,104,Malls,Northpoint City,103.8358671,1.4293478,4.3,12243,0.01470694228218878,4.0679605698392365
104,105,Malls,Sembawang Shopping Centre,103.8248907,1.4418355,4.0,4410,0.005297526379519114,4.064155366641794
105,106,Malls,Sun Plaza,103.8196887,1.4482678,4.0,4697,0.005642286032789406,4.064133130664157
106,107,Malls,Vista Point,103.7940801,1.4308341,4.2,685,0.0008228584058890234,4.064608541168608
107,108,Malls,Wisteria Mall,103.8411267,1.418208,3.9,1129,0.0013562148032827846,4.064273948097447
108,109,Malls,Woodlands Mart,103.7979427,1.4459095,4.3,691,0.0008300659247727229,4.0646925244012175
109,110,Malls,Woodlands North Plaza,103.7907333,1.4426674,4.0,1020,0.0012252782102289109,4.0644180146006414
110,111,Malls,Waterway Point,103.9024751,1.4067567,4.3,11701,0.01405586307636126,4.067807238759994
111,112,Malls,Compass One,103.89505,1.3920064,4.2,8093,0.009721741720963309,4.065814366185858
112,113,Malls,Hougang Mall,103.8937225,1.3725894,4.0,6086,0.007310826654365834,4.064025514730575
113,114,Malls,Heartland Mall,103.8851096,1.3594883,3.9,5158,0.006196063733686983,4.063477807267476
114,115,Malls,NEX,103.8722585,1.3507723,4.3,17913,0.021518047627284785,4.069564605299205
115,116,Malls,Greenwich V,103.8695524,1.3872145,3.8,1498,0.0017994772146303023,4.0640210850207446
116,117,Malls,Hougang 1,103.8791547,1.3760614,3.9,2541,0.003052384247246728,4.063994933242168
117,118,Malls,Hougang Green Shopping Mall,103.8880715,1.3795596,3.9,665,0.0007988333429433585,4.064365635698616
118,119,Malls,myVillage,103.8652075,1.3650699,3.9,243,0.00029190451478982877,4.064449023991057
119,120,Malls,Northshore Plaza I,103.9017705,1.4169373,4.1,20,2.4025062945664917e-05,4.064497894380932
120,121,Malls,Oasis Terraces,103.9132022,1.4023703,4.3,2093,0.0025142228372638338,4.065089148336822
121,122,Malls,Punggol Plaza Wet Market,103.913016,1.394228,3.8,2833,0.0034031501662534357,4.063596918269635
122,123,Malls,Rivervale Mall,103.9044463,1.3922624,3.9,2676,0.003214553422129966,4.063968256892689
123,124,Malls,Rivervale Plaza,103.9018653,1.385387,3.9,3055,0.003669828364950316,4.063893365511563
124,125,Malls,The Seletar Mall,103.8760834,1.3915208,4.1,5461,0.006560043437313806,4.064729942370555
125,126,Malls,Buangkok Square Mall,103.8819612,1.3847829,4.0,736,0.000884122316400469,4.064440018146456
126,127,Malls,The Midtown & Midtown Residences,103.8954832,1.3704775,3.5,218,0.0002618731861077476,4.064349214781333
127,128,Malls,Upper Serangoon Shopping Centre,103.8786057,1.3539639,3.3,698,0.0008384746968037056,4.063856029995105
128,129,Malls,Beauty World Centre,103.7763425,1.342311,3.8,2785,0.00334549001518384,4.063612169209001
129,130,Malls,Beauty World Plaza,103.7762292,1.3417322,3.9,47,5.6458897922312554e-05,4.064487754098447
130,131,Malls,Bukit Panjang Plaza,103.7642339,1.3800396,4.1,4838,0.005811662726556343,4.064703372641178
131,132,Malls,Bukit Timah Plaza,103.7786758,1.3387468,3.9,1235,0.0014835476368948086,4.064253002223042
132,133,Malls,Fajar Shopping Centre,103.7705214,1.3838672,3.8,1519,0.0018247035307232505,4.064014412734773
133,134,Malls,Greenridge Shopping Centre,103.7663598,1.3854081,4.0,380,0.00045647619596763344,4.064467600055998
134,135,Malls,Hillion mall,103.7632117,1.3784819,4.2,6822,0.008194948970766303,4.065607481251067
135,136,Malls,HillV2,103.7643204,1.363354,4.0,2042,0.0024529589267523882,4.064338832826617
136,137,Malls,Junction 10,103.7601697,1.3803079,3.6,1719,0.0020649541601798996,4.063537876322045
137,138,Malls,Keat Hong Shopping Centre,103.7445833,1.3769332,4.0,91,0.00010931403640277537,4.064489990988184
138,139,Malls,Limbang Shopping Centre,103.7433578,1.3920533,3.7,1262,0.0015159814718714562,4.063944470658772
139,140,Malls,Lot One Shoppers' Mall,103.7449142,1.3851169,4.0,6235,0.007489813373311038,4.06401397061675
140,141,Malls,The Rail Mall,103.7678472,1.3581599,4.1,2434,0.0029238501604874206,4.064600846751259
141,142,Malls,Sunshine Place,103.7391785,1.3780564,3.8,1484,0.001782659670568337,4.064025533211393
142,143,Malls,Teck Whye Shopping Centre,103.752319,1.3811358,4.0,591,0.0007099406100443983,4.064451252351185
143,144,Malls,West Mall,103.749223,1.3500565,4.1,6090,0.007315631666954967,4.064756767988175
144,145,Malls,YewTee Point,103.7468352,1.39716,4.0,1842,0.002212708297295739,4.064354328281416
145,146,Malls,Kopitiam @ Yew Tee Square,103.7468533,1.3978691,3.6,312,0.0003747909819523727,4.064322952117849
146,147,Malls,VivoCity,103.8222071,1.2644032,4.5,42067,0.050533116146764305,4.086504363008294
147,148,Malls,OCBC Bank,103.8203582,1.2642175,4.3,4545,0.005459695554402353,4.0657828158761244
148,149,Malls,Alexandra Retail Centre,103.8015008,1.2739139,4.0,3769,0.004527523112110554,4.064205029574425
149,150,Malls,321 Clementi,103.765006,1.311991,3.9,1860,0.0022343308539468374,4.064129500605089
150,151,Malls,The Clementi Mall,103.7643089,1.314918,4.1,8171,0.009815439466451402,4.064845518560938
151,152,Malls,IMM,103.7468395,1.3348154,4.3,13466,0.01617607488131619,4.068306554912877
152,153,Malls,JCube,103.7401991,1.3333104,4.1,7200,0.00864902266043937,4.064804107313388
153,154,Malls,Jem,103.7437122,1.3334945,4.3,14279,0.01715269369005747,4.06853655153174
154,155,Malls,Westgate,103.7426077,1.3345013,4.3,12074,0.01450393050029791,4.067912759963974
155,156,Malls,Jurong Point,103.7067297,1.3397443,4.4,18085,0.0217246631686175,4.071785730187339
156,157,Malls,Pioneer Mall,103.6973858,1.3418699,3.9,2050,0.002462568951930654,4.064091956113232
157,158,Malls,The Star Vista,103.7883997,1.3068072,4.2,7043,0.0084604259163159,4.0656434541626245
158,159,Malls,Alexandra Central Mall,103.8052016,1.2873768,3.7,1524,0.0018307097964596667,4.063829753115608
159,160,Malls,Anchorpoint Shopping Centre,103.8050762,1.2887706,3.9,2763,0.0033190624459436082,4.063951065467471
160,161,Malls,OD Mall,103.7932733,1.3388885,1.8,4,4.805012589132984e-06,4.064486160483326
161,162,Malls,Boon Lay Shopping Centre,103.7125345,1.3468433,4.3,682,0.0008192546464471737,4.0646899783131865
162,163,Malls,Grantral Mall,103.7651586,1.3142983,3.5,239,0.00028709950220069577,4.0643349746005315
163,164,Malls,FairPrice Hub,103.6783524,1.3262422,4.3,262,0.00031472832458821044,4.064571160871707
164,165,Malls,Gek Poh Shopping Centre (HDB Shopping Centre),103.6974711,1.3487594,4.1,270,0.0003243383497664764,4.0645085563911145
165,166,Malls,Rochester mall,103.7882008,1.3055784,3.9,1002,0.0012036556535778124,4.064299043626215
166,167,Malls,Taman Jurong Shopping Centre,103.7204943,1.334643,4.0,1524,0.0018307097964596667,4.064378966054546
167,168,Malls,West Coast Plaza,103.7659312,1.303702,3.9,3030,0.003639797036268235,4.063898305576282
168,169,Malls,Queensway Shopping Centre,103.8034685,1.2875526,4.2,2668,0.0032049433969517,4.0649313207324855
