,Unnamed: 0,school_name,url_address,address,postal_code,telephone_no,telephone_no_2,fax_no,fax_no_2,email_address,mrt_desc,bus_desc,principal_name,first_vp_name,second_vp_name,third_vp_name,fourth_vp_name,fifth_vp_name,sixth_vp_name,dgp_code,zone_code,type_code,nature_code,session_code,mainlevel_code,sap_ind,autonomous_ind,gifted_ind,ip_ind,mothertongue1_code,mothertongue2_code,mothertongue3_code,lat,long,isLatLongAvailable,google_place_id,num_ratings,avg_rating,W,weighted_rating
0,1,ADMIRALTY SECONDARY SCHOOL,http://www.admiraltysec.moe.edu.sg,31   WOODLANDS CRESCENT,737916,63651733,63654596,63652774,na,Admiralty_SS@moe.edu.sg,ADMIRALTY MRT,904,MR LAM YUI- P'NG,MR NG SONG LIM STEVEN,MR SHEIK ALAUDIN B MOHD ISMAIL,,,,,WOODLANDS,NORTH,GOVERNMENT SCHOOL,CO-ED SCHOOL,SINGLE SESSION,SECONDARY,No,No,No,No,Chinese,Malay,Tamil,1.44589068910993,103.802398196596,True,ChIJ6Zf_sHMT2jERgA-KewyeGt0,38,3.8,0.006679557039901565,4.011715014119964
1,3,AHMAD IBRAHIM SECONDARY SCHOOL,http://www.ahmadibrahimsec.moe.edu.sg,751  YISHUN AVENUE 7,768928,67585384,na,67557778,na,aiss@moe.edu.sg,"CANBERRA MRT, YISHUN MRT","117, 167, 169, 800, 811, 812, 883, 856, 858, 859, 965, 969, 980",MISS TAN KE XIN,MR YAO ZHIXUAN TERENCE,MISS LEA SHU HUI,,,,,YISHUN,NORTH,GOVERNMENT SCHOOL,CO-ED SCHOOL,SINGLE SESSION,SECONDARY,No,No,No,No,Chinese,Malay,Tamil,1.43605975368804,103.829718690077,True,ChIJFS66UHwU2jERWh09e6TSKZA,38,4.5,0.006679557039901565,4.016390704047895
2,8,ANDERSON SECONDARY SCHOOL,http://www.andersonsec.moe.edu.sg,10   ANG MO KIO STREET 53,569206,64598303,na,64586104,na,anderson_ss@moe.edu.sg,"ANG MO KIO MRT, YIO CHU KANG MRT","265, 548, 45, 50, 72",MDM THONG MAY TENG,MDM LOW CHIA YEE,MR JONAH LIM TUCK HWAY,,,,,ANG MO KIO,NORTH,GOVERNMENT SCHOOL,CO-ED SCHOOL,SINGLE SESSION,SECONDARY,No,Yes,No,No,Chinese,Malay,Tamil,1.37434001701177,103.851554107068,True,ChIJjSehO-8W2jERoS0Xtdx4AhE,77,4.1,0.013534891896642644,4.0143143446246
3,11,ANG MO KIO SECONDARY SCHOOL,http://www.angmokiosec.moe.edu.sg,6    ANG MO KIO STREET 22,569362,64548605,na,64582425,na,AMKSS@MOE.EDU.SG,ANG MO KIO MRT,"13, 74, 76, 88, 130, 132, 133, 136, 165, 169, 265, 268, 269, 851, 852",MR SHAW SWEE TAT,MDM TONG WAI HAN,MDM LEE KEE CHIN,,,,,ANG MO KIO,SOUTH,GOVERNMENT SCHOOL,CO-ED SCHOOL,SINGLE SESSION,SECONDARY,No,No,No,No,Chinese,Malay,Tamil,1.36733710171069,103.842154973672,True,ChIJQSLoaN4W2jEREKEaoTFSjXA,27,4.4,0.004746001054666901,4.014974730335018
4,12,ANGLICAN HIGH SCHOOL,http://www.anglicanhigh.moe.edu.sg,600  UPPER CHANGI ROAD,487012,62414866,na,64414690,na,AHS@MOE.EDU.SG,TANAH MERAH MRT,"2, 9, 12, 14, 24, 31, 35, 38, 45, 47, 48",MR KHOO TSE HORNG,MR GOH CHIN WEI,MR CHIN LIH KEONG,,,,,BEDOK,EAST,GOVERNMENT-AIDED SCH,CO-ED SCHOOL,SINGLE SESSION,SECONDARY,Yes,Yes,No,No,Chinese,na,na,1.33118109596833,103.941853443058,True,ChIJG36iFTQ92jERDoItkdCSXms,54,4.7,0.009492002109333802,4.019658375171448
5,14,ANGLO-CHINESE SCHOOL (BARKER ROAD),http://www.acsbr.moe.edu.sg,60   BARKER ROAD,309919,62561633,na,62561366,na,acsbr@moe.edu.sg,"NEWTON MRT, STEVENS MRT","48, 66, 67, 170, 960, 972",MR LOO MING YAW,MRS AW MENG YIN,MR TAN WHYE WEE JEFFREY,,,,,NOVENA,SOUTH,GOVERNMENT-AIDED SCH,BOYS' SCHOOL,SINGLE SESSION,SECONDARY,No,No,No,No,Chinese,Malay,Tamil,1.31961649151328,103.835772689988,True,ChIJlefV_eQZ2jER5ie6_kdpos8,71,4.4,0.012480224995605554,4.017966802370564
6,19,ASSUMPTION ENGLISH SCHOOL,http://www.assumptionenglish.moe.edu.sg,622  UPPER BUKIT TIMAH ROAD,678117,65729100,na,67636560,na,AES@MOE.EDU.SG,CASHEW MRT,"67, 75, 170, 176, 178, 184, 961, 963, 970",MR KWOK CHIN POH BENJAMIN,MISS WONG KER SIN,,,,,,BUKIT PANJANG,WEST,GOVERNMENT-AIDED SCH,CO-ED SCHOOL,SINGLE SESSION,SECONDARY,No,No,No,No,Chinese,Malay,Tamil,1.36916295281535,103.767937546001,True,ChIJd4xTzK0R2jER0hHm9en5cEM,29,4.2,0.005097556688345931,4.014091222271692
7,20,ASSUMPTION PATHWAY SCHOOL,http://www.aps.edu.sg,30   Cashew Road,679697,62793000,na,67622857,na,aps@schools.gov.sg,"DOWNTOWN LINE 2, CASHEW MRT","SBS Transit No 170    SMRT No 67, 75, 171, 176, 178, 184, 961, 963 & 970",MR STEPHEN CHIN,MR SHASHIDARAN S/O KANESON,,,,,,BUKIT PANJANG,WEST,SPECIALISED SCHOOL,CO-ED SCHOOL,SINGLE SESSION,SECONDARY,No,No,No,No,Chinese,Malay,Tamil,1.3696707043227,103.765959130581,True,ChIJGWsKZa4R2jERTiCpYl3ppIA,40,3.6,0.007031112673580594,4.010233861479383
8,21,BARTLEY SECONDARY SCHOOL,http://www.bartleysec.moe.edu.sg,10   JALAN BUNGA RAMPAI,538403,62889013,na,62805595,na,bartley_ss@moe.edu.sg,"BARTLEY MRT, TAI SENG MRT","22, 24, 28, 43, 58, 62, 70, 70M, 76, 80, 80A, 93, 158",MR MOHD AZHAR B TERIMO,MRS TAN CHYE NA,MR NG CHOR YAM,,,,,TOA PAYOH,SOUTH,GOVERNMENT SCHOOL,CO-ED SCHOOL,SINGLE SESSION,SECONDARY,No,No,No,No,Chinese,Malay,Tamil,1.33995415587811,103.882806211705,True,ChIJh9c405YX2jER60tXZ8rxoes,49,3.5,0.008613113025136229,4.008718964630169
9,23,BEATTY SECONDARY SCHOOL,http://www.beattysec.moe.edu.sg,1    TOA PAYOH NORTH,318990,62569108,na,62542284,na,BEATTY_SS@MOE.EDU.SG,"BRADDELL MRT, TOA PAYOH MRT","28, 56, 73, 88, 93, 105, 153, 155, 157, 159, 163, 231, 232",MR LING KHOON CHOW,MR LIM SOON WAI,,,,,,TOA PAYOH,SOUTH,GOVERNMENT SCHOOL,CO-ED SCHOOL,SINGLE SESSION,SECONDARY,No,No,No,No,Chinese,Malay,Tamil,1.34177065605301,103.852285636043,True,ChIJ13CgF2wX2jERG-papLrcu8w,56,4.0,0.009843557743012831,4.013009354715787
10,25,BEDOK GREEN SECONDARY SCHOOL,http://www.bedokgreensec.moe.edu.sg,360  BEDOK NORTH AVE 3,469722,64463301,na,64465969,na,BGSS@MOE.EDU.SG,"BEDOK MRT, BEDOK RESERVOIR MRT","14, 17, 18, 28, 46, 66, 67, 69, 168, 222, 228, 506",MR BOY ENG SENG,MS FOO SHEUE FENG (FU XUEFENG),MISS SAKINAH BINTE MOHAMED SARIP,,,,,BEDOK,EAST,GOVERNMENT SCHOOL,CO-ED SCHOOL,SINGLE SESSION,SECONDARY,No,No,No,No,Chinese,Malay,Tamil,1.33451947288431,103.935028383346,True,ChIJRWdWjkg92jERRufzDBhUm48,31,4.1,0.00544911232202496,4.013612003187096
11,26,BEDOK SOUTH SECONDARY SCHOOL,http://www.bedoksouthsec.moe.edu.sg,1    JALAN LANGGAR BEDOK,468585,64414479,na,64491314,na,bsss@moe.edu.sg,TANAH MERAH MRT,"10, 14, 45",MR TEOH TEIK HOE,MISS AZLINDA BTE SAMSUDIN,MISS TAN PO CHIN,,,,,BEDOK,EAST,GOVERNMENT SCHOOL,CO-ED SCHOOL,SINGLE SESSION,SECONDARY,No,No,No,No,Chinese,Malay,Tamil,1.32513655159184,103.950989139261,True,ChIJAY3oyNIi2jER9QR8VXn90aI,39,4.5,0.006855334856741079,4.01647628346675
12,27,BEDOK VIEW SECONDARY SCHOOL,http://www.bedokviewsec.moe.edu.sg,6    BEDOK SOUTH AVENUE 3,469293,64430563,na,64494286,na,bedokview_ss@moe.edu.sg,TANAH MERAH MRT,"2, 9, 12, 14, 24, 25, 31, 35, 38, 45, 46, 47, 48, 506",MDM TEO YVONNE,MDM CH'NG YUEN PING,MR LAWRENCE KOH,,,,,BEDOK,EAST,GOVERNMENT SCHOOL,CO-ED SCHOOL,SINGLE SESSION,SECONDARY,No,No,No,No,Chinese,Malay,Tamil,1.3241570405706,103.943776244752,True,ChIJnxFYoMwi2jERtt_FbuGHSj8,34,3.7,0.005976445772543505,4.011267229754438
13,29,BENDEMEER SECONDARY SCHOOL,http://www.bendemeersec.moe.edu.sg,1    ST WILFRED ROAD,327919,62927616,na,62932594,na,BENDEMEER_SS@MOE.EDU.SG,BOON KENG MRT,"13,  23,  31,  64,  65,  66, 125, 133, 140, 147, 857, 985",MR CHEN FOOK PANG,MR LAWRENCE POON YEW LEE,MR HO CHI CHENG,,,,,KALLANG,SOUTH,GOVERNMENT SCHOOL,CO-ED SCHOOL,SINGLE SESSION,SECONDARY,No,No,No,No,Chinese,Malay,Tamil,1.32461111307996,103.860970284401,True,ChIJ5QMhZdYZ2jERiifGszdwCkQ,41,4.2,0.007206890490420109,4.014485375157335
14,32,BOON LAY SECONDARY SCHOOL,https://www.boonlaysec.moe.edu.sg,11   JURONG WEST STREET 65,648354,67940161,na,67941324,na,BLSS@MOE.EDU.SG,BOON LAY MRT,"99, 181, 192, 193, 242, 243, 257, 502, 502A",MR INDERJIT SINGH,MR ABDULATTIF S/O ABDULLAH,MISS SHARON SHEN QIUHUA,,,,,JURONG WEST,WEST,GOVERNMENT SCHOOL,CO-ED SCHOOL,SINGLE SESSION,SECONDARY,No,No,No,No,Chinese,Malay,Tamil,1.34272216334333,103.701891453912,True,ChIJc2MrR5QP2jERndRHjWsok84,36,3.9,0.0063280014062225345,4.01242274436645
15,33,BOWEN SECONDARY SCHOOL,http://www.bowensec.moe.edu.sg,2    LORONG NAPIRI,547529,63859466,na,63856559,na,BOWEN_SS@MOE.EDU.SG,"HOUGANG MRT, SERANGOON MRT, SENGKANG MRT","43, 70, 73, 103, 109, 156, 854, 25, 74, 74E, 76, 112, 132, 147, 165, 55",MR LIU EARNLER,MISS LIM GUIHAO,MR TAY YONG SEAH MELVIN,,,,,HOUGANG,NORTH,GOVERNMENT SCHOOL,CO-ED SCHOOL,SINGLE SESSION,SECONDARY,No,No,No,No,Chinese,Malay,Tamil,1.37035994436209,103.877659577677,True,ChIJyXY-e2gX2jER7lgmPMZvBG0,56,3.6,0.009843557743012831,4.009071931618581
16,34,BROADRICK SECONDARY SCHOOL,http://www.broadricksec.moe.edu.sg,61   DAKOTA CRESCENT,399935,63445025,na,64471427,na,BROADRICK_SS@MOE.EDU.SG,DAKOTA MRT,"10, 16, 30, 31, 32, 33",MDM TAN LAY HONG,MDM SUTINAH BINTE TAIB,"MR QUEK POH BENG, KENNETH",,,,,GEYLANG,EAST,GOVERNMENT SCHOOL,CO-ED SCHOOL,SINGLE SESSION,SECONDARY,No,No,No,No,Chinese,Malay,Tamil,1.30705061123433,103.886917922608,True,ChIJgxoe5j8Y2jER-IXbEoimW5Q,26,4.7,0.004570223237827386,4.016277795669195
17,35,BUKIT BATOK SECONDARY SCHOOL,http://www.bukitbatoksec.moe.edu.sg,50   BUKIT BATOK WEST AVE 8,658962,65663121,na,65607006,na,bbss@moe.edu.sg,BUKIT BATOK MRT,"66, 66B, 157, 174, 174E, 178, 506, 941, 991",MR PHUA HUAT CHUAN,MR MAK YEW CHONG,MR WU TIAN HWEE,,,,,BUKIT BATOK,WEST,GOVERNMENT SCHOOL,CO-ED SCHOOL,SINGLE SESSION,SECONDARY,No,No,No,No,Chinese,Malay,Tamil,1.348490856493,103.740873704829,True,ChIJgdOw1TwQ2jERyhBsORQ474o,42,4.0,0.007382668307259624,4.013041687569686
18,36,BUKIT MERAH SECONDARY SCHOOL,http://www.bukitmerahsec.moe.edu.sg,10   LENGKOK BAHRU,159050,64748934,na,64744122,na,bmss@moe.edu.sg,REDHILL MRT,"14, 32, 33, 63, 64, 120, 132, 139, 145, 147, 196, 197, 855, 961",MR CHENG GHEE HOCK TIMOTHY,MR KOH YONG HWEE DARYL,MDM YAP SHARON,,,,,BUKIT MERAH,SOUTH,GOVERNMENT SCHOOL,CO-ED SCHOOL,SINGLE SESSION,SECONDARY,No,No,No,No,Chinese,Malay,Tamil,1.28569283064288,103.813438929393,True,ChIJr-gxt9Mb2jERIMgNDtjR_3U,24,4.7,0.004218667604148356,4.016036325704748
19,37,BUKIT PANJANG GOVT. HIGH SCHOOL,http://www.bpghs.moe.edu.sg,7    CHOA CHU KANG AVE 4,689809,67691031,na,67626576,na,BPGHS@MOE.EDU.SG,CHOA CHU KANG MRT,"300, 983",MR CHUA LEK HONG,MR LING TING LIANG EDMUND,,,,,,CHOA CHU KANG,WEST,GOVERNMENT SCHOOL,CO-ED SCHOOL,SINGLE SESSION,SECONDARY,No,Yes,No,No,Chinese,Malay,Tamil,1.3822255716626,103.738353917696,True,ChIJbUEQbd0R2jERyMl2YGs8yHE,57,4.2,0.010019335559852346,4.015010912338193
20,41,BUKIT VIEW SECONDARY SCHOOL,https://www.bukitviewsec.moe.edu.sg,16   BUKIT BATOK STREET 21,659633,65661990,na,65630945,na,BUKITVIEW_SS@MOE.EDU.SG,BUKIT BATOK MRT,"61, 66, 77, 106, 157, 173, 174, 178, 189, 506, 653, 852, 963, 990",MR KEVIN ANG,MISS WONG KAH WAI SHIRLEY,MR ANG CHERN KWANG KYRIS,,,,,BUKIT BATOK,WEST,GOVERNMENT SCHOOL,CO-ED SCHOOL,SINGLE SESSION,SECONDARY,No,No,No,No,Chinese,Malay,Tamil,1.3457330554294,103.752226593984,True,ChIJ6czkAUAQ2jERcvQ9hZ1Q8Zk,72,4.6,0.012656002812445069,4.020566004570224
21,43,CANBERRA SECONDARY SCHOOL,https://canberrasec.moe.edu.sg,51   SEMBAWANG DRIVE,757699,67585070,na,67583110,na,CANBERRA_SS@MOE.EDU.SG,SEMBAWANG MRT,"859, 962",MR NG TIONG NAM,MS TNG YA WEN VALERIE,MDM ONG LAY YEN,,,,,SEMBAWANG,NORTH,GOVERNMENT SCHOOL,CO-ED SCHOOL,SINGLE SESSION,SECONDARY,No,No,No,No,Chinese,Malay,Tamil,1.45319086315972,103.814203583818,True,ChIJEenioWYT2jER9GF4RU0Fe8Q,41,3.7,0.007206890490420109,4.0108819299121246
22,49,CEDAR GIRLS' SECONDARY SCHOOL,http://www.cedargirlssec.moe.edu.sg,1    CEDAR AVENUE,349692,62884909,na,62820244,na,cedargirlss@moe.edu.sg,"WOODLEIGH MRT, POTONG PASIR MRT, MATTAR MRT","8, 13, 61, 64, 65, 66, 90, 100, 107, 133, 135, 142, 147, 151, 154, 155, 853",MDM TEY KAH HWEE,MDM LIM YING YING,MDM TAN GEOK LAN,,,,,TOA PAYOH,EAST,GOVERNMENT SCHOOL,GIRLS' SCHOOL,SINGLE SESSION,SECONDARY,No,Yes,No,Yes,Chinese,Malay,Tamil,1.33375800216334,103.873933064886,True,ChIJOWsoiYQX2jER9tBMhXyx8zA,81,4.3,0.014238003164000703,4.017223018425879
23,51,CHANGKAT CHANGI SECONDARY SCHOOL,http://www.changkatchangisec.moe.edu.sg,23   SIMEI ST 3,529894,67859790,na,67868481,na,CHANGKATCHGI@MOE.EDU.SG,SIMEI MRT,"5, 9, 20, 38",MR HO MING DA,MISS LOH SEIN LING,MR DANNY CHEW POH HUAT,,,,,TAMPINES,EAST,GOVERNMENT SCHOOL,CO-ED SCHOOL,SINGLE SESSION,SECONDARY,No,No,No,No,Chinese,Malay,Tamil,1.33950630072876,103.953245525564,True,ChIJMT1ZviA92jERuZWfEVHiSjE,22,4.3,0.0038671119704693268,4.014248010952114
24,55,CHIJ KATONG CONVENT,http://www.chijkatongconvent.moe.edu.sg,346  MARINE TERRACE,449150,64486433,na,64494405,na,chijktcs@moe.edu.sg,"BEDOK MRT, KEMBANGAN MRT, EUNOS MRT, PAYA LEBAR MRT","4N, 13, 16, 31, 36, 36A, 36B, 43, 47, 48, 55, 134, 135, 135A, 150, 196, 196E, 197, 853C, 763",MDM CHAN GEK SAN PATRICIA,MDM ONG BEE HOON,MISS LIM AI HUI ANNIE,,,,,MARINE PARADE,EAST,GOVERNMENT-AIDED SCH,GIRLS' SCHOOL,SINGLE SESSION,SECONDARY,No,Yes,No,No,Chinese,Malay,Tamil,1.30644268034894,103.917144350028,True,ChIJJ0GcTJ4i2jEReD_y1OfFRY0,24,4.1,0.004218667604148356,4.0135051251422595
25,60,CHIJ SECONDARY (TOA PAYOH),http://www.chijsec.edu.sg,626  LORONG 1 TOA PAYOH,319764,63534972,na,63544573,na,CHIJTPSS@MOE.EDU.SG,TOA PAYOH MRT,"59, 141, 231",MDM RACHEL ANG LAY KOON,MISS TEO GEOK SIAN,MISS PHUA AI LING ADELINE,,,,,TOA PAYOH,SOUTH,GOVERNMENT-AIDED SCH,GIRLS' SCHOOL,SINGLE SESSION,SECONDARY,No,Yes,No,No,Chinese,Malay,Tamil,1.33246079948303,103.843271625083,True,ChIJT0ebt10X2jERi6sjw9FZ940,43,4.3,0.007558446124099139,4.015306911917352
26,61,CHIJ ST. JOSEPH'S CONVENT,http://www.chijstjosephsconvent.moe.edu.sg,62   SENGKANG EAST WAY,548595,64897580,na,64897589,na,CHIJSJCS@MOE.EDU.SG,SENGKANG MRT,"50, 82, 86, 88, 119, 136",MRS VALERIE PINTO,MISS TAN KIM BERLINA,MISS HO WEI LING,,,,,SENG KANG,NORTH,GOVERNMENT-AIDED SCH,GIRLS' SCHOOL,SINGLE SESSION,SECONDARY,No,No,No,No,Chinese,Malay,Tamil,1.39175222260369,103.902464991543,True,ChIJAyk0HRAW2jER9_UCjt9w8Wc,32,4.1,0.005624890138864475,4.0136272714792165
27,66,CHRIST CHURCH SECONDARY SCHOOL,http://www.christchurchsec.moe.edu.sg,20   WOODLANDS DRIVE 17,737924,68933297,na,68932789,na,ccss@moe.edu.sg,"WOODLANDS MRT, WOODLANDS SOUTH MRT","901, 901M, 665",MR LAU YAN BOON DAVID,MR ONG KAH HUI VICTOR,MRS LEE BEE CHEOW,,,,,WOODLANDS,NORTH,GOVERNMENT-AIDED SCH,CO-ED SCHOOL,SINGLE SESSION,SECONDARY,No,No,No,No,Chinese,Malay,Tamil,1.42653981910601,103.792987223691,True,ChIJ0wJO9LsT2jERcbPlpLT7gPY,40,4.4,0.007031112673580594,4.015858751618247
28,68,CHUA CHU KANG SECONDARY SCHOOL,http://www.chuachukangsec.moe.edu.sg,3    TECK WHYE CRESCENT,688845,67655228,67664425,67636807,na,CCKSS@MOE.EDU.SG,CHOA CHU KANG MRT,"190, 307, 975, 982E, 985",MDM ONG LIANG FUNG,MDM HARTATI BTE OSMAN,,,,,,CHOA CHU KANG,WEST,GOVERNMENT SCHOOL,CO-ED SCHOOL,SINGLE SESSION,SECONDARY,No,No,No,No,Chinese,Malay,Tamil,1.38319029263484,103.751878290333,True,ChIJE5QEBcAR2jERYKAcfh6IBLw,40,3.4,0.007031112673580594,4.008827638944667
29,69,CHUNG CHENG HIGH SCHOOL (MAIN),http://www.chungchenghighmain.moe.edu.sg,50   GOODMAN ROAD,439012,63441393,na,63449686,na,CCHMS@MOE.EDU.SG,DAKOTA MRT,"10, 12, 14, 16, 16M, 30, 31, 32, 33, 40, 43, 135, 134, 196, 197",MR CHAN YING YIN,DR ONG CHUN GHEE,"MDM TAN JWEE LYNN, CHERYL",,,,,MARINE PARADE,EAST,GOVERNMENT-AIDED SCH,CO-ED SCHOOL,SINGLE SESSION,SECONDARY,Yes,Yes,No,No,Chinese,na,na,1.30509154753048,103.891653229373,True,ChIJz6iBgGoY2jERVm86S4KIgKo,70,4.6,0.01230444717876604,4.020359690169146
30,70,CHUNG CHENG HIGH SCHOOL (YISHUN),http://www.chungchenghighyishun.moe.edu.sg,11   YISHUN STREET 61,768547,67583912,na,67587397,na,cchys@moe.edu.sg,KHATIB MRT,"85, 811, 812, 851, 852, 853, 854, 855, 858, 860, 965, 969",MR TAN YEE KAN,MRS CHONG LAI PENG NEE YEO,MR CHANG FOOK YONG,,,,,YISHUN,NORTH,GOVERNMENT-AIDED SCH,CO-ED SCHOOL,SINGLE SESSION,SECONDARY,No,No,No,No,Chinese,Malay,Tamil,1.41922603586175,103.837390782849,True,ChIJz6iBgGoY2jERVm86S4KIgKo,70,4.6,0.01230444717876604,4.020359690169146
31,72,CLEMENTI TOWN SECONDARY SCHOOL,http://www.clementitownsec.moe.edu.sg,10   CLEMENTI AVE 3,129904,67777362,na,67789543,na,ctss@moe.edu.sg,CLEMENTI MRT,"14, 105, 106, 147, 156, 165, 166, 173, 175, 184, 196, 282, 284, 285, 7, 96, 99",MDM LEE CHING GUAN HELEN,MISS LEONG KAI LING,MRS TAY CHEN LAI,,,,,CLEMENTI,WEST,GOVERNMENT SCHOOL,CO-ED SCHOOL,SINGLE SESSION,SECONDARY,No,No,No,No,Chinese,Malay,Tamil,1.31553912945073,103.762020598524,True,ChIJQZgPTpAa2jER9P9PQ1O8K48,37,4.4,0.006503779223062049,4.015654746706733
32,73,COMMONWEALTH SECONDARY SCHOOL,http://www.commonwealthsec.moe.edu.sg,698  WEST COAST ROAD,608784,65606866,na,65645204,na,cwss@moe.edu.sg,"JURONG EAST MRT, CLEMENTI MRT","30, 51, 78, 79, 143, 143M, 176, 201",MR NG BOON KIAT,MR LEOW ZHI WEN PHILIBERT,,,,,,JURONG EAST,WEST,GOVERNMENT SCHOOL,CO-ED SCHOOL,SINGLE SESSION,SECONDARY,No,Yes,No,No,Chinese,Malay,Tamil,1.31920395934801,103.745637393049,True,ChIJ9TkRCBcQ2jERr5vfHgln9C4,49,4.1,0.008613113025136229,4.01388683244525
33,75,COMPASSVALE SECONDARY SCHOOL,http://www.compassvalesec.moe.edu.sg,51   COMPASSVALE CRESCENT,545083,68815047,na,68815998,na,CVSS@MOE.EDU.SG,"SENGKANG MRT, COMPASSVALE LRT","27, 27A, 82,  83,  86,  88,  89, 89E, 136, 161, 371, 965",MR CHIA CHOR YANN,MR SUKHDEV SINGH S/O GURDEEP SINGH,MISS KEE LEE LING,,,,,SENG KANG,NORTH,GOVERNMENT SCHOOL,CO-ED SCHOOL,SINGLE SESSION,SECONDARY,No,No,No,No,Chinese,Malay,Tamil,1.39614083952009,103.899847164494,True,ChIJk8CdLAkW2jERdy-WT67Bhjw,60,3.4,0.010546669010370891,4.006672115351306
34,78,CRESCENT GIRLS' SCHOOL,http://www.crescent.edu.sg,357  TANGLIN ROAD,247961,64758711,na,64741248,na,CRESCENTGIRL@MOE.EDU.SG,REDHILL MRT,"32, 111, 122, 132, 51, 139, 186, 970",MRS HELEN CHONG,MISS USHA JEYARAJAH,,,,,,BUKIT MERAH,SOUTH,GOVERNMENT SCHOOL,GIRLS' SCHOOL,SINGLE SESSION,SECONDARY,No,Yes,No,No,Chinese,Malay,Tamil,1.29331947049729,103.817544461483,True,ChIJ5RTulSsa2jERN4w5UsB25Ws,44,4.6,0.0077342239409386535,4.01767760295512
35,79,CREST SECONDARY SCHOOL,http://www.crestsec.edu.sg,561  JURONG EAST STREET 24,609561,68992779,na,68992668,na,info@crestsec.edu.sg,"BUKIT BATOK MRT, JURONG EAST MRT","41, 52, 98, 98M, 105, 176, 183, 187, 188, 188R, 333, 502, 868, 990",MR SEET TIAT HEE,MR HO KUM FAI SAM,MR CHAN TECK HONG DAVID,,,,,JURONG EAST,WEST,SPECIALISED SCHOOL,CO-ED SCHOOL,SINGLE SESSION,SECONDARY,No,No,No,No,Chinese,Malay,Tamil,1.3431198045076,103.742628105304,True,ChIJWfHsY6092jERoJbkkNk2ECc,51,4.6,0.008964668658815258,4.018399703358897
36,81,DAMAI SECONDARY SCHOOL,http://www.damaisec.moe.edu.sg,4800 BEDOK RESERVOIR ROAD,479229,64436848,na,64425629,na,damai_ss@moe.edu.sg,"BEDOK RESERVOIR MRT, BEDOK MRT, TAMPINES MRT","5, 21, 22, 59, 65, 66, 228, 506, CT18",MDM CHAN WAN SIONG,MRS OH WEE MING,MR SIVAKUMAR S/O VISWANATHAN,,,,,BEDOK,EAST,GOVERNMENT SCHOOL,CO-ED SCHOOL,SINGLE SESSION,SECONDARY,No,No,No,No,Chinese,Malay,Tamil,1.33692798510393,103.927091653438,True,ChIJPboXJkU92jERdTeTNouJaOQ,29,3.9,0.005097556688345931,4.0125619552651886
37,84,DEYI SECONDARY SCHOOL,http://www.deyisec.moe.edu.sg,1    ANG MO KIO STREET 42,569277,64561565,na,64583364,na,DEYI_SS@MOE.EDU.SG,ANG MO KIO MRT,"22, 24, 25, 45, 50, 55, 73, 74, 76, 88, 132, 135, 159, 162, 165, 261, 262, 268, 652, 853",MRS LIM AI POO,MDM TAN SHAO MAY,MR APOLLOS INDUCHOODAN S/O R A P,,,,,ANG MO KIO,SOUTH,GOVERNMENT SCHOOL,CO-ED SCHOOL,SINGLE SESSION,SECONDARY,No,No,No,No,Chinese,Malay,Tamil,1.36599702567717,103.852545772422,True,ChIJta6NtuMW2jERUqtA0s38gk0,51,3.9,0.008964668658815258,4.012124435297726
38,85,DUNEARN SECONDARY SCHOOL,http://www.dunearnsec.moe.edu.sg,21   BUKIT BATOK WEST AVENUE 2,659204,65653692,na,65668650,na,DUNEARN_SS@MOE.EDU.SG,"BUKIT BATOK MRT, BUKIT GOMBAK MRT","160, 180, 187, 188, 945, 947, 985",MDM TAN MIAO LING,MRS SHANTHIMALAR SOMASUNDRAM,MISS TAY JIA MING JASMINE,,,,,BUKIT BATOK,WEST,GOVERNMENT SCHOOL,CO-ED SCHOOL,SINGLE SESSION,SECONDARY,No,No,No,No,Chinese,Malay,Tamil,1.36357900792871,103.74472109107,True,ChIJYUp8RjMQ2jERVq_XaHBNaKg,25,3.7,0.004394445420987872,4.011762615265983
39,87,DUNMAN SECONDARY SCHOOL,http://www.dunmansec.moe.edu.sg,21   TAMPINES STREET 45,529093,67862668,na,67842164,na,DUNMAN_SS@MOE.EDU.SG,TAMPINES EAST MRT,"28, 29, 293",MR TOH THIAM CHYE,MRS CLAIRE CHO,MR MOHAMED SAYADI BIN MOHAMED NOR,,,,,TAMPINES,EAST,GOVERNMENT SCHOOL,CO-ED SCHOOL,SINGLE SESSION,SECONDARY,No,Yes,No,No,Chinese,Malay,Tamil,1.36065258337022,103.956213906966,True,ChIJVQFL2gA92jERBSa0CMNVVPA,42,4.5,0.007382668307259624,4.016733021723316
40,89,EAST SPRING SECONDARY SCHOOL,http://www.eastspringsec.moe.edu.sg,30   TAMPINES STREET 34,529231,65873805,na,65873804,na,esss@moe.edu.sg,"TAMPINES MRT, TAMPINES EAST MRT","3, 4, 9, 12, 17, 18, 19, 21, 28, 29, 34, 37, 39, 59, 81, 291, 518",MISS HO SUSIE,MR ANG JOHNNY,MR TAN SHIN EIK,,,,,TAMPINES,EAST,GOVERNMENT SCHOOL,CO-ED SCHOOL,SINGLE SESSION,SECONDARY,No,No,No,No,Chinese,Malay,Tamil,1.35622508992581,103.960640700298,True,ChIJaY1pfwI92jERK2wpVmpLsjc,33,3.7,0.005800667955703991,4.011322272589054
41,91,EDGEFIELD SECONDARY SCHOOL,http://www.edgefieldsec.moe.edu.sg,36   PUNGGOL FIELD,828814,68839511,na,63153120,na,edgefield_ss@moe.edu.sg,PUNGGOL MRT,"3, 34, 62, 82, 83, 119, 136, 381, 382G",MR LEE PECK PING,MDM LIM PUAY KHENG,MR BENSON TEO HONG GUAN,,,,,PUNGGOL,NORTH,GOVERNMENT SCHOOL,CO-ED SCHOOL,SINGLE SESSION,SECONDARY,No,No,No,No,Chinese,Malay,Tamil,1.40059309981824,103.902687385465,True,ChIJEb04DAgW2jERGOop2T9zzXo,58,4.0,0.010195113376691862,4.013004735736657
42,97,EVERGREEN SECONDARY SCHOOL,http://www.evergreensec.moe.edu.sg,11   WOODLANDS STREET 83,738489,63656392,na,63658083,na,EVERGREEN_SS@MOE.EDU.SG,WOODLANDS MRT,911,MR TOH KIM YONG VINCENT,MR CHUA TUNG KIAN,MR LAK YAU HUI,,,,,WOODLANDS,NORTH,GOVERNMENT SCHOOL,CO-ED SCHOOL,SINGLE SESSION,SECONDARY,No,No,No,No,Chinese,Malay,Tamil,1.44149131273737,103.794137756171,True,ChIJGbQrNwoT2jERpjakLuCFZdE,55,3.7,0.009667779926173316,4.010111330227499
43,99,FAIRFIELD METHODIST SCHOOL (SECONDARY),http://www.fairfieldmethodistsec.moe.edu.sg,102  DOVER ROAD,139649,67788702,na,67797482,na,FMSS@MOE.EDU.SG,"BUONA VISTA MRT, ONE-NORTH MRT","33, 74, 166, 196",MS CHEN LI YING AUDREY,MR LIM SIN HENG,MR LIM YONG CHAI ALAN,,,,,QUEENSTOWN,SOUTH,GOVERNMENT-AIDED SCH,CO-ED SCHOOL,SINGLE SESSION,SECONDARY,No,Yes,No,No,Chinese,Malay,Tamil,1.30183742154919,103.784340509094,True,ChIJjw7yEFsa2jERufHDVg2XpLg,35,3.7,0.00615222358938302,4.011212186919821
44,100,FAJAR SECONDARY SCHOOL,http://www.fajarsec.moe.edu.sg,31   GANGSA ROAD,678972,67691491,na,67633025,na,FAJAR_SS@MOE.EDU.SG,"BUKIT PANJANG MRT, BUKIT PANJANG LRT, PETIR LRT","67, 75, 75A, 170, 171, 176, 177, 178, 180, 180A, 920, 922, 960, 961, 963, 963E, 963R, 970, 972, 972A, 973, 973A, 975, 976, 979",MISS HO SOOK FUN DORIS,MS CHOO WAN XIAN,MR NGOH SING KIEN ARTHUR,,,,,BUKIT PANJANG,WEST,GOVERNMENT SCHOOL,CO-ED SCHOOL,SINGLE SESSION,SECONDARY,No,No,No,No,Chinese,Malay,Tamil,1.375600053443,103.763998914082,True,ChIJu-q0UakR2jER8lWWCgRXvQ8,20,3.5,0.003515556336790297,4.011334718171706
45,108,FUCHUN SECONDARY SCHOOL,http://www.fuchunsec.moe.edu.sg,21   WOODLANDS AVENUE 1,739062,63681984,na,63670180,na,fcss@moe.edu.sg,"MARSILING MRT, WOODLANDS MRT","187, 856, 912, 913M, 925, 925M, 926, 950, 960, 960E, 961, 961M, 963, 963E, 963R, 966, 912B, 912M",MDM ONG BEE LIAN DORIS,"MR SIM KOK HIAN, KENNETH",MR KWAN YEW MENG,,,,,WOODLANDS,NORTH,GOVERNMENT SCHOOL,CO-ED SCHOOL,SINGLE SESSION,SECONDARY,No,No,No,No,Chinese,Malay,Tamil,1.43070452883799,103.777625748539,True,ChIJuUInd60T2jERzGq4edNYpjk,34,4.0,0.005976445772543505,4.013060163486201
46,110,FUHUA SECONDARY SCHOOL,http://www.fuhuasec.moe.edu.sg,5    JURONG WEST STREET 41,649410,65633067,na,65634379,na,FHSS@MOE.EDU.SG,"CHINESE GARDEN MRT, LAKESIDE MRT","49, 98, 99, 157, 180, 185, 187, 198, 334, 335, 502, 657",MISS FOONG LAI LEONG,MR SIM HOW CHONG,MRS SHAIMA ANSHAD,,,,,JURONG WEST,WEST,GOVERNMENT SCHOOL,CO-ED SCHOOL,SINGLE SESSION,SECONDARY,No,No,No,No,Chinese,Malay,Tamil,1.34701408913756,103.72652089832,True,ChIJxa1CuN8P2jERCCOAUor-UGU,40,4.1,0.007031112673580594,4.0137494178161734
47,112,GAN ENG SENG SCHOOL,http://www.ganengsengsch.moe.edu.sg,1    HENDERSON ROAD,159561,64745594,na,64732479,na,GESS@MOE.EDU.SG,"REDHILL MRT, TIONG BAHRU MRT","14, 16, 32, 33, 51, 63, 64, 120, 122, 145, 139, 186, 851, 970",MISS TAN HWEE PIN,MR CHUNG KWOK LEONG DANIEL,MDM SARAWATHY D/O VARADARAJU,,,,,BUKIT MERAH,SOUTH,GOVERNMENT SCHOOL,CO-ED SCHOOL,SINGLE SESSION,SECONDARY,No,No,No,No,Chinese,Malay,Tamil,1.28907114458398,103.823733672546,True,ChIJJwIPJIAZ2jERQ29Xz4cafqY,45,3.6,0.007910001757778168,4.0098707583978825
48,114,GEYLANG METHODIST SCHOOL (SECONDARY),http://www.geylangmethodistsec.moe.edu.sg,2    GEYLANG EAST CENTRAL,389705,67466503,na,67477317,na,gmss@moe.edu.sg,ALJUNIED MRT,"40, 62, 63, 80, 100, 125, 134, 155, 158",MR WEE TAT CHUEN,MDM LOY WEE MENG,MR LEW KING LUN JULIAN,,,,,GEYLANG,EAST,GOVERNMENT-AIDED SCH,CO-ED SCHOOL,SINGLE SESSION,SECONDARY,No,No,No,No,Chinese,Malay,Tamil,1.31764900474601,103.882661129303,True,ChIJbXmi2CQY2jERm-1d2r19ddw,25,3.3,0.004394445420987872,4.010004837097588
49,117,GREENDALE SECONDARY SCHOOL,http://www.greendalesec.moe.edu.sg,51   EDGEDALE PLAINS,828866,63158616,na,63158420,na,greendale_ss@moe.edu.sg,"PUNGGOL MRT, MERIDIAN LRT","3, 62, 83, 85, 136, 386",MISS NG AMY,MR LOH CHIH HUI,MRS ANNE CHAN,,,,,PUNGGOL,NORTH,GOVERNMENT SCHOOL,CO-ED SCHOOL,SINGLE SESSION,SECONDARY,No,No,No,No,Chinese,Malay,Tamil,1.39696019936894,103.91170014084,True,ChIJ-0XSoQEW2jERXhyZD5J4UtA,56,4.6,0.009843557743012831,4.018915489361594
50,119,GREENRIDGE SECONDARY SCHOOL,http://www.greenridgesec.moe.edu.sg,32   BUKIT PANJANG RING ROAD,679938,67601052,na,67628334,na,gss@moe.edu.sg,BANGKIT LRT,"722, 920, 922, 971, 972, 972M, 976",MDM KOH HOON CHOO JESSIE,MRS FIRDOUSE-DALINA ABDULLAH,,,,,,BUKIT PANJANG,WEST,GOVERNMENT SCHOOL,CO-ED SCHOOL,SINGLE SESSION,SECONDARY,No,No,No,No,Chinese,Malay,Tamil,1.38186433722811,103.773828466913,True,ChIJS4GFPqAR2jERQGJOjeXgYz8,31,3.6,0.00544911232202496,4.010887447026084
51,122,GUANGYANG SECONDARY SCHOOL,http://guangyangsec.moe.edu.sg,8    BISHAN STREET 12,579807,62589781,na,63543108,na,gyss@moe.edu.sg,BISHAN MRT,"13, 56, 57, 59, 71, 88, 93, 157, 163, 410",MR LIM HOCK CHUAN ALVIN,MR KOH LIP KANG,,,,,,BISHAN,SOUTH,GOVERNMENT SCHOOL,CO-ED SCHOOL,SINGLE SESSION,SECONDARY,No,No,No,No,Chinese,Malay,Tamil,1.34440856042912,103.850208933626,True,ChIJO1uoUWsX2jER0LhkV6JzpLg,41,3.5,0.007206890490420109,4.00944055181404
52,123,HAI SING CATHOLIC SCHOOL,http://www.haisingcatholic.moe.edu.sg,9    PASIR RIS DRIVE 6,519421,65827864,na,65822543,na,HSHS@MOE.EDU.SG,PASIR RIS MRT,"3, 5, 6, 12, 17, 21, 89, 354, 358",MR ANG TECK SIANG DANIEL,MRS TEO-TAY CHAI HONG,MISS SHEREEN WONG MINGRUI,,,,,PASIR RIS,EAST,GOVERNMENT-AIDED SCH,CO-ED SCHOOL,SINGLE SESSION,SECONDARY,No,No,No,No,Chinese,Malay,Tamil,1.37434641160381,103.954957944437,True,ChIJV7vmjrE92jERwZ9jDTET-sI,50,4.2,0.008788890841975743,4.014780989821567
53,126,HILLGROVE SECONDARY SCHOOL,http://www.hillgrovesec.moe.edu.sg,10   BUKIT BATOK STREET 52,659250,65603726,na,65630920,na,HILLGROVE_SS@MOE.EDU.SG,"BUKIT BATOK MRT, BUKIT GOMBAK MRT","176, 985, 945",MDM ONG HUI MIIN ANGELINE,MR MALVIN CHAN HUAN JIAN,MR SNG CHIN SENG,,,,,BUKIT BATOK,WEST,GOVERNMENT SCHOOL,CO-ED SCHOOL,SINGLE SESSION,SECONDARY,No,No,No,No,Chinese,Malay,Tamil,1.35273576615912,103.752986488399,True,ChIJlbQ2dkcQ2jERaimN_f_UsEc,45,3.5,0.007910001757778168,4.009079758222105
54,127,HOLY INNOCENTS' HIGH SCHOOL,http://www.holyinnocentshigh.moe.edu.sg,1191 UPPER SERANGOON ROAD,534786,62833381,na,62831737,na,HIHS@MOE.EDU.SG,HOUGANG MRT,"27, 72, 74, 80, 87, 89, 101, 107, 113, 116, 119, 132, 136, 147, 153, 161, 165, 324, 325",MRS REBECCA CHEW,MR NG CHENG SONG JEREMY,MR CHIA KENG HWEE,,,,,HOUGANG,SOUTH,GOVERNMENT-AIDED SCH,CO-ED SCHOOL,SINGLE SESSION,SECONDARY,No,No,No,No,Chinese,Malay,Tamil,1.37154508822261,103.896398814264,True,ChIJT25XPzcW2jERBBvuNTGjVno,40,4.6,0.007031112673580594,4.017264974152964
55,132,HOUGANG SECONDARY SCHOOL,http://www.hougangsec.moe.edu.sg,2    HOUGANG STREET 93,534256,63851990,na,63852015,na,HOUGANG_SS@MOE.EDU.SG,"HOUGANG MRT, BUANGKOK MRT","43, 88, 101, 109, 156, 159, 161, 325, 329",MR ARIVAZHAGAN MANICKAM,MRS YOONG JIN ING,MDM JESMINE CHUNG KAH MIN,,,,,HOUGANG,NORTH,GOVERNMENT SCHOOL,CO-ED SCHOOL,SINGLE SESSION,SECONDARY,No,No,No,No,Chinese,Malay,Tamil,1.37764019332164,103.882533963338,True,ChIJy6Yng0QW2jERLtHQyvkplXo,39,3.9,0.006855334856741079,4.012363082552706
56,133,HUA YI SECONDARY SCHOOL,http://www.huayisec.moe.edu.sg,60   JURONG WEST ST 42,649371,65634568,na,65634505,na,HYSS@MOE.EDU.SG,"LAKESIDE MRT, CHINESE GARDEN MRT","49, 98, 98B, 98M, 99, 157, 185, 187, 198, 198A, 334, 335, 502",MISS GWEE SU PIN SANDRA,MDM KHOO HENG OI CATHERINE,MDM TAN KAY BIN,,,,,JURONG WEST,WEST,GOVERNMENT SCHOOL,CO-ED SCHOOL,SINGLE SESSION,SECONDARY,No,No,No,No,Chinese,Malay,Tamil,1.35234365488339,103.721832320169,True,ChIJLRtFv9sP2jERVafAzSd4JAs,44,4.1,0.0077342239409386535,4.0138104909846515
57,140,JUNYUAN SECONDARY SCHOOL,http://www.junyuansec.moe.edu.sg,11   TAMPINES STREET 84,528933,65873683,na,65873682,na,JUNYUAN_SS@MOE.EDU.SG,"TAMPINES MRT, TAMPINES WEST MRT","69, 291, 293",MR MOHAMED RAZALI B ABDUL HAMED,MR NG CHENG KEONG,,,,,,TAMPINES,EAST,GOVERNMENT SCHOOL,CO-ED SCHOOL,SINGLE SESSION,SECONDARY,No,No,No,No,Chinese,Malay,Tamil,1.35361315263537,103.933886165824,True,ChIJC3-EnG092jERTDrbAJxO38U,29,3.8,0.005097556688345931,4.012052199596353
58,143,JURONG SECONDARY SCHOOL,http://www.jurongsec.moe.edu.sg,31   YUAN CHING ROAD,618652,62655980,na,62686414,na,JURONG_SS@MOE.EDU.SG,LAKESIDE MRT,"30, 49, 98, 98A, 154, 240, 246",MDM TAY SU- CHIN (ZHENG SUZHEN),MISS TAN HUI MIN DEBORAH,MDM LER SIAH WOON JULIA,,,,,JURONG WEST,WEST,GOVERNMENT SCHOOL,CO-ED SCHOOL,SINGLE SESSION,SECONDARY,No,No,No,No,Chinese,Malay,Tamil,1.33002032220942,103.723952961648,True,ChIJsUBgxf4P2jERpCwsWp4c_V0,33,4.2,0.005800667955703991,4.014222606566906
59,145,JURONG WEST SECONDARY SCHOOL,http://www.jurongwestsec.moe.edu.sg,61   JURONG WEST STREET 65,648348,62623593,na,62623587,na,JWSS@MOE.EDU.SG,"BOON LAY MRT, PIONEER MRT","30, 154, 157, 180, 187, 198, 242",MR MICHAEL MUHUNTHAN S/O SUBRAMANIAM,MRS ROSIE LAU @ MDM ROSIE LIM,,,,,,JURONG WEST,WEST,GOVERNMENT SCHOOL,CO-ED SCHOOL,SINGLE SESSION,SECONDARY,No,No,No,No,Chinese,Malay,Tamil,1.33525634688323,103.702098904443,True,ChIJibwBko0P2jERY3OuWOHJMtI,45,4.6,0.007910001757778168,4.017780760155661
60,146,JURONGVILLE SECONDARY SCHOOL,http://www.jurongvillesec.moe.edu.sg,202  JURONG EAST AVENUE 1,609790,65638704,na,65662137,na,JURONGVILLE@MOE.EDU.SG,"JURONG EAST MRT, CHINESE GARDEN MRT","98, 98M, 99, 157, 185, 187, 198, 334, 502",MR CHAN YEW WOOI,MR YONG KEK SHOONG,,,,,,JURONG EAST,WEST,GOVERNMENT SCHOOL,CO-ED SCHOOL,SINGLE SESSION,SECONDARY,No,No,No,No,Chinese,Malay,Tamil,1.35128862770284,103.728907710089,True,ChIJXc8jYicQ2jERFunXyoPO2M0,28,4.2,0.0049217788715064156,4.014058376197888
61,148,JUYING SECONDARY SCHOOL,http://juyingsec.moe.edu.sg,33   JURONG WEST STREET 91,649038,63089898,na,67932835,na,JUYING_SS@MOE.EDU.SG,"BOON LAY MRT, PIONEER MRT, JOO KOON MRT","99, 241",MDM SOH BENG MUI,MR NG HAN MING,,,,,,JURONG WEST,WEST,GOVERNMENT SCHOOL,CO-ED SCHOOL,SINGLE SESSION,SECONDARY,No,No,No,No,Chinese,Malay,Tamil,1.3387227734133,103.687310264575,True,ChIJGfW4g5wP2jERx1lgTjFmabY,35,4.0,0.00615222358938302,4.013057853996637
62,150,KENT RIDGE SECONDARY SCHOOL,http://www.kentridgesec.moe.edu.sg,147  WEST COAST ROAD,127368,67731127,na,67735119,na,KRSS@MOE.EDU.SG,"CLEMENTI MRT, HAW PAR VILLA MRT","30, 51, 143, 175, 176, 201, 282",MR KEH CHIN CHUAN BENEDICT,MR OW KWOK LEONG,,,,,,CLEMENTI,SOUTH,GOVERNMENT SCHOOL,CO-ED SCHOOL,SINGLE SESSION,SECONDARY,No,No,No,No,Chinese,Malay,na,1.30122773426098,103.764889617566,True,ChIJo6oYDmEb2jERxsECpdT_e2k,15,4.7,0.002636667252592723,4.014949710864738
63,154,KRANJI SECONDARY SCHOOL,http://www.kranjisec.moe.edu.sg,61   CHOA CHU KANG STREET 51,689333,67662464,na,67662095,na,kranji_ss@moe.edu.sg,"CHUA CHU KANG MRT, YEW TEE MRT",302,MR GOH SOON HOE,MR CHRISTOPHER THOMAS,MDM ONG LAY LING,,,,,CHOA CHU KANG,WEST,GOVERNMENT SCHOOL,CO-ED SCHOOL,SINGLE SESSION,SECONDARY,No,No,No,No,Chinese,Malay,Tamil,1.39005109871311,103.741190664845,True,ChIJ9TMrne8R2jER9MbWpucSlBU,23,4.1,0.004042889787308841,4.013489856850139
64,156,KUO CHUAN PRESBYTERIAN SECONDARY SCHOOL,http://www.kuochuanpresbyteriansec.moe.edu.sg,10   BISHAN STREET 13,579795,62593811,na,63536535,na,kcpss@moe.edu.sg,BISHAN MRT,"54, 56, 410G, 410W",MR JUSTIN TAN,MR TAN CHE CHUEN TIMOTHY,,,,,,BISHAN,SOUTH,GOVERNMENT-AIDED SCH,CO-ED SCHOOL,SINGLE SESSION,SECONDARY,No,No,No,No,Chinese,Malay,Tamil,1.3500756234832,103.855365171957,True,ChIJHa8-ixEX2jERDjDiLfYeZQY,41,4.3,0.007206890490420109,4.015206064206377
65,159,LOYANG VIEW SECONDARY SCHOOL,http://www.loyangviewsec.moe.edu.sg,12   PASIR RIS STREET 11,519073,65821727,na,65810557,na,loyangview_ss@moe.edu.sg,PASIR RIS MRT,"12, 21, 39, 53, 81, 109, 359, 518",MR LEE HAK BOON,MISS TAN CHOR HIANG,MS SAADIAH SAADON WYLDE,,,,,PASIR RIS,EAST,GOVERNMENT SCHOOL,CO-ED SCHOOL,SINGLE SESSION,SECONDARY,No,No,No,No,Chinese,Malay,Tamil,1.36658417167238,103.956944585725,True,ChIJXZDQtqs92jERwzIQAUvGhGg,55,3.0,0.009667779926173316,4.003343884279177
66,161,MANJUSRI SECONDARY SCHOOL,http://www.manjusrisec.moe.edu.sg,20   UBI AVENUE 1,408940,68424558,na,67454492,na,manjusri_ss@moe.edu.sg,"UBI MRT, MACPHERSON MRT","5, 8, 15, 22, 25, 45, 51, 55, 59, 61, 63, 63M, 65, 66, 93, 94, 137, 854",MR SIM CHONG BOON,MDM HENG WEI SHAN,MISS ELEANOR CHIA SHUEN LI,,,,,GEYLANG,EAST,GOVERNMENT-AIDED SCH,CO-ED SCHOOL,SINGLE SESSION,SECONDARY,No,No,No,No,Chinese,Malay,na,1.32747123084846,103.901719963831,True,ChIJGd3-kPcX2jEREyKEY8kzMaI,46,3.9,0.008085779574617683,4.012223871653967
67,164,MARSILING SECONDARY SCHOOL,http://www.marsilingsec.moe.edu.sg,12   MARSILING ROAD,739110,68941413,na,68946156,na,MARSILING_SS@MOE.EDU.SG,MARSILING MRT,"913, 911",MR GOH AIK CHOON,MR TAY KIM SENG,,,,,,WOODLANDS,NORTH,GOVERNMENT SCHOOL,CO-ED SCHOOL,SINGLE SESSION,SECONDARY,No,No,No,No,Chinese,Malay,Tamil,1.43664424769955,103.776008090454,True,ChIJP78g0aoT2jERYyih9hGtA30,29,3.8,0.005097556688345931,4.012052199596353
68,167,MAYFLOWER SECONDARY SCHOOL,http://www.mayflowersec.moe.edu.sg,2    ANG MO KIO STREET 21,569384,64577783,na,64583284,na,MAYFLOWER_SS@MOE.EDU.SG,"ANG MO KIO MRT, MAYFLOWER MRT (Targeted to open in 2020)","71, 76, 132, 165, 166, 169, 262, 265, 268, 269",MDM LEE EET FONG,MR GOH KENG TENG GORDON,MR PRASHANT S/O JAYAPRAGAS,,,,,ANG MO KIO,SOUTH,GOVERNMENT SCHOOL,CO-ED SCHOOL,SINGLE SESSION,SECONDARY,No,No,No,No,Chinese,Malay,Tamil,1.36827266209722,103.835360726863,True,ChIJMVVIBlgW2jER7aXEjzSx47A,29,4.0,0.005097556688345931,4.013071710934023
69,170,MERIDIAN SECONDARY SCHOOL,http://www.meridiansec.moe.edu.sg,31   PASIR RIS STREET 51,518901,65831387,na,65836467,na,meridian_sec@moe.edu.sg,PASIR RIS MRT,"39, 53, 81, 89, 109, 359, 403, 518",MDM TAN HWEE TSIAN HILDA,MR MOHD AZMAN B MOHD SIDEK,MRS ROSE CHEN,,,,,PASIR RIS,EAST,GOVERNMENT SCHOOL,CO-ED SCHOOL,SINGLE SESSION,SECONDARY,No,No,No,No,Chinese,Malay,Tamil,1.3672468492013,103.948972483629,True,ChIJ2YSOoKg92jERbqT4b9SPLe4,35,4.0,0.00615222358938302,4.013057853996637
70,172,METHODIST GIRLS' SCHOOL (SECONDARY),http://www.mgs.moe.edu.sg,11   BLACKMORE DRIVE,599986,64694800,na,64698717,na,MGSS@MOE.EDU.SG,KING ALBERT PARK MRT,"66, 67, 74, 77, 151, 154, 157, 170, 174, 852, 961, 970",MISS NG WUN HAR GRACE,MDM WEE KHENG LIN CORINNE,MDM TAN P'ENG DIANA,,,,,BUKIT TIMAH,WEST,INDEPENDENT SCHOOL,GIRLS' SCHOOL,SINGLE SESSION,SECONDARY,No,No,No,Yes,Chinese,Malay,Tamil,1.33294800935714,103.783393009829,True,ChIJR2icr1UW2jERRxsS7-OUXu8,0,0.0,0.0,4.013138686131388
71,175,MONTFORT SECONDARY SCHOOL,https://montfortsec.moe.edu.sg/,50   HOUGANG AVENUE 8,538785,65107070,na,63862804,na,contact@montfortsec.edu.sg,HOUGANG MRT,"74, 74e, 88, 88A, 101, 147, 147A, 161",MR LIM HOCK SEONG KELVIN,MR LEE THUAN SIM,MDM CHING LEE HOE,,,,,HOUGANG,NORTH,GOVERNMENT-AIDED SCH,BOYS' SCHOOL,SINGLE SESSION,SECONDARY,No,No,No,No,Chinese,Malay,Tamil,1.37396126564931,103.888928609198,True,ChIJW13e10cW2jERLHgvnIRAmjs,63,3.9,0.011074002460889435,4.011885788042747
72,176,NAN CHIAU HIGH SCHOOL,http://www.nchs.edu.sg,20   ANCHORVALE LINK,545079,64897971,na,64897970,na,nchs@moe.edu.sg,"SENGKANG MRT, RENJONG LRT, TONGKANG LRT","43, 83, 85, 109, 156, 159, 161, 163, 372",MISS SIAU FONG FUI,MDM CHOW NYET YOON,,,,,,SENG KANG,NORTH,GOVERNMENT-AIDED SCH,CO-ED SCHOOL,SINGLE SESSION,SECONDARY,Yes,No,No,No,Chinese,na,na,1.38879582498399,103.890004423764,True,ChIJ85po32wW2jERkrPOx6i8vPw,108,4.5,0.018984004218667604,4.022381263367776
73,178,NAN HUA HIGH SCHOOL,http://www.nanhuahigh.moe.edu.sg,41   CLEMENTI AVENUE 1,129956,67788303,na,67751956,na,nhhs@moe.edu.sg,CLEMENTI MRT,"14, 33, 52, 78, 96, 97, 105, 106, 147, 151, 154, 165, 166, 183, 185, 188, 189, 196, 197, 198, 282, 285, 963",MRS TAN JONG LEK,MDM TAN MOK JEE,MR KONG KOK HENG MELVIN,,,,,CLEMENTI,WEST,GOVERNMENT SCHOOL,CO-ED SCHOOL,SINGLE SESSION,SECONDARY,Yes,Yes,No,No,Chinese,na,na,1.30809501788853,103.768561208484,True,ChIJ85po32wW2jERkrPOx6i8vPw,108,4.5,0.018984004218667604,4.022381263367776
74,180,NANYANG GIRLS' HIGH SCHOOL,https://www.nygh.edu.sg,2    LINDEN DRIVE,288683,64663275,na,64667564,na,nanyanggirls@nygh.edu.sg,"SIXTH AVENUE MRT, TAN KAH KEE MRT","66, 67, 74, 151, 154, 156, 157, 170, 174, 852, 961",MS NG CHUEN- YIN,DR LIU SHIUEH LING,MISS SEET YING LING BRITTA,MS NG MIEN MIEN AGNES,,,,BUKIT TIMAH,WEST,INDEPENDENT SCHOOL,GIRLS' SCHOOL,SINGLE SESSION,SECONDARY,Yes,No,Yes,Yes,Chinese,na,na,1.33058326666479,103.802420979943,True,ChIJkdwXaaEQ2jERWUng9MnBNG4,81,4.3,0.014238003164000703,4.017223018425879
75,185,NAVAL BASE SECONDARY SCHOOL,http://www.navalbasesec.moe.edu.sg,901  YISHUN RING ROAD,768689,62571996,na,67557706,na,NBSS@MOE.EDU.SG,KHATIB MRT,"39, 85, 117, 670, 807, 811, 812, 851, 852, 853, 854, 855, 857, 858, 965, 969",MR SULAIMAN B MOHAMAD YUSOF,MR LIM SEOW KUAN,MR LYE GUO RONG LIONEL,,,,,YISHUN,NORTH,GOVERNMENT SCHOOL,CO-ED SCHOOL,SINGLE SESSION,SECONDARY,No,No,No,No,Chinese,Malay,Tamil,1.41937881620441,103.831050390247,True,ChIJwcWSZmcT2jERSM2_uLfXEQc,33,3.7,0.005800667955703991,4.011322272589054
76,187,NEW TOWN SECONDARY SCHOOL,http://www.newtownsec.moe.edu.sg,1020 DOVER ROAD,139657,67754140,na,67752310,na,ntss@moe.edu.sg,"DOVER MRT, CLEMENTI MRT","33, 96, 96A, 151, 196, 183",MDM TAN SIEW HONG (MRS SNG),MR CHAN KOK TUNG TOM,MR LEONARD TAN SOON TECK,,,,,QUEENSTOWN,WEST,GOVERNMENT SCHOOL,CO-ED SCHOOL,SINGLE SESSION,SECONDARY,No,No,No,No,Chinese,Malay,Tamil,1.30977590011357,103.77318863421,True,ChIJQVeL74oa2jER84tkJiqj9nk,43,3.6,0.007558446124099139,4.0100159996304825
77,189,NGEE ANN SECONDARY SCHOOL,http://www.ngeeannsec.moe.edu.sg,1    TAMPINES STREET 32,529283,67844583,na,67840453,na,nass@moe.edu.sg,"TAMPINES MRT, SIMEI MRT, TAMPINES EAST MRT","3, 4, 8, 9, 12, 17, 18, 19, 21, 28, 29, 34, 37, 38, 39, 59, 81, 291, 293, 518, 552",MR TEO KOK HONG,MDM TAN LAY GIN,MR TAN YIT KEE,,,,,TAMPINES,EAST,GOVERNMENT-AIDED SCH,CO-ED SCHOOL,SINGLE SESSION,SECONDARY,No,Yes,No,No,Chinese,Malay,Tamil,1.35447525755806,103.956747262496,True,ChIJ4dRFNgM92jERpiiGM9jfBrM,53,4.3,0.009316224292494287,4.015811150472228
78,193,NORTH VISTA SECONDARY SCHOOL,http://www.northvistasec.moe.edu.sg,11   RIVERVALE LINK,545081,68793930,na,68793931,na,northvistass@moe.edu.sg,"SENGKANG MRT, BUANGKOK MRT, RANGGUNG LRT","80, 82, 87, 88, 89, 119",MR YAP THIAM CHUAN,MR MOHAMED NASIM S/O ABDUL RAHIM,,,,,,SENG KANG,NORTH,GOVERNMENT SCHOOL,CO-ED SCHOOL,SINGLE SESSION,SECONDARY,No,No,No,No,Chinese,Malay,Tamil,1.381131285358,103.899188813886,True,ChIJ5Szukj0W2jERQ9wG42kfcEM,36,4.0,0.0063280014062225345,4.013055544507072
79,194,NORTHBROOKS SECONDARY SCHOOL,http://www.northbrookssec.moe.edu.sg,585  YISHUN RING ROAD,768692,67524311,na,67566110,na,NORTHBROOKS@MOE.EDU.SG,"YISHUN MRT, KHATIB MRT","804, 806, 807, 860, 103",MR CHAN CHOON LOONG,MR ADAM BIN AHMAD,MISS POH SHI HUI,,,,,YISHUN,NORTH,GOVERNMENT SCHOOL,CO-ED SCHOOL,SINGLE SESSION,SECONDARY,No,No,No,No,Chinese,Malay,Tamil,1.42081285020652,103.845147332528,True,ChIJ_RXGkGoU2jER3L2_nFbbJ0w,59,3.5,0.010370891193531377,4.007816980650327
80,196,NORTHLAND SECONDARY SCHOOL,http://www.northlandsec.moe.edu.sg,3    YISHUN STREET 22,768578,62576781,na,62573634,na,NORTHLAND_SS@MOE.EDU.SG,YISHUN MRT,"811, 804, 800",MDM TAN SIEW WOON,MS BIAN YU WEI,MR PETERSON JOSEPH STANLEY,,,,,YISHUN,NORTH,GOVERNMENT SCHOOL,CO-ED SCHOOL,SINGLE SESSION,SECONDARY,No,No,No,No,Chinese,Malay,Tamil,1.43580183362637,103.840104687784,True,ChIJzfKZB2EU2jER0hbEKdPjBf8,36,4.1,0.0063280014062225345,4.0136883446476945
81,197,NORTHLIGHT SCHOOL,https://www.nls.edu.sg,151  Towner Road,327830,+65 69296290,na,+ 65 62912423,na,nls@moe.edu.sg,BOON KENG (NE9),"21, 125, 130, 139, 145, 13, 23, 31, 64, 65, 133, 147, 857, 985",MDM SUNG MEE HAR,MR RAJ KUMAR S/O V SIVALINGAM,,,,,,KALLANG,SOUTH,SPECIALISED SCHOOL,CO-ED SCHOOL,FULL DAY,SECONDARY,No,No,No,No,Chinese,Malay,Tamil,1.3191002158167,103.85575955353,True,ChIJyRw8TNoZ2jERky1_NiDN-R0,7,4.3,0.0012304447178766039,4.013491653119801
82,203,ORCHID PARK SECONDARY SCHOOL,http://www.orchidparksec.moe.edu.sg,10   YISHUN STREET 81,768454,67598547,na,67588770,na,opss@moe.edu.sg,KHATIB MRT,811,MR SHAWAL BIN HUSSIN,MDM TEO MEI LIN YVONNE,"MR WONG TIEN CHIEH, GLENN",,,,,YISHUN,NORTH,GOVERNMENT SCHOOL,CO-ED SCHOOL,SINGLE SESSION,SECONDARY,No,No,No,No,Chinese,Malay,Tamil,1.41532032779634,103.837859241343,True,ChIJ5T_UWREU2jERLVlNFqanRdM,28,4.1,0.0049217788715064156,4.013566198310738
83,204,OUTRAM SECONDARY SCHOOL,http://www.outramsec.moe.edu.sg,3    YORK HILL,168622,67334077,na,62352337,na,OSS@MOE.EDU.SG,"OUTRAM PARK MRT, CHINATOWN MRT","174 , 123, 16, 175, 195, 33, 5, 63, 75, 851, 970, 123, 186, 51, 64",MR BOO HIAN KOK,MR LIM PANG CHUANG,MDM GUINIEVE YEO LI-LYN,,,,,CENTRAL,SOUTH,GOVERNMENT SCHOOL,CO-ED SCHOOL,SINGLE SESSION,SECONDARY,No,No,No,No,Chinese,Malay,Tamil,1.28651357464735,103.837127264403,True,ChIJl94D8XYZ2jER25hY0PuCJog,23,3.4,0.004042889787308841,4.010659833999023
84,207,PASIR RIS CREST SECONDARY SCHOOL,http://www.prcss.moe.edu.sg,11   PASIR RIS STREET 41,518934,65811655,na,65813226,na,prcss@moe.edu.sg,PASIR RIS MRT,"358, 17, 81, 12, 3",MRS KOH CAIYU,MR ADRIAN LEOW LIP BOON,MR ASHRAF HYDER YUSOFF MANIAM,,,,,PASIR RIS,EAST,GOVERNMENT SCHOOL,CO-ED SCHOOL,SINGLE SESSION,SECONDARY,No,No,No,No,Chinese,Malay,Tamil,1.37284060102246,103.959728202919,True,ChIJWfHsY6092jERoJbkkNk2ECc,51,4.6,0.008964668658815258,4.018399703358897
85,209,PASIR RIS SECONDARY SCHOOL,http://pasirrissec.moe.edu.sg,390  TAMPINES STREET 21,529400,65010800,65010855,65010900,na,prss@moe.edu.sg,"TAMPINES MRT, TAMPINES EAST MRT,  TAMPINES WEST MRT","3, 4, 8, 10, 15, 18, 19, 20, 21, 22, 23, 27, 28, 29, 31, 37, 38, 39, 46, 65, 67, 68, 69, 72, 81, 127, 129, 168, 291, 292, 293, 298, 969",MDM GRACE TAN BEE SIM,MR LIN PEI,,,,,,TAMPINES,EAST,GOVERNMENT SCHOOL,CO-ED SCHOOL,SINGLE SESSION,SECONDARY,No,No,No,No,Chinese,Malay,Tamil,1.35422732653396,103.948962626204,True,ChIJ20PS5Q892jER2vxdSYzFMDk,32,4.5,0.005624890138864475,4.015877227534762
86,211,PAYA LEBAR METHODIST GIRLS' SCHOOL (SECONDARY),http://www.plmgss.moe.edu.sg,296  LOR AH SOO,536742,62816606,na,63820558,na,plmgss@moe.edu.sg,"KOVAN MRT, SERANGOON MRT","45, 53, 53M, 62, 113",MRS QUEK LI GEK,MDM TAN MAY LIN SELINA,,,,,,HOUGANG,EAST,GOVERNMENT-AIDED SCH,GIRLS' SCHOOL,SINGLE SESSION,SECONDARY,No,Yes,No,No,Chinese,Malay,Tamil,1.35096755912522,103.885120050588,True,ChIJR2icr1UW2jERRxsS7-OUXu8,0,0.0,0.0,4.013138686131388
87,214,PEI HWA SECONDARY SCHOOL,http://www.peihwasec.moe.edu.sg,21   FERNVALE LINK,797702,65009580,na,63438326,na,peihwasec@moe.edu.sg,"SENGKANG MRT, LAYAR LRT","50, 70, 86, 103, 163, 854",MDM YONG LI LING BELINDA,MR TAN CHER HUI PHILIP,MRS MICHELLE WILLMAN,,,,,SENG KANG,NORTH,GOVERNMENT SCHOOL,CO-ED SCHOOL,SINGLE SESSION,SECONDARY,No,No,No,No,Chinese,Malay,Tamil,1.39037504993234,103.878461745339,True,ChIJhcXuImUW2jERs8y3Ohdg0s8,49,3.9,0.008613113025136229,4.012164209840223
88,216,PEICAI SECONDARY SCHOOL,http://www.peicaisec.moe.edu.sg,10   SERANGOON AVENUE 4,556094,62884159,na,62830480,na,peicai_ss@moe.edu.sg,SERANGOON MRT,"22, 24, 43, 53, 70, 76, 103, 109, 116, 147, 156, 315, 317, 853",MR LIM KOK HWA,MISS TAN LI PING,MR SHUE PEI YAN,,,,,SERANGOON,SOUTH,GOVERNMENT SCHOOL,CO-ED SCHOOL,SINGLE SESSION,SECONDARY,No,No,No,No,Chinese,Malay,Tamil,1.35951583222214,103.870010749055,True,ChIJJ80ZrFUW2jERSTTEi9oUKeA,41,4.0,0.007206890490420109,4.013043997059251
89,217,PEIRCE SECONDARY SCHOOL,http://www.peircesec.moe.edu.sg,10   SIN MING WALK,575566,64576454,na,64576448,na,PEIRCE_SS@MOE.EDU.SG,"ANG MO KIO MRT, BISHAN MRT, MARYMOUNT MRT, BRIGHT HILL MRT (target opening in Q3, 2021)","52, 132, 162, 163, 165, 166, 167, 410, 855, 980",MDM BETTY CHANG,MRS NG MONG KHENG,MS NG BOON MIN,,,,,BISHAN,SOUTH,GOVERNMENT SCHOOL,CO-ED SCHOOL,SINGLE SESSION,SECONDARY,No,No,No,No,Chinese,Malay,Tamil,1.36665944653812,103.83021606804,True,ChIJfTn7ot4W2jER5vTsZfTB9t0,32,4.1,0.005624890138864475,4.0136272714792165
90,219,PING YI SECONDARY SCHOOL,http://pingyisec.moe.edu.sg,61   CHAI CHEE STREET,468980,64489580,na,64442731,na,pyss@moe.edu.sg,BEDOK MRT,"26, 222, 222B, 2, 7, 24, 25, 28, 30, 30E, 32, 33, 40, 67, 229, 854, 60, 87",MR ANG CHEE SENG,MR CHEONG HUEI LEONARD,,,,,,BEDOK,EAST,GOVERNMENT SCHOOL,CO-ED SCHOOL,SINGLE SESSION,SECONDARY,No,No,No,No,Chinese,Malay,Tamil,1.3270167275387,103.920700671987,True,ChIJV52xQlM92jERZf61zfI5HLI,42,3.0,0.007382668307259624,4.005659019262427
91,222,PRESBYTERIAN HIGH SCHOOL,http://www.presbyterian.moe.edu.sg,5209 ANG MO KIO AVENUE 6,569845,64543722,na,64543430,na,presbyterian@moe.edu.sg,YIO CHU KANG MRT,"45, 70, 70M, 71, 76, 86, 668, 851, 851e, 852, 853",MR OWYONG TUCK SING VICTOR,MISS YEW MEI FOONG SARAH,,,,,,ANG MO KIO,SOUTH,GOVERNMENT-AIDED SCH,CO-ED SCHOOL,SINGLE SESSION,SECONDARY,No,No,No,No,Chinese,Malay,Tamil,1.38180469460692,103.842431801992,True,ChIJpdznib8W2jERukg0dLhhDWQ,45,4.2,0.007910001757778168,4.01461675945255
92,227,PUNGGOL SECONDARY SCHOOL,http://www.punggolsec.moe.edu.sg,51   EDGEFIELD PLAINS,828870,64897851,na,64897859,na,PUNGGOL_SS@MOE.EDU.SG,"PUNGGOL MRT, COVE LRT","3, 34, 62, 82, 83, 85, 136, 965, 386",MS TOH ENG BENG ANGELINE,MR ANITH KUMAR S/O NADESAN,MR VINCENT LEE WEI YEE,,,,,PUNGGOL,NORTH,GOVERNMENT SCHOOL,CO-ED SCHOOL,SINGLE SESSION,SECONDARY,No,No,No,No,Chinese,Malay,Tamil,1.40205738421399,103.909213706482,True,ChIJqZR1cf4V2jERAIUHqAp3qAo,37,3.2,0.006503779223062049,4.007850211639059
93,232,QUEENSTOWN SECONDARY SCHOOL,http://www.queenstownsec.moe.edu.sg,1    STRATHMORE ROAD,148800,64741055,na,64741295,na,qtss@moe.edu.sg,"REDHILL MRT, QUEENSTOWN MRT","33, 51, 64, 111, 120, 139, 145, 186, 970",MDM RASIDAH BTE RAHIM,MR CHUA PUAY WEE ERIC,MRS YUE-CHANG TECK HUI,,,,,QUEENSTOWN,SOUTH,GOVERNMENT SCHOOL,CO-ED SCHOOL,SINGLE SESSION,SECONDARY,No,No,No,No,Chinese,Malay,Tamil,1.29352126774652,103.813190980055,True,ChIJw64wgS4a2jERIdntQ4JzrE4,33,3.5,0.005800667955703991,4.010162138997913
94,233,QUEENSWAY SECONDARY SCHOOL,http://www.queenswaysec.moe.edu.sg,2A   MARGARET DRIVE,149295,64741421,na,64741302,na,QSS@moe.edu.sg,"COMMONWEALTH MRT, QUEENSTOWN MRT","32, 51, 93, 100, 105, 111, 122, 123, 145, 147, 153, 186, 195, 196, 198, 855, 961, 970","MR TAN CHONG TZE, PETER",MR NG HOCK SOON,MR LOH KAR WAI JAY,,,,,QUEENSTOWN,SOUTH,GOVERNMENT SCHOOL,CO-ED SCHOOL,SINGLE SESSION,SECONDARY,No,No,No,No,Chinese,Malay,Tamil,1.30022271592188,103.802207291625,True,ChIJ4YNdxDga2jERqyL_K2b5IOw,37,4.0,0.006503779223062049,4.013053235017509
95,236,RAFFLES GIRLS' SCHOOL (SECONDARY),http://www.rgs.edu.sg,2    BRADDELL RISE,318871,67371845,na,62353731,na,RGSS@MOE.EDU.SG,"BRADDELL MRT, CALDECOTT MRT","59, 93, 129, 156, 157, 163, 231, 232, 235",MDM HASLINDA BTE ZAMANI,MS CHIN JEN FU,MS TAN HWEE MIAN MAY,MRS MARY CHERIYAN,,,,CENTRAL,SOUTH,INDEPENDENT SCHOOL,GIRLS' SCHOOL,SINGLE SESSION,SECONDARY,No,No,Yes,Yes,Chinese,Malay,Tamil,1.34217479932295,103.84313404727,True,ChIJUZgFRKwX2jERb8htKcSaiRU,27,4.7,0.004746001054666901,4.016398530651418
96,239,REGENT SECONDARY SCHOOL,http://regentsec.moe.edu.sg,50   CHOA CHU KANG NORTH 5,689621,67653828,na,67653413,na,REGENT_SS@MOE.EDU.SG,"YEW TEE MRT, CHOA CHU KANG MRT","307, 160, 170, 178, 925, 927, 960, 961, 979",MR LEONG KOK KEE,MRS TANG HUAY JIUAN PATRINE,,,,,,CHOA CHU KANG,WEST,GOVERNMENT SCHOOL,CO-ED SCHOOL,SINGLE SESSION,SECONDARY,No,No,No,No,Chinese,Malay,Tamil,1.39327908335682,103.751034411529,True,ChIJdbFVX-0R2jERx3e8YNpQy3w,24,3.7,0.004218667604148356,4.0118176581005995
97,243,RIVERSIDE SECONDARY SCHOOL,http://www.riversidesec.moe.edu.sg,3    WOODLANDS STREET 81,738524,62699631,na,63683677,na,RIVERSIDE_SS@MOE.EDU.SG,WOODLANDS MRT,"858, 900, 911, 913, 964, 962, 965, 969, 169, 903",MISS THAM YOKE CHUN,MR DERICK WONG TECK FATT,MDM LINDA YEO SOCK KHOON,,,,,WOODLANDS,NORTH,GOVERNMENT SCHOOL,CO-ED SCHOOL,SINGLE SESSION,SECONDARY,No,No,No,No,Chinese,Malay,Tamil,1.44110157139127,103.78830823641,True,ChIJVbY4uaki2jER-nRAtbCFZds,1,5.0,0.00017577781683951485,4.013312154458663
98,247,"SCHOOL OF SCIENCE AND TECHNOLOGY, SINGAPORE",http://www.sst.edu.sg,1    Technology Drive,138572,(65) 65717200,na,(65) 68720856,na,contactus@sst.edu.sg,Dover,"14, 74, 105, 106, 147, 166, 185",MRS LINDA CHAN,MRS CHEW EU JIN NEE LIM WAI LEE,,,,,,CLEMENTI,WEST,SPECIALISED INDEPENDENT SCHOOL,CO-ED SCHOOL,FULL DAY,SECONDARY,No,No,No,No,Chinese,Malay,Tamil,1.31292810600277,103.774011529322,True,ChIJPYcisoQa2jERUI4ypu17v4U,74,4.8,0.013007558446124098,4.023373830660527
99,250,SEMBAWANG SECONDARY SCHOOL,http://www.sembawangsec.moe.edu.sg,30   SEMBAWANG CRESCENT,757704,67566760,na,67585380,na,SEMBAWANG_SS@MOE.EDU.SG,SEMBAWANG MRT,"859, 859A, 962",MR JASWANT SINGH,MR GOH KEE YONG @ GOH CHONG HENG,MR LEE YONG KIANG JUSTIN,,,,,SEMBAWANG,NORTH,GOVERNMENT SCHOOL,CO-ED SCHOOL,SINGLE SESSION,SECONDARY,No,No,No,No,Chinese,Malay,Tamil,1.44531502131387,103.816843258118,True,ChIJ1wG7bnwT2jER_ObuqG1wp8E,25,4.4,0.004394445420987872,4.014838727060675
100,252,SENG KANG SECONDARY SCHOOL,http://www.sengkangsec.moe.edu.sg,10   COMPASSVALE LANE,545090,63887258,na,63887254,na,skss@moe.edu.sg,"SENGKANG MRT, RANGGUNG LRT","27, 80, 85, 86, 87, 89, 89E, 163, 163M, 372",MR KOH YIAK KHENG,MR TAN TECK TIAN,MDM NAZIMAH BTE ABDULLAH,,,,,SENG KANG,NORTH,GOVERNMENT SCHOOL,CO-ED SCHOOL,SINGLE SESSION,SECONDARY,No,No,No,No,Chinese,Malay,Tamil,1.38659683143747,103.898365036709,True,ChIJNZ4hxhYW2jERHX12R6Oy190,52,4.1,0.009140446475654773,4.013932637321608
101,254,SERANGOON GARDEN SECONDARY SCHOOL,http://www.sgs.edu.sg,21   SERANGOON NORTH AVENUE 1,555889,62889227,65789177,62888695,na,sgss@moe.edu.sg,"SERANGOON MRT, ANG MO KIO MRT","25, 55, 73, 74, 74e, 76, 132, 165, 315",MDM GOH MIEN HUI VALERIE,MDM LEE HWEE PING,MR QUEK CHOON HSIONG,,,,,SERANGOON,SOUTH,GOVERNMENT SCHOOL,CO-ED SCHOOL,SINGLE SESSION,SECONDARY,No,No,No,No,Chinese,Malay,Tamil,1.36932570490947,103.869270301476,True,ChIJwxr2FlYW2jER-TYK01IJvTk,42,4.5,0.007382668307259624,4.016733021723316
102,255,SERANGOON SECONDARY SCHOOL,http://www.serangoonsec.moe.edu.sg,11   UPPER SERANGOON VIEW,534237,63851589,na,63851635,na,SERANGOON_SS@MOE.EDU.SG,"HOUGANG MRT, KANGKAR LRT","62, 74, 102, 113, 119, 136, 147, 324",MDM TAY SIOK HWA,MR JIN SEBASTIAN,MR TAN SOON HUI,,,,,HOUGANG,NORTH,GOVERNMENT SCHOOL,CO-ED SCHOOL,SINGLE SESSION,SECONDARY,No,No,No,No,Chinese,Malay,Tamil,1.37465538827443,103.902138740699,True,ChIJe3XXMiUW2jERAIcZitUm7dA,39,3.7,0.006855334856741079,4.010992015581357
103,259,SINGAPORE CHINESE GIRLS' SCHOOL,http://www.scgs.moe.edu.sg,190  DUNEARN ROAD,309437,62527966,na,62523076,na,SCGSS@MOE.EDU.SG,STEVENS MRT,"48, 66, 67, 105, 132, 151, 153, 154, 156, 170, 186, 190, 960, 971E, 972",MDM TAN YUNCHIN EUGENIA,MRS SHERMAINE TANG,MDM HO HUI PING,,,,,NOVENA,NORTH,INDEPENDENT SCHOOL,GIRLS' SCHOOL,SINGLE SESSION,SECONDARY,No,No,No,Yes,Chinese,Malay,Tamil,1.3206340835184,103.828164966953,True,ChIJTWmHvPsZ2jERkQKp5z4AY_o,70,4.5,0.01230444717876604,4.0191292454512695
104,262,SPECTRA SECONDARY SCHOOL,https://www.spectra.edu.sg,1    WOODLANDS DRIVE 64,737758,64660775,na,64623928,na,spectra@schools.gov.sg,ADMIRALTY MRT,"901M, 904, 912, 913, 962, 964, 965, 969",MR TAN TECK HOCK,MR HOW PUI SENG,MR YIP CHOONG SENG JIMMY,,,,,WOODLANDS,NORTH,SPECIALISED SCHOOL,CO-ED SCHOOL,SINGLE SESSION,SECONDARY,No,No,No,No,Chinese,Malay,Tamil,1.43703750789961,103.804100467487,True,ChIJTXT5XbwR2jERbkmADGYcJ4U,34,4.6,0.005976445772543505,4.016646030949727
105,264,SPRINGFIELD SECONDARY SCHOOL,http://www.springfieldsec.moe.edu.sg,30   TAMPINES AVENUE 8,529593,63183053,na,63183050,na,SPRINGFIELDS@MOE.EDU.SG,"TAMPINES MRT, TAMPINES WEST MRT","8, 15, 23, 58, 69, 118, 129, 291, 293, 298, 513, 518",MRS MABEL LEONG,MR CHAN WENG ONN MARTIN,MR KEITH TAN,,,,,TAMPINES,EAST,GOVERNMENT SCHOOL,CO-ED SCHOOL,SINGLE SESSION,SECONDARY,No,No,No,No,Chinese,Malay,na,1.34957303471476,103.930354460693,True,ChIJPUgBxm492jERAE1mVRBzYuc,25,4.0,0.004394445420987872,4.01308094889228
106,267,ST. ANDREW'S SECONDARY SCHOOL,http://www.standrewssec.moe.edu.sg,15   FRANCIS THOMAS DRIVE,359342,62851944,na,63823779,na,sass@moe.edu.sg,POTONG PASIR MRT,"8, 13, 26, 31, 90, 90A, 107, 133, 142, 147, 853",MR LEE HAN HWA,"MR TEO HAN WOON, DENNIS",MISS TEO PEK HOON AGNES,,,,,TOA PAYOH,SOUTH,GOVERNMENT-AIDED SCH,BOYS' SCHOOL,SINGLE SESSION,SECONDARY,No,No,No,No,Chinese,Malay,Tamil,1.33069360968075,103.866249138562,True,ChIJUyNUM38X2jERxwmryew2_9Q,44,4.2,0.0077342239409386535,4.014583913378745
107,269,ST. ANTHONY'S CANOSSIAN SECONDARY SCHOOL,http://www.stanthonyscanossiansec.moe.edu.sg,1600 BEDOK NORTH AVENUE 4,469700,64490616,na,64490162,na,sacss@moe.edu.sg,"BEDOK MRT, BEDOK RESERVOIR MRT","17, 14, 46, 222",MDM KOH TYNG YUANN FIONA,MDM NG MEOW LENG NANCY,MISS WANG SIEW PING,,,,,BEDOK,EAST,GOVERNMENT-AIDED SCH,GIRLS' SCHOOL,SINGLE SESSION,SECONDARY,No,Yes,No,No,Chinese,Malay,Tamil,1.33466313498855,103.941977166932,True,ChIJjfcwdTc92jER2Ru8ojRZvR4,31,4.7,0.00544911232202496,4.016881470580311
108,272,ST. GABRIEL'S SECONDARY SCHOOL,http://www.stgabrielssec.moe.edu.sg,24   SERANGOON AVENUE 1,556140,62889470,na,62898615,na,STGSS@MOE.EDU.SG,SERANGOON MRT,158,MR LIM CHEE KOON SHAWN,MISS CHENG LI NGOH JACKIE,MDM YEE WHOY CHONG,,,,,SERANGOON,SOUTH,GOVERNMENT-AIDED SCH,BOYS' SCHOOL,SINGLE SESSION,SECONDARY,No,No,No,No,Chinese,Malay,Tamil,1.34638285704974,103.875808419206,True,ChIJyVZuRqIX2jERnq6uQOp7hc0,46,3.7,0.008085779574617683,4.010606715739044
109,274,ST. HILDA'S SECONDARY SCHOOL,http://www.sthildassec.moe.edu.sg,2    TAMPINES STREET 82,528986,63055277,na,67865011,na,SHSS@MOE.EDU.SG,"TAMPINES MRT, TAMPINES WEST MRT","22, 129, 293, 298","MDM HENG SUE LIN, JANICE",MDM SO MUN YEE,,,,,,TAMPINES,EAST,GOVERNMENT-AIDED SCH,CO-ED SCHOOL,SINGLE SESSION,SECONDARY,No,No,No,No,Chinese,Malay,Tamil,1.34973922385379,103.937608032148,True,ChIJdxDVsGw92jERAtnidZa73xw,55,3.4,0.009667779926173316,4.007210996249646
110,278,ST. MARGARET'S SECONDARY SCHOOL,http://www.stmargaretssec.moe.edu.sg,111  FARRER ROAD,259240,64664525,na,64666709,na,stmargaretss@moe.edu.sg,FARRER ROAD MRT,"48, 93, 153, 165, 174, 186, 855, 961",MISS LIM HUI KHENG LINDA,MS TOH SUSAN,,,,,,BUKIT TIMAH,SOUTH,GOVERNMENT-AIDED SCH,GIRLS' SCHOOL,SINGLE SESSION,SECONDARY,No,Yes,No,No,Chinese,Malay,Tamil,1.31977464050584,103.809602215402,True,ChIJH2pxgw8a2jERX5BLcr7qwiM,28,4.7,0.0049217788715064156,4.016519265633641
111,279,ST. PATRICK'S SCHOOL,http://www.stpatricks.moe.edu.sg,490  EAST COAST ROAD,429058,63440929,63441429,63445152,na,stpatricksch@moe.edu.sg,KEMBANGAN MRT,"10, 10E, 12, 13, 14, 14E, 15, 16, 31, 32, 36, 40, 43, 47, 48, 55, 135, 150, 155, 196, 197",MR MARK GERARD MINJOOT,MR LEONG TSHUN KHONG PAUL,MS NG FOONG MENG,,,,,BEDOK,EAST,GOVERNMENT-AIDED SCH,BOYS' SCHOOL,SINGLE SESSION,SECONDARY,No,No,No,No,Chinese,Malay,Tamil,1.30788341871801,103.917638193713,True,ChIJBes0raEi2jERUSJGpFR9rt8,57,4.3,0.010019335559852346,4.016012845894178
112,282,SWISS COTTAGE SECONDARY SCHOOL,http://www.swisscottagesec.moe.edu.sg,3    BUKIT BATOK STREET 34,659322,65637173,na,65693028,na,SCSS@MOE.EDU.SG,BUKIT GOMBAK MRT,"187, 188, 985, 945",MR SHERWIN CHENG SAN SHIAN,MR HOI WENG KIT DERRICK,MISS WONG WEE LING,,,,,BUKIT BATOK,WEST,GOVERNMENT SCHOOL,CO-ED SCHOOL,SINGLE SESSION,SECONDARY,No,No,No,No,Chinese,Malay,Tamil,1.36471742697475,103.750396136688,True,ChIJgfrSysoR2jERoO34OodTnTM,55,4.2,0.009667779926173316,4.014945220190585
113,286,TAMPINES SECONDARY SCHOOL,https://www.tampinessec.moe.edu.sg,252  TAMPINES ST 12,529427,67835423,na,67843059,na,TPSS@MOE.EDU.SG,TAMPINES MRT,"3,  8,  10,  15,  17,  18,  20,  21,  23,  27,  28,  31,  34,  39,  59,  65,  129,  168,  292,  298,  518",MR LAN MINGJUN,MS SANTHA SUKUMARAN,MR CHEONG TIEN BENG,,,,,TAMPINES,EAST,GOVERNMENT SCHOOL,CO-ED SCHOOL,SINGLE SESSION,SECONDARY,No,No,No,No,Chinese,Malay,Tamil,1.34926094811197,103.944263709507,True,ChIJ12A9rBY92jERVZn3vU8ZIjc,23,4.6,0.004042889787308841,4.015511301743794
114,287,TANGLIN SECONDARY SCHOOL,http://www.tanglinsec.moe.edu.sg,301  WEST COAST ROAD,127391,64248200,na,67734457,na,tanglin_ss@moe.edu.sg,CLEMENTI MRT,"30, 51, 78, 143, 285, 655",MR CHONG JACK SHENG,MR CHEEN HSIEN HONG,DR LIM SIEW YEE,,,,,CLEMENTI,SOUTH,GOVERNMENT SCHOOL,CO-ED SCHOOL,SINGLE SESSION,SECONDARY,No,No,No,No,Chinese,Malay,Tamil,1.30970169234123,103.758158358303,True,ChIJfQ59XpMa2jER--fgwJHW_No,44,3.6,0.0077342239409386535,4.0099433790141825
115,288,TANJONG KATONG GIRLS' SCHOOL,http://www.tkgs.moe.edu.sg,20   Dunman Lane,439272,63441593,na,63451487,64409187(from 2017),tkgs@moe.edu.sg,"PAYA LEBAR MRT, DAKOTA MRT","10, 16, 31, 32, 33, 40, 43, 134, 135, 197",MISS CHEW ING LIM,MDM YEHIDAAH BEEVI D/O SHAIK A,,,,,,MARINE PARADE,EAST,GOVERNMENT SCHOOL,GIRLS' SCHOOL,SINGLE SESSION,SECONDARY,No,Yes,No,No,Chinese,Malay,Tamil,1.3075626184394,103.896107204542,True,ChIJCcZUmBQY2jERLWlgmkJNVUg,50,4.6,0.008788890841975743,4.018296546158357
116,290,TANJONG KATONG SECONDARY SCHOOL,http://www.tanjongkatongsec.moe.edu.sg,130  HAIG ROAD,438796,63443471,na,64409624,na,tkss@moe.edu.sg,"PAYA LEBAR MRT, DAKOTA MRT","10, 16, 31, 32, 33, 40, 76, 135, 197",MRS DOLLY ONG KIM LENG,MR KOH TONG SEAH,MDM NG SIEW CHIN,,,,,MARINE PARADE,EAST,GOVERNMENT SCHOOL,CO-ED SCHOOL,SINGLE SESSION,SECONDARY,No,Yes,No,No,Chinese,Malay,Tamil,1.30873515955341,103.897225196199,True,ChIJ8-tgbxMY2jER4haSZZeJJX8,56,4.5,0.009843557743012831,4.017931133587293
117,294,TECK WHYE SECONDARY SCHOOL,http://www.teckwhyesec.moe.edu.sg,31   TECK WHYE CRESCENT,688848,67691386,na,67630487,na,TWSS@MOE.EDU.SG,"CHUA CHU KANG MRT, PHOENIX LRT","975, 985, 190, 982E",MR N SIVARAJAN,MISS DIANA GOH BOON LANG,MDM JANE LEE EE LEI,,,,,CHOA CHU KANG,WEST,GOVERNMENT SCHOOL,CO-ED SCHOOL,SINGLE SESSION,SECONDARY,No,No,No,No,Chinese,Malay,Tamil,1.38333422637073,103.75510327583,True,ChIJe5r-9JUR2jERqq2Ga_xE6HU,37,4.1,0.006503779223062049,4.013703612939815
118,298,TEMASEK SECONDARY SCHOOL,https://temaseksec.moe.edu.sg,600  UPPER EAST COAST ROAD,465561,64495020,na,64491450,na,temasek_ss@moe.edu.sg,"BEDOK MRT, TANAH MERAH MRT","10, 10E, 13, 14, 25, 43, 46, 55, 137, 229, 506, 531, 853",MS LEAH AW,MR PONG WEN LONG,MR TAY MENG KIAT,,,,,BEDOK,EAST,GOVERNMENT SCHOOL,CO-ED SCHOOL,SINGLE SESSION,SECONDARY,No,Yes,No,No,Chinese,Malay,Tamil,1.31591673150616,103.947564112022,True,ChIJdScVbsUi2jERaJMleOPFO-0,49,4.5,0.008613113025136229,4.017332077655304
119,301,UNITY SECONDARY SCHOOL,http://www.unitysec.moe.edu.sg,20   CHOA CHU KANG STREET 62,689143,67671070,na,67654189,na,UNITY_SS@MOE.EDU.SG,YEW TEE MRT,307,MDM AINI BTE MAAROF,MR DANIEL ONG POH SOON,MS NG TIEN NI JENNY,,,,,CHOA CHU KANG,WEST,GOVERNMENT SCHOOL,CO-ED SCHOOL,SINGLE SESSION,SECONDARY,No,No,No,No,Chinese,Malay,Tamil,1.40002893292855,103.746025843729,True,ChIJYXG3hboR2jER1NWg9HlVdbU,1,4.0,0.00017577781683951485,4.013136376641823
120,304,VICTORIA SCHOOL,http://www.victoria.moe.edu.sg,2    SIGLAP LINK,448880,62912965,na,64452609,na,VICTORIA_SCH@MOE.EDU.SG,"BEDOK MRT, PAYA LEBAR MRT","31, 36, 43, 47, 48, 55, 135, 155, 196, 196E, 197, 401, 853C",MR CHOW WEISI,MR TAN ENG HONG JONATHAN,MR NEO WEI CHUNG,,,,,BEDOK,EAST,GOVERNMENT SCHOOL,BOYS' SCHOOL,SINGLE SESSION,SECONDARY,No,Yes,Yes,Yes,Chinese,Malay,Tamil,1.3087130270751,103.927980966639,True,ChIJc7BTFL0i2jERlMgdrEH1rjA,110,4.6,0.019335559852346633,4.024485978190721
121,309,WEST SPRING SECONDARY SCHOOL,http://www.westspringsec.moe.edu.sg,61   SENJA  ROAD,677737,68920369,na,68929468,na,westspringss@moe.edu.sg,"JELAPANG LRT, SENJA LRT","920, 972, 976",MR TAN CHIN ENG ADOLPHUS,MR LIM HAN SENG ANDREW,MR V SIVA KUMAR,,,,,BUKIT PANJANG,WEST,GOVERNMENT SCHOOL,CO-ED SCHOOL,SINGLE SESSION,SECONDARY,No,No,No,No,Chinese,Malay,Tamil,1.38782283303782,103.760128840155,True,ChIJZS8GNJER2jERSd-ue7liC-Q,51,3.3,0.008964668658815258,4.006745634102437
122,312,WESTWOOD SECONDARY SCHOOL,http://www.westwoodsec.moe.edu.sg,11   JURONG WEST STREET 25,648350,67929737,na,67929738,na,WESTWOOD_SS@MOE.EDU.SG,BOON LAY MRT,"172, 181, 181M, 185, 199, 405, 974",MR ABDUL HARRIS B SUMARDI,MISS TAN MING MING,,,,,,JURONG WEST,WEST,GOVERNMENT SCHOOL,CO-ED SCHOOL,SINGLE SESSION,SECONDARY,No,No,No,No,Chinese,Malay,Tamil,1.35373698510994,103.701772102139,True,ChIJ811mo7kP2jERj4trV3RR83o,25,4.3,0.004394445420987872,4.014399282518577
123,314,WHITLEY SECONDARY SCHOOL,http://www.whitleysec.moe.edu.sg,30   BISHAN STREET 24,579747,64561336,na,64591330,na,WHITLEY_SS@MOE.EDU.SG,"BISHAN MRT, MARYMOUNT MRT","13, 52, 54, 74, 74E, 88, 162, 162M,  588, 410, 851, 852",MDM S SAROJA,MR TYEBALLY AZIZ,MR KANG LENG KHIM VINCENT,,,,,BISHAN,SOUTH,GOVERNMENT SCHOOL,CO-ED SCHOOL,SINGLE SESSION,SECONDARY,No,No,No,No,Chinese,Malay,Tamil,1.35505208480649,103.842552378136,True,ChIJR3MuzCIX2jER5ycdmkoIBCs,29,3.2,0.005097556688345931,4.008993665583346
124,316,WOODGROVE SECONDARY SCHOOL,https://woodgrovesec.moe.edu.sg/,3    WOODLANDS AVENUE 6,738990,68932564,na,68934458,na,woodgrove_ss@moe.edu.sg,"WOODLANDS MRT, WOODLANDS SOUTH MRT","901, 901M",MR CHUA CHOR HUAT,MR TAN BOON CHENG,MISS FOO SIEW YONG,,,,,WOODLANDS,NORTH,GOVERNMENT SCHOOL,CO-ED SCHOOL,SINGLE SESSION,SECONDARY,No,No,No,No,Chinese,Malay,Tamil,1.42831828137013,103.79604758539,True,ChIJxTTIQ70T2jERe28Kgjsxdy8,33,3.9,0.005800667955703991,4.012482406180195
125,319,WOODLANDS RING SECONDARY SCHOOL,http://www.woodlandsringsec.moe.edu.sg,10   WOODLANDS RING ROAD,738239,63643712,na,63643713,na,wrss@moe.edu.sg,ADMIRALTY MRT,912,MDM NG SIEW BEE,MDM NUR HIDAYANI IBRAHIM,MDM KOMATHI D/O P KESAVAN,,,,,WOODLANDS,NORTH,GOVERNMENT SCHOOL,CO-ED SCHOOL,SINGLE SESSION,SECONDARY,No,No,No,No,Chinese,Malay,Tamil,1.43648894729939,103.800148469692,True,ChIJsQFWHZ8T2jERXvFjKvKzJ7c,46,4.0,0.008085779574617683,4.01303244961143
126,320,WOODLANDS SECONDARY SCHOOL,http://www.woodlandssec.moe.edu.sg,11   MARSILING ROAD,739111,68494400,na,62691774,na,wdl_ss@moe.edu.sg,"MARSILING MRT, WOODLANDS MRT","913, 913M, 913T, 178, 856, 903",MDM TAN YANG FERN,MDM MASAYU BINTE MAHMUD,MR CHEN BING HONG,,,,,WOODLANDS,NORTH,GOVERNMENT SCHOOL,CO-ED SCHOOL,SINGLE SESSION,SECONDARY,No,No,No,No,Chinese,Malay,Tamil,1.43912528141356,103.774586410437,True,ChIJp6X9RFUS2jERoFQo_5hh1NY,39,4.1,0.006855334856741079,4.013734149524054
127,324,XINMIN SECONDARY SCHOOL,http://www.xinminsec.moe.edu.sg,11   HOUGANG AVENUE 8,538789,62889382,na,63851068,na,xinminss_email@schools.gov.sg,HOUGANG MRT,"25, 43, 43M, 55, 70, 70A, 70B, 70M, 72, 72A, 73, 73A, 74, 74E, 88, 88A, 103, 109, 109A, 112, 116, 132, 147, 159, 159A, 161, 165, 329, 660, 854, 854E",MR TAN KUO CHEANG,MDM NURAZIAN BINTE BAJURI,MDM WU DANPING,,,,,HOUGANG,NORTH,GOVERNMENT SCHOOL,CO-ED SCHOOL,SINGLE SESSION,SECONDARY,No,Yes,No,No,Chinese,Malay,Tamil,1.37255884700002,103.88305161385,True,ChIJ84dTeU8W2jERdDDocehRdhk,48,4.6,0.008437335208296712,4.018090231757279
128,329,YIO CHU KANG SECONDARY SCHOOL,http://www.yiochukangsec.moe.edu.sg,3063 ANG MO KIO AVENUE 5,569868,64560669,na,65522927,na,yckss@moe.edu.sg,YIO CHU KANG MRT,"13, 45, 86, 138, 162, 269, 851, 852, 853",MRS LIM CAROL,MISS S G SARAH ABDULLAH,MR LIM HOCK CHYE KEVIN,,,,,ANG MO KIO,SOUTH,GOVERNMENT SCHOOL,CO-ED SCHOOL,SINGLE SESSION,SECONDARY,No,No,No,No,Chinese,Malay,Tamil,1.37797597740925,103.84213696352,True,ChIJYYK2KsIW2jERgNjCTn6rW6Q,36,3.5,0.0063280014062225345,4.009891543803961
129,332,YISHUN SECONDARY SCHOOL,http://www.yishunsec.moe.edu.sg,4    YISHUN STREET 71,768516,68767129,na,67557748,na,YISHUN_SS@MOE.EDU.SG,"YISHUN MRT, KHATIB MRT","167,  169,  171,  800,  807, 811, 812,  856,  858,  859,  860,  969, 980",MRS REGINA LEE,MR TAN HOCK CHUAN MICHAEL,MR TAY HIANG SOON,,,,,YISHUN,NORTH,GOVERNMENT SCHOOL,CO-ED SCHOOL,SINGLE SESSION,SECONDARY,No,No,No,No,Chinese,Malay,Tamil,1.42813324276086,103.828764316679,True,ChIJ0zMq5XAU2jERWEJMS7JQEHU,36,4.5,0.0063280014062225345,4.016219545210183
130,333,YISHUN TOWN SECONDARY SCHOOL,http://www.yishuntownsec.moe.edu.sg,6    YISHUN STREET 21,768610,67587219,na,67559112,na,YTSS@MOE.EDU.SG,YISHUN MRT,"39, 85, 171, 800, 803, 804, 806, 811, 812, 851, 852, 853, 853C, 854, 854E, 855, 856, 857, 859, 860",MR NG TEO HENG,MR OW WENG KEONG,MR LOONG CHIEH YUNG (LONG JIRONG),,,,,YISHUN,NORTH,GOVERNMENT SCHOOL,CO-ED SCHOOL,SINGLE SESSION,SECONDARY,No,Yes,No,No,Chinese,Malay,Tamil,1.43232156717386,103.838094226361,True,ChIJcTpuMGQU2jERAX3Wglnpp-8,46,4.2,0.008085779574617683,4.014649605526353
131,335,YUAN CHING SECONDARY SCHOOL,http://www.yuanchingsec.moe.edu.sg,103  YUAN CHING ROAD,618654,62612489,na,62616275,na,YCSS@MOE.EDU.SG,LAKESIDE MRT,"98, 154, 154A, 180, 182, 187, 240, 240A, 246",MS NG SOOK KIT,MR LOH KOK NIAM VINCENT,MR CHEONG LIT SERN WESLEY,,,,,JURONG WEST,WEST,GOVERNMENT SCHOOL,CO-ED SCHOOL,SINGLE SESSION,SECONDARY,No,No,No,No,Chinese,Malay,Tamil,1.34200635764467,103.72089870437,True,ChIJc7QP2OUP2jERWYOwC5RTKAQ,35,3.6,0.00615222358938302,4.010596964560883
132,337,YUHUA SECONDARY SCHOOL,http://www.yuhuasec.moe.edu.sg,35   JURONG WEST STREET 41,649406,65661985,na,65696689,na,YUHUA_SS@MOE.EDU.SG,LAKESIDE MRT,"49, 98, 99, 157, 180, 185, 187, 198, 334, 335, 502","MR PANG CHIN KEAT, KEVIN",MR TAN WEIMING BRIAN,MR CHNG PUAY KEONG,,,,,JURONG WEST,WEST,GOVERNMENT SCHOOL,CO-ED SCHOOL,SINGLE SESSION,SECONDARY,No,No,No,No,Chinese,Malay,Tamil,1.34718626876968,103.722687235839,True,ChIJ1cQfVhEFBBARBg-S8fpTjKE,34,4.2,0.005976445772543505,4.014255452640709
133,339,YUSOF ISHAK SECONDARY SCHOOL,http://www.yusofishaksec.moe.edu.sg,11   BUKIT BATOK STREET 25,658712,65009800,na,65675502,na,yiss@moe.edu.sg,BUKIT BATOK MRT,"61, 66, 77, 106, 157, 174, 178, 506, 852, 963",MDM LEE WEE LIN MAUREEN,MR WILSON TAY SWEE KIAT,,,,,,BUKIT BATOK,WEST,GOVERNMENT SCHOOL,CO-ED SCHOOL,SINGLE SESSION,SECONDARY,No,No,No,No,Chinese,Malay,Tamil,1.34233921440623,103.760032628302,True,ChIJg9BjE-QV2jERjMP42B4mGaQ,3,4.3,0.0005273334505185445,4.01328995769785
134,340,YUYING SECONDARY SCHOOL,http://www.yuyingsec.moe.edu.sg,47   HOUGANG AVENUE 1,538884,62827968,na,62871607,na,yuying_ss@moe.edu.sg,"KOVAN MRT, SERANGOON MRT, HOUGANG MRT","25, 51, 53, 53M, 55, 62, 87, 113, 119, 151, 854",MR LO CHEE LIN,MDM NIAM HWEE PENG,MR FOO JUNG HIN SIMON,,,,,HOUGANG,SOUTH,GOVERNMENT-AIDED SCH,CO-ED SCHOOL,SINGLE SESSION,SECONDARY,No,No,No,No,Chinese,Malay,Tamil,1.35713595302467,103.890194755287,True,ChIJAzepNLYX2jERwgqu7U5cR3Y,33,3.2,0.005800667955703991,4.008421938611202
135,343,ZHENGHUA SECONDARY SCHOOL,http://www.zhenghuasec.moe.edu.sg,91   SENJA ROAD,677741,67639455,na,67633577,na,ZHENGHUA_SS@MOE.EDU.SG,JELAPANG LRT,"920, 922, 976",MR LIN YUCHENG EUGENE,MR PHOR HOAY GUAN,MDM TAN PEI LEE ELAINE,,,,,BUKIT PANJANG,WEST,GOVERNMENT SCHOOL,CO-ED SCHOOL,SINGLE SESSION,SECONDARY,No,No,No,No,Chinese,Malay,Tamil,1.38836583415352,103.765510638527,True,ChIJaWCuP5oR2jER1GwEhrFXAoA,29,3.9,0.005097556688345931,4.0125619552651886
136,345,ZHONGHUA SECONDARY SCHOOL,http://www.zhonghuasec.moe.edu.sg,13   SERANGOON AVENUE 3,556123,62824339,na,62823472,na,ZHONGHUA_SS@MOE.EDU.SG,SERANGOON MRT,"22, 43, 45, 53, 58, 70, 81, 82, 100, 101, 103, 105, 107, 109, 133, 135, 147, 153, 158, 315, 317, 853",MISS LOW SHIOK CHENG CINDY,MR KOH KAI HONG,,,,,,SERANGOON,SOUTH,GOVERNMENT SCHOOL,CO-ED SCHOOL,SINGLE SESSION,SECONDARY,No,Yes,No,No,Chinese,Malay,na,1.34840720846208,103.869430481414,True,ChIJjUsZsaAX2jERhzPkFdishq4,68,3.6,0.01195289154508701,4.0082004842229795
